{
  "country_code": "GM",
  "country": "Gambia",
  "city": "Kanifing",
  "geonameid": 2413106,
  "target_addresses": 50,
  "samples": [
    {
      "lat": 13.470477810668838,
      "lon": -16.654679576324643,
      "geoinfo": {
        "display_name": "Old Cape Road, Garden, Old Bakau and Cape Point, Serrekunda, Kanifing Municipal Council, The Gambia",
        "road": "Old Cape Road",
        "house_number": null,
        "neighbourhood": null,
        "suburb": null,
        "city_district": null,
        "city": "Serrekunda",
        "state": "Kanifing Municipal Council",
        "postcode": null,
        "country": "The Gambia",
        "country_code": "gm"
      },
      "address": "Old Cape Road, Kanifing, Kanifing Municipal Council, Gambia"
    },
    {
      "lat": 13.486453253050216,
      "lon": -16.664348447338906,
      "geoinfo": {
        "display_name": "Ocean Bay Resort, Kofi Annan Street, Garden, Old Bakau and Cape Point, Serrekunda, Kanifing Municipal Council, The Gambia",
        "road": "Kofi Annan Street",
        "house_number": null,
        "neighbourhood": null,
        "suburb": null,
        "city_district": null,
        "city": "Serrekunda",
        "state": "Kanifing Municipal Council",
        "postcode": null,
        "country": "The Gambia",
        "country_code": "gm"
      },
      "address": "Kofi Annan Street, Kanifing, Kanifing Municipal Council, Gambia"
    },
    {
      "lat": 13.480454746382716,
      "lon": -16.655118781066008,
      "geoinfo": {
        "display_name": "Garden, Old Bakau and Cape Point, Serrekunda, Kanifing Municipal Council, The Gambia",
        "road": null,
        "house_number": null,
        "neighbourhood": null,
        "suburb": null,
        "city_district": null,
        "city": "Serrekunda",
        "state": "Kanifing Municipal Council",
        "postcode": null,
        "country": "The Gambia",
        "country_code": "gm"
      },
      "address": "Kanifing, Kanifing Municipal Council, Gambia"
    },
    {
      "lat": 13.4637349650771,
      "lon": -16.651709297000213,
      "geoinfo": {
        "display_name": "Banjul - Serrekunda Highway, Old Jeshwang, Old Bakau and Cape Point, Kanifing, Kanifing Municipal Council, The Gambia",
        "road": "Banjul - Serrekunda Highway",
        "house_number": null,
        "neighbourhood": "Old Jeshwang",
        "suburb": null,
        "city_district": null,
        "city": "Kanifing",
        "state": "Kanifing Municipal Council",
        "postcode": null,
        "country": "The Gambia",
        "country_code": "gm"
      },
      "address": "Banjul - Serrekunda Highway, Kanifing, Kanifing Municipal Council, Gambia"
    },
    {
      "lat": 13.416263872911841,
      "lon": -16.665090537158143,
      "geoinfo": {
        "display_name": "Faji Kunda, Abuko, Kombo North/Saint Mary, Brikama, West Coast Division, The Gambia",
        "road": null,
        "house_number": null,
        "neighbourhood": null,
        "suburb": null,
        "city_district": null,
        "city": "Abuko",
        "state": "West Coast Division",
        "postcode": null,
        "country": "The Gambia",
        "country_code": "gm"
      },
      "address": "530, Faji Kunda, Abuko, Kombo North/Saint Mary, Brikama, 40121 West Coast Division, The Gambia"
    },
    {
      "lat": 13.471029792455761,
      "lon": -16.659297707938787,
      "geoinfo": {
        "display_name": "Old Cape Road, Garden, Old Bakau and Cape Point, Serrekunda, Kanifing Municipal Council, The Gambia",
        "road": "Old Cape Road",
        "house_number": null,
        "neighbourhood": null,
        "suburb": null,
        "city_district": null,
        "city": "Serrekunda",
        "state": "Kanifing Municipal Council",
        "postcode": null,
        "country": "The Gambia",
        "country_code": "gm"
      },
      "address": "132, Old Cape Road, Garden, Old Bakau and Cape Point, Serrekunda, 61811 Kanifing Municipal Council, The Gambia"
    },
    {
      "lat": 13.43611320565827,
      "lon": -16.674521140760508,
      "geoinfo": {
        "display_name": "Ebo Town, New Jeshwang and Ebo Town, Serrekunda, Kanifing Municipal Council, The Gambia",
        "road": null,
        "house_number": null,
        "neighbourhood": null,
        "suburb": "Ebo Town",
        "city_district": null,
        "city": "Serrekunda",
        "state": "Kanifing Municipal Council",
        "postcode": null,
        "country": "The Gambia",
        "country_code": "gm"
      },
      "address": "589, Ebo Town, New Jeshwang and Ebo Town, Serrekunda, 21689 Kanifing Municipal Council, The Gambia"
    },
    {
      "lat": 13.435183571218582,
      "lon": -16.697671237860867,
      "geoinfo": {
        "display_name": "Bakoteh, Sukuta, Kombo North/Saint Mary, Brikama, Kanifing Municipal Council, The Gambia",
        "road": null,
        "house_number": null,
        "neighbourhood": null,
        "suburb": null,
        "city_district": null,
        "city": "Sukuta",
        "state": "Kanifing Municipal Council",
        "postcode": null,
        "country": "The Gambia",
        "country_code": "gm"
      },
      "address": "635, Kanifing, 15652 Kanifing Municipal Council, Gambia"
    },
    {
      "lat": 13.448414380966629,
      "lon": -16.674486188136967,
      "geoinfo": {
        "display_name": "Kanifing, Kanifing Municipal Council, The Gambia",
        "road": null,
        "house_number": null,
        "neighbourhood": null,
        "suburb": null,
        "city_district": null,
        "city": "Kanifing",
        "state": "Kanifing Municipal Council",
        "postcode": null,
        "country": "The Gambia",
        "country_code": "gm"
      },
      "address": "753, Kanifing, 75045 Kanifing Municipal Council, The Gambia"
    },
    {
      "lat": 13.44706663570072,
      "lon": -16.676272180497946,
      "geoinfo": {
        "display_name": "St Theresa's School, Kairaba Avenue, Kanifing, Serrekunda, Kanifing Municipal Council, The Gambia",
        "road": "Kairaba Avenue",
        "house_number": null,
        "neighbourhood": null,
        "suburb": null,
        "city_district": null,
        "city": "Serrekunda",
        "state": "Kanifing Municipal Council",
        "postcode": null,
        "country": "The Gambia",
        "country_code": "gm"
      },
      "address": "429, Kairaba Avenue, Kanifing, 27114 Kanifing Municipal Council, Gambia"
    },
    {
      "lat": 13.44538875341852,
      "lon": -16.673337259693408,
      "geoinfo": {
        "display_name": "New Jeshwang and Ebo Town, Serrekunda, Kanifing Municipal Council, The Gambia",
        "road": null,
        "house_number": null,
        "neighbourhood": null,
        "suburb": null,
        "city_district": null,
        "city": "Serrekunda",
        "state": "Kanifing Municipal Council",
        "postcode": null,
        "country": "The Gambia",
        "country_code": "gm"
      },
      "address": "160, New Jeshwang and Ebo Town, Serrekunda, 88811 Kanifing Municipal Council, The Gambia"
    },
    {
      "lat": 13.446594482892294,
      "lon": -16.674238364281944,
      "geoinfo": {
        "display_name": "Westfield Car Park, Service Road, Kanifing, Serrekunda, Kanifing Municipal Council, The Gambia",
        "road": "Service Road",
        "house_number": null,
        "neighbourhood": null,
        "suburb": null,
        "city_district": null,
        "city": "Serrekunda",
        "state": "Kanifing Municipal Council",
        "postcode": null,
        "country": "The Gambia",
        "country_code": "gm"
      },
      "address": "513, Service Road, Kanifing, 17545 Kanifing Municipal Council, Gambia"
    },
    {
      "lat": 13.447778747483135,
      "lon": -16.676624165221,
      "geoinfo": {
        "display_name": "Kanifing, Serrekunda, Kanifing Municipal Council, The Gambia",
        "road": null,
        "house_number": null,
        "neighbourhood": null,
        "suburb": null,
        "city_district": null,
        "city": "Serrekunda",
        "state": "Kanifing Municipal Council",
        "postcode": null,
        "country": "The Gambia",
        "country_code": "gm"
      },
      "address": "360, Kanifing, Serrekunda, 61919 Kanifing Municipal Council, The Gambia"
    },
    {
      "lat": 13.445109490955621,
      "lon": -16.67592184629416,
      "geoinfo": {
        "display_name": "Standard Chartered, Kairaba Avenue, Latrikunda Yiringanya, Serrekunda, Kanifing Municipal Council, The Gambia",
        "road": "Kairaba Avenue",
        "house_number": null,
        "neighbourhood": null,
        "suburb": null,
        "city_district": null,
        "city": "Serrekunda",
        "state": "Kanifing Municipal Council",
        "postcode": null,
        "country": "The Gambia",
        "country_code": "gm"
      },
      "address": "449, Kairaba Avenue, Kanifing, 52874 Kanifing Municipal Council, Gambia"
    },
    {
      "lat": 13.448723770401372,
      "lon": -16.675211586014544,
      "geoinfo": {
        "display_name": "Kanifing, Serrekunda, Kanifing Municipal Council, The Gambia",
        "road": null,
        "house_number": null,
        "neighbourhood": null,
        "suburb": null,
        "city_district": null,
        "city": "Serrekunda",
        "state": "Kanifing Municipal Council",
        "postcode": null,
        "country": "The Gambia",
        "country_code": "gm"
      },
      "address": "091, Kanifing, Serrekunda, 34729 Kanifing Municipal Council, The Gambia"
    },
    {
      "lat": 13.444996813763648,
      "lon": -16.67367912743178,
      "geoinfo": {
        "display_name": "New Jeshwang, Ebo Town, New Jeshwang and Ebo Town, Serrekunda, Kanifing Municipal Council, The Gambia",
        "road": null,
        "house_number": null,
        "neighbourhood": "New Jeshwang",
        "suburb": "Ebo Town",
        "city_district": null,
        "city": "Serrekunda",
        "state": "Kanifing Municipal Council",
        "postcode": null,
        "country": "The Gambia",
        "country_code": "gm"
      },
      "address": "888, New Jeshwang, Ebo Town, New Jeshwang and Ebo Town, Serrekunda, 29082 Kanifing Municipal Council, The Gambia"
    },
    {
      "lat": 13.44788084688997,
      "lon": -16.673343054535515,
      "geoinfo": {
        "display_name": "The Gambia Family Planning Association Headquarters, Service Road, Kanifing, Serrekunda, Kanifing Municipal Council, The Gambia",
        "road": "Service Road",
        "house_number": null,
        "neighbourhood": null,
        "suburb": null,
        "city_district": null,
        "city": "Serrekunda",
        "state": "Kanifing Municipal Council",
        "postcode": null,
        "country": "The Gambia",
        "country_code": "gm"
      },
      "address": "435, Service Road, Kanifing, 60317 Kanifing Municipal Council, Gambia"
    },
    {
      "lat": 13.445238792982737,
      "lon": -16.672657157663945,
      "geoinfo": {
        "display_name": "New Jeshwang and Ebo Town, Serrekunda, Kanifing Municipal Council, The Gambia",
        "road": null,
        "house_number": null,
        "neighbourhood": null,
        "suburb": null,
        "city_district": null,
        "city": "Serrekunda",
        "state": "Kanifing Municipal Council",
        "postcode": null,
        "country": "The Gambia",
        "country_code": "gm"
      },
      "address": "719, New Jeshwang and Ebo Town, Serrekunda, 12369 Kanifing Municipal Council, The Gambia"
    },
    {
      "lat": 13.445774649678121,
      "lon": -16.67330681315594,
      "geoinfo": {
        "display_name": "New Jeshwang and Ebo Town, Serrekunda, Kanifing Municipal Council, The Gambia",
        "road": null,
        "house_number": null,
        "neighbourhood": null,
        "suburb": null,
        "city_district": null,
        "city": "Serrekunda",
        "state": "Kanifing Municipal Council",
        "postcode": null,
        "country": "The Gambia",
        "country_code": "gm"
      },
      "address": "845, New Jeshwang and Ebo Town, Serrekunda, 99639 Kanifing Municipal Council, The Gambia"
    },
    {
      "lat": 13.447606050572308,
      "lon": -16.672831942611495,
      "geoinfo": {
        "display_name": "Banjul - Serrekunda Highway, Kanifing, Serrekunda, Kanifing Municipal Council, The Gambia",
        "road": "Banjul - Serrekunda Highway",
        "house_number": null,
        "neighbourhood": null,
        "suburb": null,
        "city_district": null,
        "city": "Serrekunda",
        "state": "Kanifing Municipal Council",
        "postcode": null,
        "country": "The Gambia",
        "country_code": "gm"
      },
      "address": "194, Banjul - Serrekunda Highway, Kanifing, Serrekunda, 09848 Kanifing Municipal Council, The Gambia"
    },
    {
      "lat": 13.444222870844674,
      "lon": -16.675500484343598,
      "geoinfo": {
        "display_name": "Stop Step Pharmacy Westfield, Brikama Highway, Bartez, Serrekunda, Kanifing Municipal Council, The Gambia",
        "road": "Brikama Highway",
        "house_number": null,
        "neighbourhood": null,
        "suburb": null,
        "city_district": null,
        "city": "Serrekunda",
        "state": "Kanifing Municipal Council",
        "postcode": null,
        "country": "The Gambia",
        "country_code": "gm"
      },
      "address": "636, Brikama Highway, Kanifing, 44161 Kanifing Municipal Council, Gambia"
    },
    {
      "lat": 13.446712619322179,
      "lon": -16.673298794543083,
      "geoinfo": {
        "display_name": "Service Road, New Jeshwang, Ebo Town, New Jeshwang and Ebo Town, Serrekunda, Kanifing Municipal Council, The Gambia",
        "road": "Service Road",
        "house_number": null,
        "neighbourhood": "New Jeshwang",
        "suburb": "Ebo Town",
        "city_district": null,
        "city": "Serrekunda",
        "state": "Kanifing Municipal Council",
        "postcode": null,
        "country": "The Gambia",
        "country_code": "gm"
      },
      "address": "630, Service Road, New Jeshwang, Ebo Town, New Jeshwang and Ebo Town, Serrekunda, 21317 Kanifing Municipal Council, The Gambia"
    },
    {
      "lat": 13.447653919425571,
      "lon": -16.67585990805227,
      "geoinfo": {
        "display_name": "Kairaba Avenue, Kanifing, Serrekunda, Kanifing Municipal Council, The Gambia",
        "road": "Kairaba Avenue",
        "house_number": null,
        "neighbourhood": null,
        "suburb": null,
        "city_district": null,
        "city": "Serrekunda",
        "state": "Kanifing Municipal Council",
        "postcode": null,
        "country": "The Gambia",
        "country_code": "gm"
      },
      "address": "318, Kairaba Avenue, Kanifing, Serrekunda, 49330 Kanifing Municipal Council, The Gambia"
    },
    {
      "lat": 13.445458653926275,
      "lon": -16.676266322925475,
      "geoinfo": {
        "display_name": "Castel Petrol, Kairaba Avenue, Latrikunda Yiringanya, Serrekunda, Kanifing Municipal Council, The Gambia",
        "road": "Kairaba Avenue",
        "house_number": null,
        "neighbourhood": null,
        "suburb": null,
        "city_district": null,
        "city": "Serrekunda",
        "state": "Kanifing Municipal Council",
        "postcode": null,
        "country": "The Gambia",
        "country_code": "gm"
      },
      "address": "063, Kairaba Avenue, Kanifing, 95735 Kanifing Municipal Council, Gambia"
    },
    {
      "lat": 13.448405637942692,
      "lon": -16.67359221482391,
      "geoinfo": {
        "display_name": "Kanifing, Kanifing Municipal Council, The Gambia",
        "road": null,
        "house_number": null,
        "neighbourhood": null,
        "suburb": null,
        "city_district": null,
        "city": "Kanifing",
        "state": "Kanifing Municipal Council",
        "postcode": null,
        "country": "The Gambia",
        "country_code": "gm"
      },
      "address": "961, Kanifing, 58369 Kanifing Municipal Council, The Gambia"
    },
    {
      "lat": 13.445235977480493,
      "lon": -16.675128167348145,
      "geoinfo": {
        "display_name": "Westfield Youth Monument, Kairaba Avenue, Kanifing, Serrekunda, Kanifing Municipal Council, The Gambia",
        "road": "Kairaba Avenue",
        "house_number": null,
        "neighbourhood": null,
        "suburb": null,
        "city_district": null,
        "city": "Serrekunda",
        "state": "Kanifing Municipal Council",
        "postcode": null,
        "country": "The Gambia",
        "country_code": "gm"
      },
      "address": "489, Kairaba Avenue, Kanifing, 83603 Kanifing Municipal Council, Gambia"
    },
    {
      "lat": 13.445825970625418,
      "lon": -16.67713714504631,
      "geoinfo": {
        "display_name": "G520K, Kairaba Avenue, Latrikunda Yiringanya, Serrekunda, Kanifing Municipal Council, The Gambia",
        "road": "Kairaba Avenue",
        "house_number": null,
        "neighbourhood": null,
        "suburb": null,
        "city_district": null,
        "city": "Serrekunda",
        "state": "Kanifing Municipal Council",
        "postcode": null,
        "country": "The Gambia",
        "country_code": "gm"
      },
      "address": "G520K, Kairaba Avenue, Latrikunda Yiringanya, Serrekunda, 21767 Kanifing Municipal Council, The Gambia"
    },
    {
      "lat": 13.445212743411313,
      "lon": -16.672895766580623,
      "geoinfo": {
        "display_name": "New Jeshwang and Ebo Town, Serrekunda, Kanifing Municipal Council, The Gambia",
        "road": null,
        "house_number": null,
        "neighbourhood": null,
        "suburb": null,
        "city_district": null,
        "city": "Serrekunda",
        "state": "Kanifing Municipal Council",
        "postcode": null,
        "country": "The Gambia",
        "country_code": "gm"
      },
      "address": "141, New Jeshwang and Ebo Town, Serrekunda, 71600 Kanifing Municipal Council, The Gambia"
    },
    {
      "lat": 13.44557628040487,
      "lon": -16.67670885052029,
      "geoinfo": {
        "display_name": "Castel Petrol, Kairaba Avenue, Latrikunda Yiringanya, Serrekunda, Kanifing Municipal Council, The Gambia",
        "road": "Kairaba Avenue",
        "house_number": null,
        "neighbourhood": null,
        "suburb": null,
        "city_district": null,
        "city": "Serrekunda",
        "state": "Kanifing Municipal Council",
        "postcode": null,
        "country": "The Gambia",
        "country_code": "gm"
      },
      "address": "377, Kairaba Avenue, Kanifing, 55606 Kanifing Municipal Council, Gambia"
    },
    {
      "lat": 13.4473863275687,
      "lon": -16.676125617618556,
      "geoinfo": {
        "display_name": "Kairaba Avenue, Kanifing, Serrekunda, Kanifing Municipal Council, The Gambia",
        "road": "Kairaba Avenue",
        "house_number": null,
        "neighbourhood": null,
        "suburb": null,
        "city_district": null,
        "city": "Serrekunda",
        "state": "Kanifing Municipal Council",
        "postcode": null,
        "country": "The Gambia",
        "country_code": "gm"
      },
      "address": "804, Kairaba Avenue, Kanifing, Serrekunda, 90813 Kanifing Municipal Council, The Gambia"
    },
    {
      "lat": 13.444410763011456,
      "lon": -16.675894750106846,
      "geoinfo": {
        "display_name": "Skye bank, Sayerjobe Avenue, Bartez, Serrekunda, Kanifing Municipal Council, The Gambia",
        "road": "Sayerjobe Avenue",
        "house_number": null,
        "neighbourhood": null,
        "suburb": null,
        "city_district": null,
        "city": "Serrekunda",
        "state": "Kanifing Municipal Council",
        "postcode": null,
        "country": "The Gambia",
        "country_code": "gm"
      },
      "address": "803, Sayerjobe Avenue, Kanifing, 99238 Kanifing Municipal Council, Gambia"
    },
    {
      "lat": 13.443720673430635,
      "lon": -16.6745944656956,
      "geoinfo": {
        "display_name": "New Jeshwang, Ebo Town, New Jeshwang and Ebo Town, Serrekunda, Kanifing Municipal Council, The Gambia",
        "road": null,
        "house_number": null,
        "neighbourhood": "New Jeshwang",
        "suburb": "Ebo Town",
        "city_district": null,
        "city": "Serrekunda",
        "state": "Kanifing Municipal Council",
        "postcode": null,
        "country": "The Gambia",
        "country_code": "gm"
      },
      "address": "006, New Jeshwang, Ebo Town, New Jeshwang and Ebo Town, Serrekunda, 13014 Kanifing Municipal Council, The Gambia"
    },
    {
      "lat": 13.445416380493366,
      "lon": -16.67701969081781,
      "geoinfo": {
        "display_name": "Latrikunda Yiringanya, Serrekunda, Kanifing Municipal Council, The Gambia",
        "road": null,
        "house_number": null,
        "neighbourhood": null,
        "suburb": null,
        "city_district": null,
        "city": "Serrekunda",
        "state": "Kanifing Municipal Council",
        "postcode": null,
        "country": "The Gambia",
        "country_code": "gm"
      },
      "address": "777, Latrikunda Yiringanya, Serrekunda, 19694 Kanifing Municipal Council, The Gambia"
    },
    {
      "lat": 13.448294242764389,
      "lon": -16.675734782114244,
      "geoinfo": {
        "display_name": "Kanifing, Serrekunda, Kanifing Municipal Council, The Gambia",
        "road": null,
        "house_number": null,
        "neighbourhood": null,
        "suburb": null,
        "city_district": null,
        "city": "Serrekunda",
        "state": "Kanifing Municipal Council",
        "postcode": null,
        "country": "The Gambia",
        "country_code": "gm"
      },
      "address": "751, Kanifing, Serrekunda, 53420 Kanifing Municipal Council, The Gambia"
    },
    {
      "lat": 13.447989048953245,
      "lon": -16.676267542165164,
      "geoinfo": {
        "display_name": "Kanifing, Serrekunda, Kanifing Municipal Council, The Gambia",
        "road": null,
        "house_number": null,
        "neighbourhood": null,
        "suburb": null,
        "city_district": null,
        "city": "Serrekunda",
        "state": "Kanifing Municipal Council",
        "postcode": null,
        "country": "The Gambia",
        "country_code": "gm"
      },
      "address": "412, Kanifing, Serrekunda, 70641 Kanifing Municipal Council, The Gambia"
    },
    {
      "lat": 13.4465531643823,
      "lon": -16.6745310879314,
      "geoinfo": {
        "display_name": "Westfield Car Park, Service Road, Kanifing, Serrekunda, Kanifing Municipal Council, The Gambia",
        "road": "Service Road",
        "house_number": null,
        "neighbourhood": null,
        "suburb": null,
        "city_district": null,
        "city": "Serrekunda",
        "state": "Kanifing Municipal Council",
        "postcode": null,
        "country": "The Gambia",
        "country_code": "gm"
      },
      "address": "595, Service Road, Kanifing, 99541 Kanifing Municipal Council, Gambia"
    },
    {
      "lat": 13.445983489034044,
      "lon": -16.672242737432086,
      "geoinfo": {
        "display_name": "Kanifing Municipal Council, Banjul - Serrekunda Highway, New Jeshwang, Ebo Town, New Jeshwang and Ebo Town, Serrekunda, Kanifing Municipal Council, The Gambia",
        "road": "Banjul - Serrekunda Highway",
        "house_number": null,
        "neighbourhood": "New Jeshwang",
        "suburb": "Ebo Town",
        "city_district": null,
        "city": "Serrekunda",
        "state": "Kanifing Municipal Council",
        "postcode": null,
        "country": "The Gambia",
        "country_code": "gm"
      },
      "address": "941, Banjul - Serrekunda Highway, Kanifing, 36331 Kanifing Municipal Council, Gambia"
    },
    {
      "lat": 13.445543653277861,
      "lon": -16.675804248829863,
      "geoinfo": {
        "display_name": "Busses to Banjul, Kairaba Avenue, Kanifing, Serrekunda, Kanifing Municipal Council, The Gambia",
        "road": "Kairaba Avenue",
        "house_number": null,
        "neighbourhood": null,
        "suburb": null,
        "city_district": null,
        "city": "Serrekunda",
        "state": "Kanifing Municipal Council",
        "postcode": null,
        "country": "The Gambia",
        "country_code": "gm"
      },
      "address": "209, Kairaba Avenue, Kanifing, 82129 Kanifing Municipal Council, Gambia"
    },
    {
      "lat": 13.44568875320488,
      "lon": -16.674999059504348,
      "geoinfo": {
        "display_name": "Service Road, Kanifing, Serrekunda, Kanifing Municipal Council, The Gambia",
        "road": "Service Road",
        "house_number": null,
        "neighbourhood": null,
        "suburb": null,
        "city_district": null,
        "city": "Serrekunda",
        "state": "Kanifing Municipal Council",
        "postcode": null,
        "country": "The Gambia",
        "country_code": "gm"
      },
      "address": "756, Service Road, Kanifing, Serrekunda, 09271 Kanifing Municipal Council, The Gambia"
    },
    {
      "lat": 13.448820947125071,
      "lon": -16.675331129009596,
      "geoinfo": {
        "display_name": "Kanifing, Serrekunda, Kanifing Municipal Council, The Gambia",
        "road": null,
        "house_number": null,
        "neighbourhood": null,
        "suburb": null,
        "city_district": null,
        "city": "Serrekunda",
        "state": "Kanifing Municipal Council",
        "postcode": null,
        "country": "The Gambia",
        "country_code": "gm"
      },
      "address": "771, Kanifing, Serrekunda, 18995 Kanifing Municipal Council, The Gambia"
    },
    {
      "lat": 13.447678371434073,
      "lon": -16.675881113461337,
      "geoinfo": {
        "display_name": "Kairaba Avenue, Kanifing, Serrekunda, Kanifing Municipal Council, The Gambia",
        "road": "Kairaba Avenue",
        "house_number": null,
        "neighbourhood": null,
        "suburb": null,
        "city_district": null,
        "city": "Serrekunda",
        "state": "Kanifing Municipal Council",
        "postcode": null,
        "country": "The Gambia",
        "country_code": "gm"
      },
      "address": "098, Kairaba Avenue, Kanifing, Serrekunda, 67678 Kanifing Municipal Council, The Gambia"
    },
    {
      "lat": 13.443992059676312,
      "lon": -16.674144770386974,
      "geoinfo": {
        "display_name": "New Jeshwang, Ebo Town, New Jeshwang and Ebo Town, Serrekunda, Kanifing Municipal Council, The Gambia",
        "road": null,
        "house_number": null,
        "neighbourhood": "New Jeshwang",
        "suburb": "Ebo Town",
        "city_district": null,
        "city": "Serrekunda",
        "state": "Kanifing Municipal Council",
        "postcode": null,
        "country": "The Gambia",
        "country_code": "gm"
      },
      "address": "565, New Jeshwang, Ebo Town, New Jeshwang and Ebo Town, Serrekunda, 99666 Kanifing Municipal Council, The Gambia"
    },
    {
      "lat": 13.446487120878952,
      "lon": -16.672816743657123,
      "geoinfo": {
        "display_name": "Kanifing Municipal Council, Banjul - Serrekunda Highway, New Jeshwang, Ebo Town, New Jeshwang and Ebo Town, Serrekunda, Kanifing Municipal Council, The Gambia",
        "road": "Banjul - Serrekunda Highway",
        "house_number": null,
        "neighbourhood": "New Jeshwang",
        "suburb": "Ebo Town",
        "city_district": null,
        "city": "Serrekunda",
        "state": "Kanifing Municipal Council",
        "postcode": null,
        "country": "The Gambia",
        "country_code": "gm"
      },
      "address": "533, Banjul - Serrekunda Highway, Kanifing, 62034 Kanifing Municipal Council, Gambia"
    },
    {
      "lat": 13.446016699005822,
      "lon": -16.67674704052751,
      "geoinfo": {
        "display_name": "Masjid Bilal, Kairaba Avenue, Latrikunda Yiringanya, Serrekunda, Kanifing Municipal Council, The Gambia",
        "road": "Kairaba Avenue",
        "house_number": null,
        "neighbourhood": null,
        "suburb": null,
        "city_district": null,
        "city": "Serrekunda",
        "state": "Kanifing Municipal Council",
        "postcode": null,
        "country": "The Gambia",
        "country_code": "gm"
      },
      "address": "093, Kairaba Avenue, Kanifing, 81527 Kanifing Municipal Council, Gambia"
    },
    {
      "lat": 13.448534008658504,
      "lon": -16.674924408759377,
      "geoinfo": {
        "display_name": "Kanifing, Serrekunda, Kanifing Municipal Council, The Gambia",
        "road": null,
        "house_number": null,
        "neighbourhood": null,
        "suburb": null,
        "city_district": null,
        "city": "Serrekunda",
        "state": "Kanifing Municipal Council",
        "postcode": null,
        "country": "The Gambia",
        "country_code": "gm"
      },
      "address": "542, Kanifing, Serrekunda, 63455 Kanifing Municipal Council, The Gambia"
    },
    {
      "lat": 13.444986424185428,
      "lon": -16.676607403789028,
      "geoinfo": {
        "display_name": "Latrikunda Yiringanya, Serrekunda, Kanifing Municipal Council, The Gambia",
        "road": null,
        "house_number": null,
        "neighbourhood": null,
        "suburb": null,
        "city_district": null,
        "city": "Serrekunda",
        "state": "Kanifing Municipal Council",
        "postcode": null,
        "country": "The Gambia",
        "country_code": "gm"
      },
      "address": "109, Latrikunda Yiringanya, Serrekunda, 97418 Kanifing Municipal Council, The Gambia"
    },
    {
      "lat": 13.448953386194425,
      "lon": -16.673712155143228,
      "geoinfo": {
        "display_name": "Kanifing, Kanifing Municipal Council, The Gambia",
        "road": null,
        "house_number": null,
        "neighbourhood": null,
        "suburb": null,
        "city_district": null,
        "city": "Kanifing",
        "state": "Kanifing Municipal Council",
        "postcode": null,
        "country": "The Gambia",
        "country_code": "gm"
      },
      "address": "679, Kanifing, 33373 Kanifing Municipal Council, The Gambia"
    },
    {
      "lat": 13.44768357929057,
      "lon": -16.6750826668787,
      "geoinfo": {
        "display_name": "Kanifing, Serrekunda, Kanifing Municipal Council, The Gambia",
        "road": null,
        "house_number": null,
        "neighbourhood": null,
        "suburb": null,
        "city_district": null,
        "city": "Serrekunda",
        "state": "Kanifing Municipal Council",
        "postcode": null,
        "country": "The Gambia",
        "country_code": "gm"
      },
      "address": "136, Kanifing, Serrekunda, 74540 Kanifing Municipal Council, The Gambia"
    },
    {
      "lat": 13.448321902721064,
      "lon": -16.676072675666624,
      "geoinfo": {
        "display_name": "Kanifing, Serrekunda, Kanifing Municipal Council, The Gambia",
        "road": null,
        "house_number": null,
        "neighbourhood": null,
        "suburb": null,
        "city_district": null,
        "city": "Serrekunda",
        "state": "Kanifing Municipal Council",
        "postcode": null,
        "country": "The Gambia",
        "country_code": "gm"
      },
      "address": "877, Kanifing, Serrekunda, 66248 Kanifing Municipal Council, The Gambia"
    },
    {
      "lat": 13.444076011018582,
      "lon": -16.67324389358239,
      "geoinfo": {
        "display_name": "New Jeshwang, Ebo Town, New Jeshwang and Ebo Town, Serrekunda, Kanifing Municipal Council, The Gambia",
        "road": null,
        "house_number": null,
        "neighbourhood": "New Jeshwang",
        "suburb": "Ebo Town",
        "city_district": null,
        "city": "Serrekunda",
        "state": "Kanifing Municipal Council",
        "postcode": null,
        "country": "The Gambia",
        "country_code": "gm"
      },
      "address": "026, New Jeshwang, Ebo Town, New Jeshwang and Ebo Town, Serrekunda, 69999 Kanifing Municipal Council, The Gambia"
    },
    {
      "lat": 13.444647120593237,
      "lon": -16.675775070655064,
      "geoinfo": {
        "display_name": "Westfield Clinic, Brikama Highway, Bartez, Serrekunda, Kanifing Municipal Council, The Gambia",
        "road": "Brikama Highway",
        "house_number": null,
        "neighbourhood": null,
        "suburb": null,
        "city_district": null,
        "city": "Serrekunda",
        "state": "Kanifing Municipal Council",
        "postcode": null,
        "country": "The Gambia",
        "country_code": "gm"
      },
      "address": "726, Brikama Highway, Kanifing, 28583 Kanifing Municipal Council, Gambia"
    }
  ],
  "updated_at": "2025-10-21T23:47:56.023077+00:00",
  "_kind": "geo_samples"
}