{
  "country_code": "GM",
  "country": "Gambia",
  "city": "Nema Kunku",
  "geonameid": 2412452,
  "target_addresses": 50,
  "samples": [
    {
      "lat": 13.22934336225771,
      "lon": -15.906296542923133,
      "geoinfo": {
        "display_name": "Bondali, Brikama, West Coast Division, The Gambia",
        "road": null,
        "house_number": null,
        "neighbourhood": null,
        "suburb": null,
        "city_district": null,
        "city": "Bondali",
        "state": "West Coast Division",
        "postcode": null,
        "country": "The Gambia",
        "country_code": "gm"
      },
      "address": "495, Bondali, Brikama, 32895 West Coast Division, The Gambia"
    },
    {
      "lat": 13.241162572362065,
      "lon": -15.899498669437111,
      "geoinfo": {
        "display_name": "South Bank Road, Arang Koli Kunda, Brikama, West Coast Division, The Gambia",
        "road": "South Bank Road",
        "house_number": null,
        "neighbourhood": null,
        "suburb": null,
        "city_district": null,
        "city": "Arang Koli Kunda",
        "state": "West Coast Division",
        "postcode": null,
        "country": "The Gambia",
        "country_code": "gm"
      },
      "address": "659, South Bank Road, Arang Koli Kunda, Brikama, 88232 West Coast Division, The Gambia"
    },
    {
      "lat": 13.21641671133758,
      "lon": -15.883671695874055,
      "geoinfo": {
        "display_name": "Wassadou, Brikama, West Coast Division, The Gambia",
        "road": null,
        "house_number": null,
        "neighbourhood": null,
        "suburb": null,
        "city_district": null,
        "city": "Wassadou",
        "state": "West Coast Division",
        "postcode": null,
        "country": "The Gambia",
        "country_code": "gm"
      },
      "address": "186, Wassadou, Brikama, 17513 West Coast Division, The Gambia"
    },
    {
      "lat": 13.24813416924139,
      "lon": -15.876232664301655,
      "geoinfo": {
        "display_name": "Joreng, Brikama, West Coast Division, The Gambia",
        "road": null,
        "house_number": null,
        "neighbourhood": null,
        "suburb": null,
        "city_district": null,
        "city": "Joreng",
        "state": "West Coast Division",
        "postcode": null,
        "country": "The Gambia",
        "country_code": "gm"
      },
      "address": "819, Joreng, Brikama, 33870 West Coast Division, The Gambia"
    },
    {
      "lat": 13.248502562605509,
      "lon": -15.882764847988456,
      "geoinfo": {
        "display_name": "Joreng, Brikama, West Coast Division, The Gambia",
        "road": null,
        "house_number": null,
        "neighbourhood": null,
        "suburb": null,
        "city_district": null,
        "city": "Joreng",
        "state": "West Coast Division",
        "postcode": null,
        "country": "The Gambia",
        "country_code": "gm"
      },
      "address": "496, Joreng, Brikama, 26324 West Coast Division, The Gambia"
    },
    {
      "lat": 13.249313374018836,
      "lon": -15.88541317187061,
      "geoinfo": {
        "display_name": "Joreng, Brikama, West Coast Division, The Gambia",
        "road": null,
        "house_number": null,
        "neighbourhood": null,
        "suburb": null,
        "city_district": null,
        "city": "Joreng",
        "state": "West Coast Division",
        "postcode": null,
        "country": "The Gambia",
        "country_code": "gm"
      },
      "address": "773, Joreng, Brikama, 63890 West Coast Division, The Gambia"
    },
    {
      "lat": 13.24941146247773,
      "lon": -15.881503466248493,
      "geoinfo": {
        "display_name": "Joreng, Brikama, West Coast Division, The Gambia",
        "road": null,
        "house_number": null,
        "neighbourhood": null,
        "suburb": null,
        "city_district": null,
        "city": "Joreng",
        "state": "West Coast Division",
        "postcode": null,
        "country": "The Gambia",
        "country_code": "gm"
      },
      "address": "588, Joreng, Brikama, 06561 West Coast Division, The Gambia"
    },
    {
      "lat": 13.248946473640572,
      "lon": -15.883282985371137,
      "geoinfo": {
        "display_name": "Joreng, Brikama, West Coast Division, The Gambia",
        "road": null,
        "house_number": null,
        "neighbourhood": null,
        "suburb": null,
        "city_district": null,
        "city": "Joreng",
        "state": "West Coast Division",
        "postcode": null,
        "country": "The Gambia",
        "country_code": "gm"
      },
      "address": "558, Joreng, Brikama, 84118 West Coast Division, The Gambia"
    },
    {
      "lat": 13.250161312187048,
      "lon": -15.881561165904403,
      "geoinfo": {
        "display_name": "Joreng, Brikama, West Coast Division, The Gambia",
        "road": null,
        "house_number": null,
        "neighbourhood": null,
        "suburb": null,
        "city_district": null,
        "city": "Joreng",
        "state": "West Coast Division",
        "postcode": null,
        "country": "The Gambia",
        "country_code": "gm"
      },
      "address": "031, Joreng, Brikama, 01606 West Coast Division, The Gambia"
    },
    {
      "lat": 13.250313406932516,
      "lon": -15.88465530680157,
      "geoinfo": {
        "display_name": "Joreng, Brikama, West Coast Division, The Gambia",
        "road": null,
        "house_number": null,
        "neighbourhood": null,
        "suburb": null,
        "city_district": null,
        "city": "Joreng",
        "state": "West Coast Division",
        "postcode": null,
        "country": "The Gambia",
        "country_code": "gm"
      },
      "address": "572, Joreng, Brikama, 87282 West Coast Division, The Gambia"
    },
    {
      "lat": 13.249585663914614,
      "lon": -15.88518610305209,
      "geoinfo": {
        "display_name": "Joreng, Brikama, West Coast Division, The Gambia",
        "road": null,
        "house_number": null,
        "neighbourhood": null,
        "suburb": null,
        "city_district": null,
        "city": "Joreng",
        "state": "West Coast Division",
        "postcode": null,
        "country": "The Gambia",
        "country_code": "gm"
      },
      "address": "259, Joreng, Brikama, 70182 West Coast Division, The Gambia"
    },
    {
      "lat": 13.251445181985465,
      "lon": -15.884315987856729,
      "geoinfo": {
        "display_name": "Joreng, Brikama, West Coast Division, The Gambia",
        "road": null,
        "house_number": null,
        "neighbourhood": null,
        "suburb": null,
        "city_district": null,
        "city": "Joreng",
        "state": "West Coast Division",
        "postcode": null,
        "country": "The Gambia",
        "country_code": "gm"
      },
      "address": "584, Joreng, Brikama, 63187 West Coast Division, The Gambia"
    },
    {
      "lat": 13.249672498468342,
      "lon": -15.882395694000529,
      "geoinfo": {
        "display_name": "Joreng, Brikama, West Coast Division, The Gambia",
        "road": null,
        "house_number": null,
        "neighbourhood": null,
        "suburb": null,
        "city_district": null,
        "city": "Joreng",
        "state": "West Coast Division",
        "postcode": null,
        "country": "The Gambia",
        "country_code": "gm"
      },
      "address": "936, Joreng, Brikama, 95421 West Coast Division, The Gambia"
    },
    {
      "lat": 13.2488723852554,
      "lon": -15.88089970088826,
      "geoinfo": {
        "display_name": "Joreng, Brikama, West Coast Division, The Gambia",
        "road": null,
        "house_number": null,
        "neighbourhood": null,
        "suburb": null,
        "city_district": null,
        "city": "Joreng",
        "state": "West Coast Division",
        "postcode": null,
        "country": "The Gambia",
        "country_code": "gm"
      },
      "address": "844, Joreng, Brikama, 40837 West Coast Division, The Gambia"
    },
    {
      "lat": 13.250048254854711,
      "lon": -15.885668866092288,
      "geoinfo": {
        "display_name": "Joreng, Brikama, West Coast Division, The Gambia",
        "road": null,
        "house_number": null,
        "neighbourhood": null,
        "suburb": null,
        "city_district": null,
        "city": "Joreng",
        "state": "West Coast Division",
        "postcode": null,
        "country": "The Gambia",
        "country_code": "gm"
      },
      "address": "670, Joreng, Brikama, 03186 West Coast Division, The Gambia"
    },
    {
      "lat": 13.252128933943926,
      "lon": -15.882243369173976,
      "geoinfo": {
        "display_name": "Joreng, Brikama, West Coast Division, The Gambia",
        "road": null,
        "house_number": null,
        "neighbourhood": null,
        "suburb": null,
        "city_district": null,
        "city": "Joreng",
        "state": "West Coast Division",
        "postcode": null,
        "country": "The Gambia",
        "country_code": "gm"
      },
      "address": "152, Joreng, Brikama, 14339 West Coast Division, The Gambia"
    },
    {
      "lat": 13.250299204044937,
      "lon": -15.883533335316212,
      "geoinfo": {
        "display_name": "Joreng, Brikama, West Coast Division, The Gambia",
        "road": null,
        "house_number": null,
        "neighbourhood": null,
        "suburb": null,
        "city_district": null,
        "city": "Joreng",
        "state": "West Coast Division",
        "postcode": null,
        "country": "The Gambia",
        "country_code": "gm"
      },
      "address": "669, Joreng, Brikama, 20866 West Coast Division, The Gambia"
    },
    {
      "lat": 13.248608377552312,
      "lon": -15.884863211404953,
      "geoinfo": {
        "display_name": "Joreng, Brikama, West Coast Division, The Gambia",
        "road": null,
        "house_number": null,
        "neighbourhood": null,
        "suburb": null,
        "city_district": null,
        "city": "Joreng",
        "state": "West Coast Division",
        "postcode": null,
        "country": "The Gambia",
        "country_code": "gm"
      },
      "address": "252, Joreng, Brikama, 58336 West Coast Division, The Gambia"
    },
    {
      "lat": 13.248156508411066,
      "lon": -15.883015546077168,
      "geoinfo": {
        "display_name": "Joreng, Brikama, West Coast Division, The Gambia",
        "road": null,
        "house_number": null,
        "neighbourhood": null,
        "suburb": null,
        "city_district": null,
        "city": "Joreng",
        "state": "West Coast Division",
        "postcode": null,
        "country": "The Gambia",
        "country_code": "gm"
      },
      "address": "450, Joreng, Brikama, 27582 West Coast Division, The Gambia"
    },
    {
      "lat": 13.252133128554265,
      "lon": -15.88282116703136,
      "geoinfo": {
        "display_name": "Joreng, Brikama, West Coast Division, The Gambia",
        "road": null,
        "house_number": null,
        "neighbourhood": null,
        "suburb": null,
        "city_district": null,
        "city": "Joreng",
        "state": "West Coast Division",
        "postcode": null,
        "country": "The Gambia",
        "country_code": "gm"
      },
      "address": "119, Joreng, Brikama, 03940 West Coast Division, The Gambia"
    },
    {
      "lat": 13.248786042391997,
      "lon": -15.882173337651855,
      "geoinfo": {
        "display_name": "Joreng, Brikama, West Coast Division, The Gambia",
        "road": null,
        "house_number": null,
        "neighbourhood": null,
        "suburb": null,
        "city_district": null,
        "city": "Joreng",
        "state": "West Coast Division",
        "postcode": null,
        "country": "The Gambia",
        "country_code": "gm"
      },
      "address": "363, Joreng, Brikama, 91952 West Coast Division, The Gambia"
    },
    {
      "lat": 13.250263905986309,
      "lon": -15.88141799776747,
      "geoinfo": {
        "display_name": "Joreng, Brikama, West Coast Division, The Gambia",
        "road": null,
        "house_number": null,
        "neighbourhood": null,
        "suburb": null,
        "city_district": null,
        "city": "Joreng",
        "state": "West Coast Division",
        "postcode": null,
        "country": "The Gambia",
        "country_code": "gm"
      },
      "address": "087, Joreng, Brikama, 20739 West Coast Division, The Gambia"
    },
    {
      "lat": 13.250349051184777,
      "lon": -15.884782350419918,
      "geoinfo": {
        "display_name": "Joreng, Brikama, West Coast Division, The Gambia",
        "road": null,
        "house_number": null,
        "neighbourhood": null,
        "suburb": null,
        "city_district": null,
        "city": "Joreng",
        "state": "West Coast Division",
        "postcode": null,
        "country": "The Gambia",
        "country_code": "gm"
      },
      "address": "734, Joreng, Brikama, 49043 West Coast Division, The Gambia"
    },
    {
      "lat": 13.251394354067456,
      "lon": -15.884236627662569,
      "geoinfo": {
        "display_name": "Joreng, Brikama, West Coast Division, The Gambia",
        "road": null,
        "house_number": null,
        "neighbourhood": null,
        "suburb": null,
        "city_district": null,
        "city": "Joreng",
        "state": "West Coast Division",
        "postcode": null,
        "country": "The Gambia",
        "country_code": "gm"
      },
      "address": "618, Joreng, Brikama, 89516 West Coast Division, The Gambia"
    },
    {
      "lat": 13.247892900195605,
      "lon": -15.884213148749556,
      "geoinfo": {
        "display_name": "Joreng, Brikama, West Coast Division, The Gambia",
        "road": null,
        "house_number": null,
        "neighbourhood": null,
        "suburb": null,
        "city_district": null,
        "city": "Joreng",
        "state": "West Coast Division",
        "postcode": null,
        "country": "The Gambia",
        "country_code": "gm"
      },
      "address": "731, Joreng, Brikama, 91174 West Coast Division, The Gambia"
    },
    {
      "lat": 13.250210733044456,
      "lon": -15.885231010007399,
      "geoinfo": {
        "display_name": "Joreng, Brikama, West Coast Division, The Gambia",
        "road": null,
        "house_number": null,
        "neighbourhood": null,
        "suburb": null,
        "city_district": null,
        "city": "Joreng",
        "state": "West Coast Division",
        "postcode": null,
        "country": "The Gambia",
        "country_code": "gm"
      },
      "address": "298, Joreng, Brikama, 31130 West Coast Division, The Gambia"
    },
    {
      "lat": 13.25210820057122,
      "lon": -15.882103278542562,
      "geoinfo": {
        "display_name": "Joreng, Brikama, West Coast Division, The Gambia",
        "road": null,
        "house_number": null,
        "neighbourhood": null,
        "suburb": null,
        "city_district": null,
        "city": "Joreng",
        "state": "West Coast Division",
        "postcode": null,
        "country": "The Gambia",
        "country_code": "gm"
      },
      "address": "272, Joreng, Brikama, 33778 West Coast Division, The Gambia"
    },
    {
      "lat": 13.24782714049256,
      "lon": -15.882594250623958,
      "geoinfo": {
        "display_name": "Joreng, Brikama, West Coast Division, The Gambia",
        "road": null,
        "house_number": null,
        "neighbourhood": null,
        "suburb": null,
        "city_district": null,
        "city": "Joreng",
        "state": "West Coast Division",
        "postcode": null,
        "country": "The Gambia",
        "country_code": "gm"
      },
      "address": "687, Joreng, Brikama, 79138 West Coast Division, The Gambia"
    },
    {
      "lat": 13.250170153720081,
      "lon": -15.885552014133019,
      "geoinfo": {
        "display_name": "Joreng, Brikama, West Coast Division, The Gambia",
        "road": null,
        "house_number": null,
        "neighbourhood": null,
        "suburb": null,
        "city_district": null,
        "city": "Joreng",
        "state": "West Coast Division",
        "postcode": null,
        "country": "The Gambia",
        "country_code": "gm"
      },
      "address": "371, Joreng, Brikama, 88229 West Coast Division, The Gambia"
    },
    {
      "lat": 13.24826662772493,
      "lon": -15.883521164066716,
      "geoinfo": {
        "display_name": "Joreng, Brikama, West Coast Division, The Gambia",
        "road": null,
        "house_number": null,
        "neighbourhood": null,
        "suburb": null,
        "city_district": null,
        "city": "Joreng",
        "state": "West Coast Division",
        "postcode": null,
        "country": "The Gambia",
        "country_code": "gm"
      },
      "address": "478, Joreng, Brikama, 18403 West Coast Division, The Gambia"
    },
    {
      "lat": 13.25050756204984,
      "lon": -15.882948165330818,
      "geoinfo": {
        "display_name": "Joreng, Brikama, West Coast Division, The Gambia",
        "road": null,
        "house_number": null,
        "neighbourhood": null,
        "suburb": null,
        "city_district": null,
        "city": "Joreng",
        "state": "West Coast Division",
        "postcode": null,
        "country": "The Gambia",
        "country_code": "gm"
      },
      "address": "413, Joreng, Brikama, 13202 West Coast Division, The Gambia"
    },
    {
      "lat": 13.248771576100296,
      "lon": -15.884278065387935,
      "geoinfo": {
        "display_name": "Joreng, Brikama, West Coast Division, The Gambia",
        "road": null,
        "house_number": null,
        "neighbourhood": null,
        "suburb": null,
        "city_district": null,
        "city": "Joreng",
        "state": "West Coast Division",
        "postcode": null,
        "country": "The Gambia",
        "country_code": "gm"
      },
      "address": "293, Joreng, Brikama, 60177 West Coast Division, The Gambia"
    },
    {
      "lat": 13.250845007153446,
      "lon": -15.881565708358467,
      "geoinfo": {
        "display_name": "Joreng, Brikama, West Coast Division, The Gambia",
        "road": null,
        "house_number": null,
        "neighbourhood": null,
        "suburb": null,
        "city_district": null,
        "city": "Joreng",
        "state": "West Coast Division",
        "postcode": null,
        "country": "The Gambia",
        "country_code": "gm"
      },
      "address": "041, Joreng, Brikama, 62782 West Coast Division, The Gambia"
    },
    {
      "lat": 13.24880787973491,
      "lon": -15.881346535304516,
      "geoinfo": {
        "display_name": "Joreng, Brikama, West Coast Division, The Gambia",
        "road": null,
        "house_number": null,
        "neighbourhood": null,
        "suburb": null,
        "city_district": null,
        "city": "Joreng",
        "state": "West Coast Division",
        "postcode": null,
        "country": "The Gambia",
        "country_code": "gm"
      },
      "address": "178, Joreng, Brikama, 58497 West Coast Division, The Gambia"
    },
    {
      "lat": 13.248136356623897,
      "lon": -15.8849567685523,
      "geoinfo": {
        "display_name": "Joreng, Brikama, West Coast Division, The Gambia",
        "road": null,
        "house_number": null,
        "neighbourhood": null,
        "suburb": null,
        "city_district": null,
        "city": "Joreng",
        "state": "West Coast Division",
        "postcode": null,
        "country": "The Gambia",
        "country_code": "gm"
      },
      "address": "960, Joreng, Brikama, 94343 West Coast Division, The Gambia"
    },
    {
      "lat": 13.251697639074166,
      "lon": -15.884592193239337,
      "geoinfo": {
        "display_name": "Joreng, Brikama, West Coast Division, The Gambia",
        "road": null,
        "house_number": null,
        "neighbourhood": null,
        "suburb": null,
        "city_district": null,
        "city": "Joreng",
        "state": "West Coast Division",
        "postcode": null,
        "country": "The Gambia",
        "country_code": "gm"
      },
      "address": "105, Joreng, Brikama, 09382 West Coast Division, The Gambia"
    },
    {
      "lat": 13.24843016449102,
      "lon": -15.883562168135533,
      "geoinfo": {
        "display_name": "Joreng, Brikama, West Coast Division, The Gambia",
        "road": null,
        "house_number": null,
        "neighbourhood": null,
        "suburb": null,
        "city_district": null,
        "city": "Joreng",
        "state": "West Coast Division",
        "postcode": null,
        "country": "The Gambia",
        "country_code": "gm"
      },
      "address": "685, Joreng, Brikama, 94330 West Coast Division, The Gambia"
    },
    {
      "lat": 13.250462428614103,
      "lon": -15.883759099146376,
      "geoinfo": {
        "display_name": "Joreng, Brikama, West Coast Division, The Gambia",
        "road": null,
        "house_number": null,
        "neighbourhood": null,
        "suburb": null,
        "city_district": null,
        "city": "Joreng",
        "state": "West Coast Division",
        "postcode": null,
        "country": "The Gambia",
        "country_code": "gm"
      },
      "address": "149, Joreng, Brikama, 63143 West Coast Division, The Gambia"
    },
    {
      "lat": 13.248502096801248,
      "lon": -15.881161734148467,
      "geoinfo": {
        "display_name": "Joreng, Brikama, West Coast Division, The Gambia",
        "road": null,
        "house_number": null,
        "neighbourhood": null,
        "suburb": null,
        "city_district": null,
        "city": "Joreng",
        "state": "West Coast Division",
        "postcode": null,
        "country": "The Gambia",
        "country_code": "gm"
      },
      "address": "241, Joreng, Brikama, 54323 West Coast Division, The Gambia"
    },
    {
      "lat": 13.251294722005117,
      "lon": -15.883038855186221,
      "geoinfo": {
        "display_name": "Joreng, Brikama, West Coast Division, The Gambia",
        "road": null,
        "house_number": null,
        "neighbourhood": null,
        "suburb": null,
        "city_district": null,
        "city": "Joreng",
        "state": "West Coast Division",
        "postcode": null,
        "country": "The Gambia",
        "country_code": "gm"
      },
      "address": "641, Joreng, Brikama, 13386 West Coast Division, The Gambia"
    },
    {
      "lat": 13.252110881262265,
      "lon": -15.881773737580478,
      "geoinfo": {
        "display_name": "Joreng, Brikama, West Coast Division, The Gambia",
        "road": null,
        "house_number": null,
        "neighbourhood": null,
        "suburb": null,
        "city_district": null,
        "city": "Joreng",
        "state": "West Coast Division",
        "postcode": null,
        "country": "The Gambia",
        "country_code": "gm"
      },
      "address": "824, Joreng, Brikama, 39691 West Coast Division, The Gambia"
    },
    {
      "lat": 13.251320291728469,
      "lon": -15.88409173615367,
      "geoinfo": {
        "display_name": "Joreng, Brikama, West Coast Division, The Gambia",
        "road": null,
        "house_number": null,
        "neighbourhood": null,
        "suburb": null,
        "city_district": null,
        "city": "Joreng",
        "state": "West Coast Division",
        "postcode": null,
        "country": "The Gambia",
        "country_code": "gm"
      },
      "address": "724, Joreng, Brikama, 01470 West Coast Division, The Gambia"
    },
    {
      "lat": 13.248718459404683,
      "lon": -15.884404073756494,
      "geoinfo": {
        "display_name": "Joreng, Brikama, West Coast Division, The Gambia",
        "road": null,
        "house_number": null,
        "neighbourhood": null,
        "suburb": null,
        "city_district": null,
        "city": "Joreng",
        "state": "West Coast Division",
        "postcode": null,
        "country": "The Gambia",
        "country_code": "gm"
      },
      "address": "965, Joreng, Brikama, 00323 West Coast Division, The Gambia"
    },
    {
      "lat": 13.252218538081555,
      "lon": -15.884148180492994,
      "geoinfo": {
        "display_name": "Joreng, Brikama, West Coast Division, The Gambia",
        "road": null,
        "house_number": null,
        "neighbourhood": null,
        "suburb": null,
        "city_district": null,
        "city": "Joreng",
        "state": "West Coast Division",
        "postcode": null,
        "country": "The Gambia",
        "country_code": "gm"
      },
      "address": "852, Joreng, Brikama, 43256 West Coast Division, The Gambia"
    },
    {
      "lat": 13.248939471708606,
      "lon": -15.882801370732517,
      "geoinfo": {
        "display_name": "Joreng, Brikama, West Coast Division, The Gambia",
        "road": null,
        "house_number": null,
        "neighbourhood": null,
        "suburb": null,
        "city_district": null,
        "city": "Joreng",
        "state": "West Coast Division",
        "postcode": null,
        "country": "The Gambia",
        "country_code": "gm"
      },
      "address": "003, Joreng, Brikama, 22355 West Coast Division, The Gambia"
    },
    {
      "lat": 13.25148668065807,
      "lon": -15.884391043827957,
      "geoinfo": {
        "display_name": "Joreng, Brikama, West Coast Division, The Gambia",
        "road": null,
        "house_number": null,
        "neighbourhood": null,
        "suburb": null,
        "city_district": null,
        "city": "Joreng",
        "state": "West Coast Division",
        "postcode": null,
        "country": "The Gambia",
        "country_code": "gm"
      },
      "address": "789, Joreng, Brikama, 23859 West Coast Division, The Gambia"
    },
    {
      "lat": 13.25055638049326,
      "lon": -15.880996961758058,
      "geoinfo": {
        "display_name": "Joreng, Brikama, West Coast Division, The Gambia",
        "road": null,
        "house_number": null,
        "neighbourhood": null,
        "suburb": null,
        "city_district": null,
        "city": "Joreng",
        "state": "West Coast Division",
        "postcode": null,
        "country": "The Gambia",
        "country_code": "gm"
      },
      "address": "503, Joreng, Brikama, 38268 West Coast Division, The Gambia"
    },
    {
      "lat": 13.249731458427174,
      "lon": -15.884190063858949,
      "geoinfo": {
        "display_name": "Joreng, Brikama, West Coast Division, The Gambia",
        "road": null,
        "house_number": null,
        "neighbourhood": null,
        "suburb": null,
        "city_district": null,
        "city": "Joreng",
        "state": "West Coast Division",
        "postcode": null,
        "country": "The Gambia",
        "country_code": "gm"
      },
      "address": "063, Joreng, Brikama, 81963 West Coast Division, The Gambia"
    },
    {
      "lat": 13.252486107800786,
      "lon": -15.884051574239791,
      "geoinfo": {
        "display_name": "Joreng, Brikama, West Coast Division, The Gambia",
        "road": null,
        "house_number": null,
        "neighbourhood": null,
        "suburb": null,
        "city_district": null,
        "city": "Joreng",
        "state": "West Coast Division",
        "postcode": null,
        "country": "The Gambia",
        "country_code": "gm"
      },
      "address": "909, Joreng, Brikama, 13166 West Coast Division, The Gambia"
    },
    {
      "lat": 13.24898956941269,
      "lon": -15.883657664195013,
      "geoinfo": {
        "display_name": "Joreng, Brikama, West Coast Division, The Gambia",
        "road": null,
        "house_number": null,
        "neighbourhood": null,
        "suburb": null,
        "city_district": null,
        "city": "Joreng",
        "state": "West Coast Division",
        "postcode": null,
        "country": "The Gambia",
        "country_code": "gm"
      },
      "address": "709, Joreng, Brikama, 18897 West Coast Division, The Gambia"
    }
  ],
  "updated_at": "2025-10-21T23:31:06.411884+00:00",
  "_kind": "geo_samples"
}