{
  "country_code": "GM",
  "country": "Gambia",
  "city": "Soma",
  "geonameid": 2411905,
  "target_addresses": 50,
  "samples": [
    {
      "lat": 13.459624165050526,
      "lon": -15.552694470636357,
      "geoinfo": {
        "display_name": "Pakalinding, Jarra West, Mansakonko, Lower River Division, The Gambia",
        "road": null,
        "house_number": null,
        "neighbourhood": null,
        "suburb": null,
        "city_district": null,
        "city": "Pakalinding",
        "state": "Lower River Division",
        "postcode": null,
        "country": "The Gambia",
        "country_code": "gm"
      },
      "address": "Soma, Lower River Division, Gambia"
    },
    {
      "lat": 13.46363108719645,
      "lon": -15.531357485041498,
      "geoinfo": {
        "display_name": "Arezki staff apartment, Soma Mansakonko Road, Soma, Jarra West, Mansakonko, Lower River Division, The Gambia",
        "road": "Soma Mansakonko Road",
        "house_number": null,
        "neighbourhood": null,
        "suburb": null,
        "city_district": null,
        "city": "Soma",
        "state": "Lower River Division",
        "postcode": null,
        "country": "The Gambia",
        "country_code": "gm"
      },
      "address": "Soma Mansakonko Road, Soma, Lower River Division, Gambia"
    },
    {
      "lat": 13.44350620738096,
      "lon": -15.503520437680368,
      "geoinfo": {
        "display_name": "South Bank Road, Soma, Jarra West, Mansakonko, Lower River Division, The Gambia",
        "road": "South Bank Road",
        "house_number": null,
        "neighbourhood": null,
        "suburb": null,
        "city_district": null,
        "city": "Soma",
        "state": "Lower River Division",
        "postcode": null,
        "country": "The Gambia",
        "country_code": "gm"
      },
      "address": "South Bank Road, Soma, Lower River Division, Gambia"
    },
    {
      "lat": 13.420482892421584,
      "lon": -15.576088520262122,
      "geoinfo": {
        "display_name": "South Bank Road, Laibe Kunda, Yoro Jula, Jarra West, Mansakonko, Lower River Division, The Gambia",
        "road": "South Bank Road",
        "house_number": null,
        "neighbourhood": null,
        "suburb": null,
        "city_district": null,
        "city": "Yoro Jula",
        "state": "Lower River Division",
        "postcode": null,
        "country": "The Gambia",
        "country_code": "gm"
      },
      "address": "274, South Bank Road, Laibe Kunda, Yoro Jula, Jarra West, Mansakonko, 38164 Lower River Division, The Gambia"
    },
    {
      "lat": 13.39240145315802,
      "lon": -15.544097506458495,
      "geoinfo": {
        "display_name": "Fonkoi Kunda, Jarra West, Mansakonko, Lower River Division, The Gambia",
        "road": null,
        "house_number": null,
        "neighbourhood": null,
        "suburb": null,
        "city_district": null,
        "city": "Fonkoi Kunda",
        "state": "Lower River Division",
        "postcode": null,
        "country": "The Gambia",
        "country_code": "gm"
      },
      "address": "533, Fonkoi Kunda, Jarra West, Mansakonko, 46297 Lower River Division, The Gambia"
    },
    {
      "lat": 13.39051047302341,
      "lon": -15.53336561207922,
      "geoinfo": {
        "display_name": "Biranoya, Sumbundu, Jarra West, Mansakonko, Lower River Division, The Gambia",
        "road": null,
        "house_number": null,
        "neighbourhood": null,
        "suburb": null,
        "city_district": null,
        "city": "Sumbundu",
        "state": "Lower River Division",
        "postcode": null,
        "country": "The Gambia",
        "country_code": "gm"
      },
      "address": "355, Soma, 53847 Lower River Division, Gambia"
    },
    {
      "lat": 13.445733202725275,
      "lon": -15.569594917995996,
      "geoinfo": {
        "display_name": "Si Kunda, Jarra West, Mansakonko, Lower River Division, The Gambia",
        "road": null,
        "house_number": null,
        "neighbourhood": null,
        "suburb": null,
        "city_district": null,
        "city": "Si Kunda",
        "state": "Lower River Division",
        "postcode": null,
        "country": "The Gambia",
        "country_code": "gm"
      },
      "address": "615, Si Kunda, Jarra West, Mansakonko, 59825 Lower River Division, The Gambia"
    },
    {
      "lat": 13.431906150325196,
      "lon": -15.533893918249179,
      "geoinfo": {
        "display_name": "Soma, Jarra West, Mansakonko, Lower River Division, The Gambia",
        "road": null,
        "house_number": null,
        "neighbourhood": null,
        "suburb": null,
        "city_district": null,
        "city": "Soma",
        "state": "Lower River Division",
        "postcode": null,
        "country": "The Gambia",
        "country_code": "gm"
      },
      "address": "065, Soma, Jarra West, Mansakonko, 82662 Lower River Division, The Gambia"
    },
    {
      "lat": 13.433541634067575,
      "lon": -15.533933256532855,
      "geoinfo": {
        "display_name": "Trans-Gambia Highway, Biranoya, Soma, Jarra West, Mansakonko, Lower River Division, The Gambia",
        "road": "Trans-Gambia Highway",
        "house_number": null,
        "neighbourhood": null,
        "suburb": null,
        "city_district": null,
        "city": "Soma",
        "state": "Lower River Division",
        "postcode": null,
        "country": "The Gambia",
        "country_code": "gm"
      },
      "address": "560, Trans-Gambia Highway, Biranoya, Soma, Jarra West, Mansakonko, 77518 Lower River Division, The Gambia"
    },
    {
      "lat": 13.433367284770018,
      "lon": -15.535081703465567,
      "geoinfo": {
        "display_name": "Soma, Jarra West, Mansakonko, Lower River Division, The Gambia",
        "road": null,
        "house_number": null,
        "neighbourhood": null,
        "suburb": null,
        "city_district": null,
        "city": "Soma",
        "state": "Lower River Division",
        "postcode": null,
        "country": "The Gambia",
        "country_code": "gm"
      },
      "address": "437, Soma, Jarra West, Mansakonko, 89546 Lower River Division, The Gambia"
    },
    {
      "lat": 13.43536736368505,
      "lon": -15.533061104432766,
      "geoinfo": {
        "display_name": "Soma, Jarra West, Mansakonko, Lower River Division, The Gambia",
        "road": null,
        "house_number": null,
        "neighbourhood": null,
        "suburb": null,
        "city_district": null,
        "city": "Soma",
        "state": "Lower River Division",
        "postcode": null,
        "country": "The Gambia",
        "country_code": "gm"
      },
      "address": "376, Soma, Jarra West, Mansakonko, 47926 Lower River Division, The Gambia"
    },
    {
      "lat": 13.432598703641373,
      "lon": -15.534068563391699,
      "geoinfo": {
        "display_name": "Soma, Jarra West, Mansakonko, Lower River Division, The Gambia",
        "road": null,
        "house_number": null,
        "neighbourhood": null,
        "suburb": null,
        "city_district": null,
        "city": "Soma",
        "state": "Lower River Division",
        "postcode": null,
        "country": "The Gambia",
        "country_code": "gm"
      },
      "address": "493, Soma, Jarra West, Mansakonko, 50639 Lower River Division, The Gambia"
    },
    {
      "lat": 13.432327408650723,
      "lon": -15.531540880722833,
      "geoinfo": {
        "display_name": "Soma, Jarra West, Mansakonko, Lower River Division, The Gambia",
        "road": null,
        "house_number": null,
        "neighbourhood": null,
        "suburb": null,
        "city_district": null,
        "city": "Soma",
        "state": "Lower River Division",
        "postcode": null,
        "country": "The Gambia",
        "country_code": "gm"
      },
      "address": "649, Soma, Jarra West, Mansakonko, 83755 Lower River Division, The Gambia"
    },
    {
      "lat": 13.432243651577872,
      "lon": -15.535374010296412,
      "geoinfo": {
        "display_name": "Soma, Jarra West, Mansakonko, Lower River Division, The Gambia",
        "road": null,
        "house_number": null,
        "neighbourhood": null,
        "suburb": null,
        "city_district": null,
        "city": "Soma",
        "state": "Lower River Division",
        "postcode": null,
        "country": "The Gambia",
        "country_code": "gm"
      },
      "address": "917, Soma, Jarra West, Mansakonko, 26140 Lower River Division, The Gambia"
    },
    {
      "lat": 13.431985418359174,
      "lon": -15.532093381340681,
      "geoinfo": {
        "display_name": "Soma, Jarra West, Mansakonko, Lower River Division, The Gambia",
        "road": null,
        "house_number": null,
        "neighbourhood": null,
        "suburb": null,
        "city_district": null,
        "city": "Soma",
        "state": "Lower River Division",
        "postcode": null,
        "country": "The Gambia",
        "country_code": "gm"
      },
      "address": "697, Soma, Jarra West, Mansakonko, 33861 Lower River Division, The Gambia"
    },
    {
      "lat": 13.434245433135038,
      "lon": -15.531013155221407,
      "geoinfo": {
        "display_name": "Soma, Jarra West, Mansakonko, Lower River Division, The Gambia",
        "road": null,
        "house_number": null,
        "neighbourhood": null,
        "suburb": null,
        "city_district": null,
        "city": "Soma",
        "state": "Lower River Division",
        "postcode": null,
        "country": "The Gambia",
        "country_code": "gm"
      },
      "address": "939, Soma, Jarra West, Mansakonko, 03911 Lower River Division, The Gambia"
    },
    {
      "lat": 13.432338399412894,
      "lon": -15.535309381344193,
      "geoinfo": {
        "display_name": "Soma, Jarra West, Mansakonko, Lower River Division, The Gambia",
        "road": null,
        "house_number": null,
        "neighbourhood": null,
        "suburb": null,
        "city_district": null,
        "city": "Soma",
        "state": "Lower River Division",
        "postcode": null,
        "country": "The Gambia",
        "country_code": "gm"
      },
      "address": "993, Soma, Jarra West, Mansakonko, 77741 Lower River Division, The Gambia"
    },
    {
      "lat": 13.433640085081073,
      "lon": -15.533702803768895,
      "geoinfo": {
        "display_name": "Trans-Gambia Highway, Biranoya, Soma, Jarra West, Mansakonko, Lower River Division, The Gambia",
        "road": "Trans-Gambia Highway",
        "house_number": null,
        "neighbourhood": null,
        "suburb": null,
        "city_district": null,
        "city": "Soma",
        "state": "Lower River Division",
        "postcode": null,
        "country": "The Gambia",
        "country_code": "gm"
      },
      "address": "038, Trans-Gambia Highway, Biranoya, Soma, Jarra West, Mansakonko, 52964 Lower River Division, The Gambia"
    },
    {
      "lat": 13.434047706329249,
      "lon": -15.535802614397088,
      "geoinfo": {
        "display_name": "Soma, Jarra West, Mansakonko, Lower River Division, The Gambia",
        "road": null,
        "house_number": null,
        "neighbourhood": null,
        "suburb": null,
        "city_district": null,
        "city": "Soma",
        "state": "Lower River Division",
        "postcode": null,
        "country": "The Gambia",
        "country_code": "gm"
      },
      "address": "786, Soma, Jarra West, Mansakonko, 72011 Lower River Division, The Gambia"
    },
    {
      "lat": 13.434684673196994,
      "lon": -15.532094211979446,
      "geoinfo": {
        "display_name": "Soma, Jarra West, Mansakonko, Lower River Division, The Gambia",
        "road": null,
        "house_number": null,
        "neighbourhood": null,
        "suburb": null,
        "city_district": null,
        "city": "Soma",
        "state": "Lower River Division",
        "postcode": null,
        "country": "The Gambia",
        "country_code": "gm"
      },
      "address": "931, Soma, Jarra West, Mansakonko, 64724 Lower River Division, The Gambia"
    },
    {
      "lat": 13.435718067732266,
      "lon": -15.533965927843015,
      "geoinfo": {
        "display_name": "Trans-Gambia Highway, Biranoya, Soma, Jarra West, Mansakonko, Lower River Division, The Gambia",
        "road": "Trans-Gambia Highway",
        "house_number": null,
        "neighbourhood": null,
        "suburb": null,
        "city_district": null,
        "city": "Soma",
        "state": "Lower River Division",
        "postcode": null,
        "country": "The Gambia",
        "country_code": "gm"
      },
      "address": "076, Trans-Gambia Highway, Biranoya, Soma, Jarra West, Mansakonko, 02589 Lower River Division, The Gambia"
    },
    {
      "lat": 13.435423779320468,
      "lon": -15.532068587858426,
      "geoinfo": {
        "display_name": "Soma, Jarra West, Mansakonko, Lower River Division, The Gambia",
        "road": null,
        "house_number": null,
        "neighbourhood": null,
        "suburb": null,
        "city_district": null,
        "city": "Soma",
        "state": "Lower River Division",
        "postcode": null,
        "country": "The Gambia",
        "country_code": "gm"
      },
      "address": "455, Soma, Jarra West, Mansakonko, 14721 Lower River Division, The Gambia"
    },
    {
      "lat": 13.433731549077105,
      "lon": -15.530791854076996,
      "geoinfo": {
        "display_name": "Soma, Jarra West, Mansakonko, Lower River Division, The Gambia",
        "road": null,
        "house_number": null,
        "neighbourhood": null,
        "suburb": null,
        "city_district": null,
        "city": "Soma",
        "state": "Lower River Division",
        "postcode": null,
        "country": "The Gambia",
        "country_code": "gm"
      },
      "address": "033, Soma, Jarra West, Mansakonko, 71755 Lower River Division, The Gambia"
    },
    {
      "lat": 13.432432559279887,
      "lon": -15.53346250919746,
      "geoinfo": {
        "display_name": "Trans-Gambia Highway, Biranoya, Soma, Jarra West, Mansakonko, Lower River Division, The Gambia",
        "road": "Trans-Gambia Highway",
        "house_number": null,
        "neighbourhood": null,
        "suburb": null,
        "city_district": null,
        "city": "Soma",
        "state": "Lower River Division",
        "postcode": null,
        "country": "The Gambia",
        "country_code": "gm"
      },
      "address": "041, Trans-Gambia Highway, Biranoya, Soma, Jarra West, Mansakonko, 51219 Lower River Division, The Gambia"
    },
    {
      "lat": 13.433339460866213,
      "lon": -15.530942743133561,
      "geoinfo": {
        "display_name": "kah kunda, Trans-Gambia Highway, Biranoya, Soma, Jarra West, Mansakonko, Lower River Division, The Gambia",
        "road": "Trans-Gambia Highway",
        "house_number": null,
        "neighbourhood": null,
        "suburb": null,
        "city_district": null,
        "city": "Soma",
        "state": "Lower River Division",
        "postcode": null,
        "country": "The Gambia",
        "country_code": "gm"
      },
      "address": "417, Trans-Gambia Highway, Soma, 29288 Lower River Division, Gambia"
    },
    {
      "lat": 13.434090518821517,
      "lon": -15.53279121898726,
      "geoinfo": {
        "display_name": "Soma new lower basic school, Trans-Gambia Highway, Biranoya, Soma, Jarra West, Mansakonko, Lower River Division, The Gambia",
        "road": "Trans-Gambia Highway",
        "house_number": null,
        "neighbourhood": null,
        "suburb": null,
        "city_district": null,
        "city": "Soma",
        "state": "Lower River Division",
        "postcode": null,
        "country": "The Gambia",
        "country_code": "gm"
      },
      "address": "840, Trans-Gambia Highway, Soma, 64263 Lower River Division, Gambia"
    },
    {
      "lat": 13.435415298393,
      "lon": -15.5332548948645,
      "geoinfo": {
        "display_name": "Soma, Jarra West, Mansakonko, Lower River Division, The Gambia",
        "road": null,
        "house_number": null,
        "neighbourhood": null,
        "suburb": null,
        "city_district": null,
        "city": "Soma",
        "state": "Lower River Division",
        "postcode": null,
        "country": "The Gambia",
        "country_code": "gm"
      },
      "address": "980, Soma, Jarra West, Mansakonko, 26270 Lower River Division, The Gambia"
    },
    {
      "lat": 13.434263793267851,
      "lon": -15.530823674745825,
      "geoinfo": {
        "display_name": "Soma, Jarra West, Mansakonko, Lower River Division, The Gambia",
        "road": null,
        "house_number": null,
        "neighbourhood": null,
        "suburb": null,
        "city_district": null,
        "city": "Soma",
        "state": "Lower River Division",
        "postcode": null,
        "country": "The Gambia",
        "country_code": "gm"
      },
      "address": "492, Soma, Jarra West, Mansakonko, 41277 Lower River Division, The Gambia"
    },
    {
      "lat": 13.432293378346364,
      "lon": -15.533916375094105,
      "geoinfo": {
        "display_name": "Soma, Jarra West, Mansakonko, Lower River Division, The Gambia",
        "road": null,
        "house_number": null,
        "neighbourhood": null,
        "suburb": null,
        "city_district": null,
        "city": "Soma",
        "state": "Lower River Division",
        "postcode": null,
        "country": "The Gambia",
        "country_code": "gm"
      },
      "address": "081, Soma, Jarra West, Mansakonko, 75385 Lower River Division, The Gambia"
    },
    {
      "lat": 13.431050286512534,
      "lon": -15.534035898584904,
      "geoinfo": {
        "display_name": "Trans-Gambia Highway, Biranoya, Soma, Jarra West, Mansakonko, Lower River Division, The Gambia",
        "road": "Trans-Gambia Highway",
        "house_number": null,
        "neighbourhood": null,
        "suburb": null,
        "city_district": null,
        "city": "Soma",
        "state": "Lower River Division",
        "postcode": null,
        "country": "The Gambia",
        "country_code": "gm"
      },
      "address": "067, Trans-Gambia Highway, Biranoya, Soma, Jarra West, Mansakonko, 54496 Lower River Division, The Gambia"
    },
    {
      "lat": 13.431612414434454,
      "lon": -15.533758434837665,
      "geoinfo": {
        "display_name": "Trans-Gambia Highway, Biranoya, Soma, Jarra West, Mansakonko, Lower River Division, The Gambia",
        "road": "Trans-Gambia Highway",
        "house_number": null,
        "neighbourhood": null,
        "suburb": null,
        "city_district": null,
        "city": "Soma",
        "state": "Lower River Division",
        "postcode": null,
        "country": "The Gambia",
        "country_code": "gm"
      },
      "address": "056, Trans-Gambia Highway, Biranoya, Soma, Jarra West, Mansakonko, 92300 Lower River Division, The Gambia"
    },
    {
      "lat": 13.43313591711284,
      "lon": -15.535925668116617,
      "geoinfo": {
        "display_name": "Soma, Jarra West, Mansakonko, Lower River Division, The Gambia",
        "road": null,
        "house_number": null,
        "neighbourhood": null,
        "suburb": null,
        "city_district": null,
        "city": "Soma",
        "state": "Lower River Division",
        "postcode": null,
        "country": "The Gambia",
        "country_code": "gm"
      },
      "address": "146, Soma, Jarra West, Mansakonko, 14442 Lower River Division, The Gambia"
    },
    {
      "lat": 13.43281453352033,
      "lon": -15.535334942098476,
      "geoinfo": {
        "display_name": "Soma, Jarra West, Mansakonko, Lower River Division, The Gambia",
        "road": null,
        "house_number": null,
        "neighbourhood": null,
        "suburb": null,
        "city_district": null,
        "city": "Soma",
        "state": "Lower River Division",
        "postcode": null,
        "country": "The Gambia",
        "country_code": "gm"
      },
      "address": "743, Soma, Jarra West, Mansakonko, 32494 Lower River Division, The Gambia"
    },
    {
      "lat": 13.433357029152072,
      "lon": -15.531183084677421,
      "geoinfo": {
        "display_name": "kah kunda, Trans-Gambia Highway, Biranoya, Soma, Jarra West, Mansakonko, Lower River Division, The Gambia",
        "road": "Trans-Gambia Highway",
        "house_number": null,
        "neighbourhood": null,
        "suburb": null,
        "city_district": null,
        "city": "Soma",
        "state": "Lower River Division",
        "postcode": null,
        "country": "The Gambia",
        "country_code": "gm"
      },
      "address": "757, Trans-Gambia Highway, Soma, 18314 Lower River Division, Gambia"
    },
    {
      "lat": 13.431121453656273,
      "lon": -15.532759958612976,
      "geoinfo": {
        "display_name": "Soma, Jarra West, Mansakonko, Lower River Division, The Gambia",
        "road": null,
        "house_number": null,
        "neighbourhood": null,
        "suburb": null,
        "city_district": null,
        "city": "Soma",
        "state": "Lower River Division",
        "postcode": null,
        "country": "The Gambia",
        "country_code": "gm"
      },
      "address": "397, Soma, Jarra West, Mansakonko, 01379 Lower River Division, The Gambia"
    },
    {
      "lat": 13.43136217033218,
      "lon": -15.533899278692278,
      "geoinfo": {
        "display_name": "Soma, Jarra West, Mansakonko, Lower River Division, The Gambia",
        "road": null,
        "house_number": null,
        "neighbourhood": null,
        "suburb": null,
        "city_district": null,
        "city": "Soma",
        "state": "Lower River Division",
        "postcode": null,
        "country": "The Gambia",
        "country_code": "gm"
      },
      "address": "112, Soma, Jarra West, Mansakonko, 80159 Lower River Division, The Gambia"
    },
    {
      "lat": 13.433970683595701,
      "lon": -15.534035993060908,
      "geoinfo": {
        "display_name": "Trans-Gambia Highway, Biranoya, Soma, Jarra West, Mansakonko, Lower River Division, The Gambia",
        "road": "Trans-Gambia Highway",
        "house_number": null,
        "neighbourhood": null,
        "suburb": null,
        "city_district": null,
        "city": "Soma",
        "state": "Lower River Division",
        "postcode": null,
        "country": "The Gambia",
        "country_code": "gm"
      },
      "address": "675, Trans-Gambia Highway, Biranoya, Soma, Jarra West, Mansakonko, 32153 Lower River Division, The Gambia"
    },
    {
      "lat": 13.433137353320078,
      "lon": -15.534564456584691,
      "geoinfo": {
        "display_name": "Soma, Jarra West, Mansakonko, Lower River Division, The Gambia",
        "road": null,
        "house_number": null,
        "neighbourhood": null,
        "suburb": null,
        "city_district": null,
        "city": "Soma",
        "state": "Lower River Division",
        "postcode": null,
        "country": "The Gambia",
        "country_code": "gm"
      },
      "address": "514, Soma, Jarra West, Mansakonko, 23640 Lower River Division, The Gambia"
    },
    {
      "lat": 13.433519346604841,
      "lon": -15.53452813170854,
      "geoinfo": {
        "display_name": "Soma, Jarra West, Mansakonko, Lower River Division, The Gambia",
        "road": null,
        "house_number": null,
        "neighbourhood": null,
        "suburb": null,
        "city_district": null,
        "city": "Soma",
        "state": "Lower River Division",
        "postcode": null,
        "country": "The Gambia",
        "country_code": "gm"
      },
      "address": "879, Soma, Jarra West, Mansakonko, 08412 Lower River Division, The Gambia"
    },
    {
      "lat": 13.43454118241948,
      "lon": -15.531310544265816,
      "geoinfo": {
        "display_name": "Soma, Jarra West, Mansakonko, Lower River Division, The Gambia",
        "road": null,
        "house_number": null,
        "neighbourhood": null,
        "suburb": null,
        "city_district": null,
        "city": "Soma",
        "state": "Lower River Division",
        "postcode": null,
        "country": "The Gambia",
        "country_code": "gm"
      },
      "address": "178, Soma, Jarra West, Mansakonko, 70102 Lower River Division, The Gambia"
    },
    {
      "lat": 13.431681037348502,
      "lon": -15.533630834210804,
      "geoinfo": {
        "display_name": "Trans-Gambia Highway, Biranoya, Soma, Jarra West, Mansakonko, Lower River Division, The Gambia",
        "road": "Trans-Gambia Highway",
        "house_number": null,
        "neighbourhood": null,
        "suburb": null,
        "city_district": null,
        "city": "Soma",
        "state": "Lower River Division",
        "postcode": null,
        "country": "The Gambia",
        "country_code": "gm"
      },
      "address": "439, Trans-Gambia Highway, Biranoya, Soma, Jarra West, Mansakonko, 23633 Lower River Division, The Gambia"
    },
    {
      "lat": 13.434086196933958,
      "lon": -15.534966176493292,
      "geoinfo": {
        "display_name": "Soma, Jarra West, Mansakonko, Lower River Division, The Gambia",
        "road": null,
        "house_number": null,
        "neighbourhood": null,
        "suburb": null,
        "city_district": null,
        "city": "Soma",
        "state": "Lower River Division",
        "postcode": null,
        "country": "The Gambia",
        "country_code": "gm"
      },
      "address": "722, Soma, Jarra West, Mansakonko, 47982 Lower River Division, The Gambia"
    },
    {
      "lat": 13.430964101287516,
      "lon": -15.532539144617779,
      "geoinfo": {
        "display_name": "Soma, Jarra West, Mansakonko, Lower River Division, The Gambia",
        "road": null,
        "house_number": null,
        "neighbourhood": null,
        "suburb": null,
        "city_district": null,
        "city": "Soma",
        "state": "Lower River Division",
        "postcode": null,
        "country": "The Gambia",
        "country_code": "gm"
      },
      "address": "595, Soma, Jarra West, Mansakonko, 71213 Lower River Division, The Gambia"
    },
    {
      "lat": 13.434569912172424,
      "lon": -15.535379370888618,
      "geoinfo": {
        "display_name": "Soma, Jarra West, Mansakonko, Lower River Division, The Gambia",
        "road": null,
        "house_number": null,
        "neighbourhood": null,
        "suburb": null,
        "city_district": null,
        "city": "Soma",
        "state": "Lower River Division",
        "postcode": null,
        "country": "The Gambia",
        "country_code": "gm"
      },
      "address": "624, Soma, Jarra West, Mansakonko, 81003 Lower River Division, The Gambia"
    },
    {
      "lat": 13.435165254138285,
      "lon": -15.534884686429908,
      "geoinfo": {
        "display_name": "Soma, Jarra West, Mansakonko, Lower River Division, The Gambia",
        "road": null,
        "house_number": null,
        "neighbourhood": null,
        "suburb": null,
        "city_district": null,
        "city": "Soma",
        "state": "Lower River Division",
        "postcode": null,
        "country": "The Gambia",
        "country_code": "gm"
      },
      "address": "402, Soma, Jarra West, Mansakonko, 09833 Lower River Division, The Gambia"
    },
    {
      "lat": 13.432100042825992,
      "lon": -15.532306104356001,
      "geoinfo": {
        "display_name": "Soma, Jarra West, Mansakonko, Lower River Division, The Gambia",
        "road": null,
        "house_number": null,
        "neighbourhood": null,
        "suburb": null,
        "city_district": null,
        "city": "Soma",
        "state": "Lower River Division",
        "postcode": null,
        "country": "The Gambia",
        "country_code": "gm"
      },
      "address": "214, Soma, Jarra West, Mansakonko, 17406 Lower River Division, The Gambia"
    },
    {
      "lat": 13.43183746192298,
      "lon": -15.535632103346847,
      "geoinfo": {
        "display_name": "Soma, Jarra West, Mansakonko, Lower River Division, The Gambia",
        "road": null,
        "house_number": null,
        "neighbourhood": null,
        "suburb": null,
        "city_district": null,
        "city": "Soma",
        "state": "Lower River Division",
        "postcode": null,
        "country": "The Gambia",
        "country_code": "gm"
      },
      "address": "142, Soma, Jarra West, Mansakonko, 72091 Lower River Division, The Gambia"
    },
    {
      "lat": 13.433646596557416,
      "lon": -15.531297557588834,
      "geoinfo": {
        "display_name": "Soma, Jarra West, Mansakonko, Lower River Division, The Gambia",
        "road": null,
        "house_number": null,
        "neighbourhood": null,
        "suburb": null,
        "city_district": null,
        "city": "Soma",
        "state": "Lower River Division",
        "postcode": null,
        "country": "The Gambia",
        "country_code": "gm"
      },
      "address": "845, Soma, Jarra West, Mansakonko, 08301 Lower River Division, The Gambia"
    },
    {
      "lat": 13.43182221499394,
      "lon": -15.533902688316527,
      "geoinfo": {
        "display_name": "Soma, Jarra West, Mansakonko, Lower River Division, The Gambia",
        "road": null,
        "house_number": null,
        "neighbourhood": null,
        "suburb": null,
        "city_district": null,
        "city": "Soma",
        "state": "Lower River Division",
        "postcode": null,
        "country": "The Gambia",
        "country_code": "gm"
      },
      "address": "188, Soma, Jarra West, Mansakonko, 74380 Lower River Division, The Gambia"
    },
    {
      "lat": 13.432092714803613,
      "lon": -15.533688578764284,
      "geoinfo": {
        "display_name": "Soma, Jarra West, Mansakonko, Lower River Division, The Gambia",
        "road": null,
        "house_number": null,
        "neighbourhood": null,
        "suburb": null,
        "city_district": null,
        "city": "Soma",
        "state": "Lower River Division",
        "postcode": null,
        "country": "The Gambia",
        "country_code": "gm"
      },
      "address": "774, Soma, Jarra West, Mansakonko, 84752 Lower River Division, The Gambia"
    },
    {
      "lat": 13.435709952737945,
      "lon": -15.532545843489462,
      "geoinfo": {
        "display_name": "Soma, Jarra West, Mansakonko, Lower River Division, The Gambia",
        "road": null,
        "house_number": null,
        "neighbourhood": null,
        "suburb": null,
        "city_district": null,
        "city": "Soma",
        "state": "Lower River Division",
        "postcode": null,
        "country": "The Gambia",
        "country_code": "gm"
      },
      "address": "645, Soma, Jarra West, Mansakonko, 32062 Lower River Division, The Gambia"
    }
  ],
  "updated_at": "2025-10-21T23:20:16.408604+00:00",
  "_kind": "geo_samples"
}