{
  "country_code": "GM",
  "country": "Gambia",
  "city": "Sukuta",
  "geonameid": 2411880,
  "target_addresses": 50,
  "samples": [
    {
      "lat": 13.447084624318055,
      "lon": -16.73159279014156,
      "geoinfo": {
        "display_name": "Senegambia, Kololi, Kombo North/Saint Mary, Brikama, West Coast Division, The Gambia",
        "road": null,
        "house_number": null,
        "neighbourhood": null,
        "suburb": "Senegambia",
        "city_district": null,
        "city": null,
        "state": "West Coast Division",
        "postcode": null,
        "country": "The Gambia",
        "country_code": "gm"
      },
      "address": "Senegambia, Sukuta, West Coast Division, Gambia"
    },
    {
      "lat": 13.435351547687368,
      "lon": -16.71582971560444,
      "geoinfo": {
        "display_name": "Kerr Serign, Sukuta, Kombo North/Saint Mary, Brikama, West Coast Division, The Gambia",
        "road": null,
        "house_number": null,
        "neighbourhood": null,
        "suburb": "Kerr Serign",
        "city_district": null,
        "city": "Sukuta",
        "state": "West Coast Division",
        "postcode": null,
        "country": "The Gambia",
        "country_code": "gm"
      },
      "address": "Kerr Serign, Sukuta, West Coast Division, Gambia"
    },
    {
      "lat": 13.3994218782203,
      "lon": -16.72617438360951,
      "geoinfo": {
        "display_name": "Brusubi Phase 1, Sukuta, Kombo North/Saint Mary, Brikama, West Coast Division, The Gambia",
        "road": null,
        "house_number": null,
        "neighbourhood": null,
        "suburb": "Brusubi Phase 1",
        "city_district": null,
        "city": "Sukuta",
        "state": "West Coast Division",
        "postcode": null,
        "country": "The Gambia",
        "country_code": "gm"
      },
      "address": "Brusubi Phase 1, Sukuta, West Coast Division, Gambia"
    },
    {
      "lat": 13.442676289255127,
      "lon": -16.712116627564047,
      "geoinfo": {
        "display_name": "Kololi, Kombo North/Saint Mary, Brikama, West Coast Division, The Gambia",
        "road": null,
        "house_number": null,
        "neighbourhood": null,
        "suburb": "Kololi",
        "city_district": null,
        "city": null,
        "state": "West Coast Division",
        "postcode": null,
        "country": "The Gambia",
        "country_code": "gm"
      },
      "address": "Kololi, Sukuta, West Coast Division, Gambia"
    },
    {
      "lat": 13.377942850184793,
      "lon": -16.70487337446519,
      "geoinfo": {
        "display_name": "Old Yundum, Kombo North/Saint Mary, Brikama, West Coast Division, The Gambia",
        "road": null,
        "house_number": null,
        "neighbourhood": null,
        "suburb": null,
        "city_district": null,
        "city": "Old Yundum",
        "state": "West Coast Division",
        "postcode": null,
        "country": "The Gambia",
        "country_code": "gm"
      },
      "address": "Sukuta, 07987 West Coast Division, Gambia"
    },
    {
      "lat": 13.390377417894275,
      "lon": -16.668414439526053,
      "geoinfo": {
        "display_name": "Wellingara, Kombo North/Saint Mary, Brikama, West Coast Division, The Gambia",
        "road": null,
        "house_number": null,
        "neighbourhood": null,
        "suburb": null,
        "city_district": null,
        "city": "Wellingara",
        "state": "West Coast Division",
        "postcode": null,
        "country": "The Gambia",
        "country_code": "gm"
      },
      "address": "Sukuta, 74438 West Coast Division, Gambia"
    },
    {
      "lat": 13.419593664735942,
      "lon": -16.714120121614844,
      "geoinfo": {
        "display_name": "Darboe Jula Estate Agency, Kerr Serign, Sukuta, Kombo North/Saint Mary, Brikama, West Coast Division, The Gambia",
        "road": null,
        "house_number": null,
        "neighbourhood": null,
        "suburb": "Kerr Serign",
        "city_district": null,
        "city": "Sukuta",
        "state": "West Coast Division",
        "postcode": null,
        "country": "The Gambia",
        "country_code": "gm"
      },
      "address": "Kerr Serign, Sukuta, 44918 West Coast Division, Gambia"
    },
    {
      "lat": 13.43056100675892,
      "lon": -16.734577319490885,
      "geoinfo": {
        "display_name": "Akuto Park Trail, Bijilo, Sukuta, Kombo North/Saint Mary, Brikama, West Coast Division, The Gambia",
        "road": "Akuto Park Trail",
        "house_number": null,
        "neighbourhood": null,
        "suburb": "Bijilo",
        "city_district": null,
        "city": "Sukuta",
        "state": "West Coast Division",
        "postcode": null,
        "country": "The Gambia",
        "country_code": "gm"
      },
      "address": "842, Akuto Park Trail, Bijilo, Sukuta, Kombo North/Saint Mary, Brikama, 20614 West Coast Division, The Gambia"
    },
    {
      "lat": 13.399408438917385,
      "lon": -16.734485460545383,
      "geoinfo": {
        "display_name": "Turntable, Brusubi Phase 1, Sukuta, Kombo North/Saint Mary, Brikama, West Coast Division, The Gambia",
        "road": null,
        "house_number": null,
        "neighbourhood": null,
        "suburb": "Brusubi Phase 1",
        "city_district": null,
        "city": "Sukuta",
        "state": "West Coast Division",
        "postcode": null,
        "country": "The Gambia",
        "country_code": "gm"
      },
      "address": "055, Turntable, Brusubi Phase 1, Sukuta, Kombo North/Saint Mary, Brikama, West Coast Division, The Gambia"
    },
    {
      "lat": 13.383424531698425,
      "lon": -16.686912926012532,
      "geoinfo": {
        "display_name": "Old Yundum, Kombo North/Saint Mary, Brikama, West Coast Division, The Gambia",
        "road": null,
        "house_number": null,
        "neighbourhood": null,
        "suburb": null,
        "city_district": null,
        "city": "Old Yundum",
        "state": "West Coast Division",
        "postcode": null,
        "country": "The Gambia",
        "country_code": "gm"
      },
      "address": "019, Old Yundum, Kombo North/Saint Mary, Brikama, 88665 West Coast Division, The Gambia"
    },
    {
      "lat": 13.372352124318297,
      "lon": -16.6962694284115,
      "geoinfo": {
        "display_name": "Swami Paradise, Old Yundum, Kombo North/Saint Mary, Brikama, West Coast Division, The Gambia",
        "road": null,
        "house_number": null,
        "neighbourhood": "Swami Paradise",
        "suburb": null,
        "city_district": null,
        "city": "Old Yundum",
        "state": "West Coast Division",
        "postcode": null,
        "country": "The Gambia",
        "country_code": "gm"
      },
      "address": "720, Swami Paradise, Old Yundum, Kombo North/Saint Mary, Brikama, 15040 West Coast Division, The Gambia"
    },
    {
      "lat": 13.370256562555253,
      "lon": -16.70744052321133,
      "geoinfo": {
        "display_name": "Brufut Willinkama, Sarapateh, Kombo North/Saint Mary, Brikama, West Coast Division, The Gambia",
        "road": null,
        "house_number": null,
        "neighbourhood": null,
        "suburb": "Brufut Willinkama",
        "city_district": null,
        "city": "Sarapateh",
        "state": "West Coast Division",
        "postcode": null,
        "country": "The Gambia",
        "country_code": "gm"
      },
      "address": "452, Brufut Willinkama, Sarapateh, Kombo North/Saint Mary, Brikama, 56901 West Coast Division, The Gambia"
    },
    {
      "lat": 13.40660699014202,
      "lon": -16.72238233331553,
      "geoinfo": {
        "display_name": "Darboe Jula Estate Agency, Brusubi Phase 2, Sukuta, Kombo North/Saint Mary, Brikama, West Coast Division, The Gambia",
        "road": null,
        "house_number": null,
        "neighbourhood": null,
        "suburb": "Brusubi Phase 2",
        "city_district": null,
        "city": "Sukuta",
        "state": "West Coast Division",
        "postcode": null,
        "country": "The Gambia",
        "country_code": "gm"
      },
      "address": "657, Darboe Jula Estate Agency, Brusubi Phase 2, Sukuta, Kombo North/Saint Mary, Brikama, West Coast Division, The Gambia"
    },
    {
      "lat": 13.396605731380456,
      "lon": -16.733391332003137,
      "geoinfo": {
        "display_name": "Brusubi Phase 1, Sukuta, Kombo North/Saint Mary, Brikama, West Coast Division, The Gambia",
        "road": null,
        "house_number": null,
        "neighbourhood": null,
        "suburb": "Brusubi Phase 1",
        "city_district": null,
        "city": "Sukuta",
        "state": "West Coast Division",
        "postcode": null,
        "country": "The Gambia",
        "country_code": "gm"
      },
      "address": "Brusubi Phase 1, Sukuta, Kombo North/Saint Mary, Brikama, 79862 West Coast Division, The Gambia"
    },
    {
      "lat": 13.436404924748127,
      "lon": -16.682022051111865,
      "geoinfo": {
        "display_name": "Serekunda and London Corner, Serrekunda, Kanifing Municipal Council, The Gambia",
        "road": null,
        "house_number": null,
        "neighbourhood": null,
        "suburb": null,
        "city_district": null,
        "city": "Serrekunda",
        "state": "Kanifing Municipal Council",
        "postcode": null,
        "country": "The Gambia",
        "country_code": "gm"
      },
      "address": "762, Serekunda and London Corner, Serrekunda, 18019 Kanifing Municipal Council, The Gambia"
    },
    {
      "lat": 13.43944160316623,
      "lon": -16.685050368762298,
      "geoinfo": {
        "display_name": "Dippa Kunda, Serrekunda, Kanifing Municipal Council, The Gambia",
        "road": null,
        "house_number": null,
        "neighbourhood": null,
        "suburb": null,
        "city_district": null,
        "city": "Serrekunda",
        "state": "Kanifing Municipal Council",
        "postcode": null,
        "country": "The Gambia",
        "country_code": "gm"
      },
      "address": "072, Dippa Kunda, Serrekunda, 87682 Kanifing Municipal Council, The Gambia"
    },
    {
      "lat": 13.397495930378033,
      "lon": -16.675789870357338,
      "geoinfo": {
        "display_name": "Wellingara, Kombo North/Saint Mary, Brikama, West Coast Division, The Gambia",
        "road": null,
        "house_number": null,
        "neighbourhood": null,
        "suburb": null,
        "city_district": null,
        "city": "Wellingara",
        "state": "West Coast Division",
        "postcode": null,
        "country": "The Gambia",
        "country_code": "gm"
      },
      "address": "704, Wellingara, Kombo North/Saint Mary, Brikama, 88095 West Coast Division, The Gambia"
    },
    {
      "lat": 13.384469652701396,
      "lon": -16.704008474401093,
      "geoinfo": {
        "display_name": "Old Yundum, Kombo North/Saint Mary, Brikama, West Coast Division, The Gambia",
        "road": null,
        "house_number": null,
        "neighbourhood": null,
        "suburb": null,
        "city_district": null,
        "city": "Old Yundum",
        "state": "West Coast Division",
        "postcode": null,
        "country": "The Gambia",
        "country_code": "gm"
      },
      "address": "641, Old Yundum, Kombo North/Saint Mary, Brikama, 84909 West Coast Division, The Gambia"
    },
    {
      "lat": 13.429188799403383,
      "lon": -16.740933449245315,
      "geoinfo": {
        "display_name": "Bijilo, Sukuta, Kombo North/Saint Mary, Brikama, West Coast Division, The Gambia",
        "road": null,
        "house_number": null,
        "neighbourhood": null,
        "suburb": "Bijilo",
        "city_district": null,
        "city": "Sukuta",
        "state": "West Coast Division",
        "postcode": null,
        "country": "The Gambia",
        "country_code": "gm"
      },
      "address": "136, Bijilo, Sukuta, Kombo North/Saint Mary, Brikama, 70020 West Coast Division, The Gambia"
    },
    {
      "lat": 13.408420631296414,
      "lon": -16.70674591240534,
      "geoinfo": {
        "display_name": "Brusubi Phase 2, Sukuta, Kombo North/Saint Mary, Brikama, West Coast Division, The Gambia",
        "road": null,
        "house_number": null,
        "neighbourhood": null,
        "suburb": "Brusubi Phase 2",
        "city_district": null,
        "city": "Sukuta",
        "state": "West Coast Division",
        "postcode": null,
        "country": "The Gambia",
        "country_code": "gm"
      },
      "address": "Brusubi Phase 2, Sukuta, Kombo North/Saint Mary, Brikama, 69924 West Coast Division, The Gambia"
    },
    {
      "lat": 13.40898823506868,
      "lon": -16.709905801664018,
      "geoinfo": {
        "display_name": "Darboe Jula Estate Agency, Brusubi Phase 2, Sukuta, Kombo North/Saint Mary, Brikama, West Coast Division, The Gambia",
        "road": null,
        "house_number": null,
        "neighbourhood": null,
        "suburb": "Brusubi Phase 2",
        "city_district": null,
        "city": "Sukuta",
        "state": "West Coast Division",
        "postcode": null,
        "country": "The Gambia",
        "country_code": "gm"
      },
      "address": "568, Darboe Jula Estate Agency, Brusubi Phase 2, Sukuta, Kombo North/Saint Mary, Brikama, West Coast Division, The Gambia"
    },
    {
      "lat": 13.412642526699853,
      "lon": -16.7073454355783,
      "geoinfo": {
        "display_name": "Sayerjobe Avenue, Brusubi Phase 2, Sukuta, Kombo North/Saint Mary, Brikama, West Coast Division, The Gambia",
        "road": "Sayerjobe Avenue",
        "house_number": null,
        "neighbourhood": null,
        "suburb": "Brusubi Phase 2",
        "city_district": null,
        "city": "Sukuta",
        "state": "West Coast Division",
        "postcode": null,
        "country": "The Gambia",
        "country_code": "gm"
      },
      "address": "139, Sayerjobe Avenue, Brusubi Phase 2, Sukuta, Kombo North/Saint Mary, Brikama, West Coast Division, The Gambia"
    },
    {
      "lat": 13.408248861105866,
      "lon": -16.70924946964057,
      "geoinfo": {
        "display_name": "Darboe Jula Estate Agency, Brusubi Phase 2, Sukuta, Kombo North/Saint Mary, Brikama, West Coast Division, The Gambia",
        "road": null,
        "house_number": null,
        "neighbourhood": null,
        "suburb": "Brusubi Phase 2",
        "city_district": null,
        "city": "Sukuta",
        "state": "West Coast Division",
        "postcode": null,
        "country": "The Gambia",
        "country_code": "gm"
      },
      "address": "265, Darboe Jula Estate Agency, Brusubi Phase 2, Sukuta, Kombo North/Saint Mary, Brikama, West Coast Division, The Gambia"
    },
    {
      "lat": 13.411697480161362,
      "lon": -16.70894082673295,
      "geoinfo": {
        "display_name": "Darboe Jula Estate Agency, Brusubi Phase 2, Sukuta, Kombo North/Saint Mary, Brikama, West Coast Division, The Gambia",
        "road": null,
        "house_number": null,
        "neighbourhood": null,
        "suburb": "Brusubi Phase 2",
        "city_district": null,
        "city": "Sukuta",
        "state": "West Coast Division",
        "postcode": null,
        "country": "The Gambia",
        "country_code": "gm"
      },
      "address": "875, Darboe Jula Estate Agency, Brusubi Phase 2, Sukuta, Kombo North/Saint Mary, Brikama, West Coast Division, The Gambia"
    },
    {
      "lat": 13.412184837944388,
      "lon": -16.708669440660003,
      "geoinfo": {
        "display_name": "Darboe Jula Estate Agency, Brusubi Phase 2, Sukuta, Kombo North/Saint Mary, Brikama, West Coast Division, The Gambia",
        "road": null,
        "house_number": null,
        "neighbourhood": null,
        "suburb": "Brusubi Phase 2",
        "city_district": null,
        "city": "Sukuta",
        "state": "West Coast Division",
        "postcode": null,
        "country": "The Gambia",
        "country_code": "gm"
      },
      "address": "058, Darboe Jula Estate Agency, Brusubi Phase 2, Sukuta, Kombo North/Saint Mary, Brikama, West Coast Division, The Gambia"
    },
    {
      "lat": 13.4096834735441,
      "lon": -16.709444180290447,
      "geoinfo": {
        "display_name": "Darboe Jula Estate Agency, Brusubi Phase 2, Sukuta, Kombo North/Saint Mary, Brikama, West Coast Division, The Gambia",
        "road": null,
        "house_number": null,
        "neighbourhood": null,
        "suburb": "Brusubi Phase 2",
        "city_district": null,
        "city": "Sukuta",
        "state": "West Coast Division",
        "postcode": null,
        "country": "The Gambia",
        "country_code": "gm"
      },
      "address": "373, Darboe Jula Estate Agency, Brusubi Phase 2, Sukuta, Kombo North/Saint Mary, Brikama, West Coast Division, The Gambia"
    },
    {
      "lat": 13.408870989059787,
      "lon": -16.706387684378676,
      "geoinfo": {
        "display_name": "Brusubi Phase 2, Sukuta, Kombo North/Saint Mary, Brikama, West Coast Division, The Gambia",
        "road": null,
        "house_number": null,
        "neighbourhood": null,
        "suburb": "Brusubi Phase 2",
        "city_district": null,
        "city": "Sukuta",
        "state": "West Coast Division",
        "postcode": null,
        "country": "The Gambia",
        "country_code": "gm"
      },
      "address": "Brusubi Phase 2, Sukuta, Kombo North/Saint Mary, Brikama, 46534 West Coast Division, The Gambia"
    },
    {
      "lat": 13.412471303316122,
      "lon": -16.707516370824965,
      "geoinfo": {
        "display_name": "Darboe Jula Estate Agency, Brusubi Phase 2, Sukuta, Kombo North/Saint Mary, Brikama, West Coast Division, The Gambia",
        "road": null,
        "house_number": null,
        "neighbourhood": null,
        "suburb": "Brusubi Phase 2",
        "city_district": null,
        "city": "Sukuta",
        "state": "West Coast Division",
        "postcode": null,
        "country": "The Gambia",
        "country_code": "gm"
      },
      "address": "805, Darboe Jula Estate Agency, Brusubi Phase 2, Sukuta, Kombo North/Saint Mary, Brikama, West Coast Division, The Gambia"
    },
    {
      "lat": 13.412196485194817,
      "lon": -16.706177668378874,
      "geoinfo": {
        "display_name": "Sukuta, Kombo North/Saint Mary, Brikama, West Coast Division, The Gambia",
        "road": null,
        "house_number": null,
        "neighbourhood": null,
        "suburb": null,
        "city_district": null,
        "city": "Sukuta",
        "state": "West Coast Division",
        "postcode": null,
        "country": "The Gambia",
        "country_code": "gm"
      },
      "address": "069, Sukuta, Kombo North/Saint Mary, Brikama, 85704 West Coast Division, The Gambia"
    },
    {
      "lat": 13.41009116424313,
      "lon": -16.709196215482418,
      "geoinfo": {
        "display_name": "Darboe Jula Estate Agency, Brusubi Phase 2, Sukuta, Kombo North/Saint Mary, Brikama, West Coast Division, The Gambia",
        "road": null,
        "house_number": null,
        "neighbourhood": null,
        "suburb": "Brusubi Phase 2",
        "city_district": null,
        "city": "Sukuta",
        "state": "West Coast Division",
        "postcode": null,
        "country": "The Gambia",
        "country_code": "gm"
      },
      "address": "852, Darboe Jula Estate Agency, Brusubi Phase 2, Sukuta, Kombo North/Saint Mary, Brikama, West Coast Division, The Gambia"
    },
    {
      "lat": 13.408518272120126,
      "lon": -16.709218380354994,
      "geoinfo": {
        "display_name": "Darboe Jula Estate Agency, Brusubi Phase 2, Sukuta, Kombo North/Saint Mary, Brikama, West Coast Division, The Gambia",
        "road": null,
        "house_number": null,
        "neighbourhood": null,
        "suburb": "Brusubi Phase 2",
        "city_district": null,
        "city": "Sukuta",
        "state": "West Coast Division",
        "postcode": null,
        "country": "The Gambia",
        "country_code": "gm"
      },
      "address": "158, Darboe Jula Estate Agency, Brusubi Phase 2, Sukuta, Kombo North/Saint Mary, Brikama, West Coast Division, The Gambia"
    },
    {
      "lat": 13.411399691536435,
      "lon": -16.70722937565563,
      "geoinfo": {
        "display_name": "Sayerjobe Avenue, Brusubi Phase 2, Sukuta, Kombo North/Saint Mary, Brikama, West Coast Division, The Gambia",
        "road": "Sayerjobe Avenue",
        "house_number": null,
        "neighbourhood": null,
        "suburb": "Brusubi Phase 2",
        "city_district": null,
        "city": "Sukuta",
        "state": "West Coast Division",
        "postcode": null,
        "country": "The Gambia",
        "country_code": "gm"
      },
      "address": "647, Sayerjobe Avenue, Brusubi Phase 2, Sukuta, Kombo North/Saint Mary, Brikama, West Coast Division, The Gambia"
    },
    {
      "lat": 13.411790165442774,
      "lon": -16.708938341839655,
      "geoinfo": {
        "display_name": "Darboe Jula Estate Agency, Brusubi Phase 2, Sukuta, Kombo North/Saint Mary, Brikama, West Coast Division, The Gambia",
        "road": null,
        "house_number": null,
        "neighbourhood": null,
        "suburb": "Brusubi Phase 2",
        "city_district": null,
        "city": "Sukuta",
        "state": "West Coast Division",
        "postcode": null,
        "country": "The Gambia",
        "country_code": "gm"
      },
      "address": "182, Darboe Jula Estate Agency, Brusubi Phase 2, Sukuta, Kombo North/Saint Mary, Brikama, West Coast Division, The Gambia"
    },
    {
      "lat": 13.41126156150717,
      "lon": -16.709781961850616,
      "geoinfo": {
        "display_name": "Darboe Jula Estate Agency, Brusubi Phase 2, Sukuta, Kombo North/Saint Mary, Brikama, West Coast Division, The Gambia",
        "road": null,
        "house_number": null,
        "neighbourhood": null,
        "suburb": "Brusubi Phase 2",
        "city_district": null,
        "city": "Sukuta",
        "state": "West Coast Division",
        "postcode": null,
        "country": "The Gambia",
        "country_code": "gm"
      },
      "address": "493, Darboe Jula Estate Agency, Brusubi Phase 2, Sukuta, Kombo North/Saint Mary, Brikama, West Coast Division, The Gambia"
    },
    {
      "lat": 13.408643170575473,
      "lon": -16.706153134409107,
      "geoinfo": {
        "display_name": "Brusubi Phase 2, Sukuta, Kombo North/Saint Mary, Brikama, West Coast Division, The Gambia",
        "road": null,
        "house_number": null,
        "neighbourhood": null,
        "suburb": "Brusubi Phase 2",
        "city_district": null,
        "city": "Sukuta",
        "state": "West Coast Division",
        "postcode": null,
        "country": "The Gambia",
        "country_code": "gm"
      },
      "address": "Brusubi Phase 2, Sukuta, Kombo North/Saint Mary, Brikama, 77992 West Coast Division, The Gambia"
    },
    {
      "lat": 13.408356487318816,
      "lon": -16.707636183668356,
      "geoinfo": {
        "display_name": "Sayerjobe Avenue, Brusubi Phase 2, Sukuta, Kombo North/Saint Mary, Brikama, West Coast Division, The Gambia",
        "road": "Sayerjobe Avenue",
        "house_number": null,
        "neighbourhood": null,
        "suburb": "Brusubi Phase 2",
        "city_district": null,
        "city": "Sukuta",
        "state": "West Coast Division",
        "postcode": null,
        "country": "The Gambia",
        "country_code": "gm"
      },
      "address": "522, Sayerjobe Avenue, Brusubi Phase 2, Sukuta, Kombo North/Saint Mary, Brikama, West Coast Division, The Gambia"
    },
    {
      "lat": 13.410383456461245,
      "lon": -16.707961757654807,
      "geoinfo": {
        "display_name": "Darboe Jula Estate Agency, Brusubi Phase 2, Sukuta, Kombo North/Saint Mary, Brikama, West Coast Division, The Gambia",
        "road": null,
        "house_number": null,
        "neighbourhood": null,
        "suburb": "Brusubi Phase 2",
        "city_district": null,
        "city": "Sukuta",
        "state": "West Coast Division",
        "postcode": null,
        "country": "The Gambia",
        "country_code": "gm"
      },
      "address": "523, Darboe Jula Estate Agency, Brusubi Phase 2, Sukuta, Kombo North/Saint Mary, Brikama, West Coast Division, The Gambia"
    },
    {
      "lat": 13.412406780412825,
      "lon": -16.70769935956452,
      "geoinfo": {
        "display_name": "Darboe Jula Estate Agency, Brusubi Phase 2, Sukuta, Kombo North/Saint Mary, Brikama, West Coast Division, The Gambia",
        "road": null,
        "house_number": null,
        "neighbourhood": null,
        "suburb": "Brusubi Phase 2",
        "city_district": null,
        "city": "Sukuta",
        "state": "West Coast Division",
        "postcode": null,
        "country": "The Gambia",
        "country_code": "gm"
      },
      "address": "186, Darboe Jula Estate Agency, Brusubi Phase 2, Sukuta, Kombo North/Saint Mary, Brikama, West Coast Division, The Gambia"
    },
    {
      "lat": 13.409801417016395,
      "lon": -16.707587192034193,
      "geoinfo": {
        "display_name": "Darboe Jula Estate Agency, Brusubi Phase 2, Sukuta, Kombo North/Saint Mary, Brikama, West Coast Division, The Gambia",
        "road": null,
        "house_number": null,
        "neighbourhood": null,
        "suburb": "Brusubi Phase 2",
        "city_district": null,
        "city": "Sukuta",
        "state": "West Coast Division",
        "postcode": null,
        "country": "The Gambia",
        "country_code": "gm"
      },
      "address": "778, Darboe Jula Estate Agency, Brusubi Phase 2, Sukuta, Kombo North/Saint Mary, Brikama, West Coast Division, The Gambia"
    },
    {
      "lat": 13.410835460998573,
      "lon": -16.70971407214732,
      "geoinfo": {
        "display_name": "Darboe Jula Estate Agency, Brusubi Phase 2, Sukuta, Kombo North/Saint Mary, Brikama, West Coast Division, The Gambia",
        "road": null,
        "house_number": null,
        "neighbourhood": null,
        "suburb": "Brusubi Phase 2",
        "city_district": null,
        "city": "Sukuta",
        "state": "West Coast Division",
        "postcode": null,
        "country": "The Gambia",
        "country_code": "gm"
      },
      "address": "960, Darboe Jula Estate Agency, Brusubi Phase 2, Sukuta, Kombo North/Saint Mary, Brikama, West Coast Division, The Gambia"
    },
    {
      "lat": 13.40807006614249,
      "lon": -16.708801597962935,
      "geoinfo": {
        "display_name": "Darboe Jula Estate Agency, Brusubi Phase 2, Sukuta, Kombo North/Saint Mary, Brikama, West Coast Division, The Gambia",
        "road": null,
        "house_number": null,
        "neighbourhood": null,
        "suburb": "Brusubi Phase 2",
        "city_district": null,
        "city": "Sukuta",
        "state": "West Coast Division",
        "postcode": null,
        "country": "The Gambia",
        "country_code": "gm"
      },
      "address": "276, Darboe Jula Estate Agency, Brusubi Phase 2, Sukuta, Kombo North/Saint Mary, Brikama, West Coast Division, The Gambia"
    },
    {
      "lat": 13.409488679160033,
      "lon": -16.70949417696861,
      "geoinfo": {
        "display_name": "Darboe Jula Estate Agency, Brusubi Phase 2, Sukuta, Kombo North/Saint Mary, Brikama, West Coast Division, The Gambia",
        "road": null,
        "house_number": null,
        "neighbourhood": null,
        "suburb": "Brusubi Phase 2",
        "city_district": null,
        "city": "Sukuta",
        "state": "West Coast Division",
        "postcode": null,
        "country": "The Gambia",
        "country_code": "gm"
      },
      "address": "535, Darboe Jula Estate Agency, Brusubi Phase 2, Sukuta, Kombo North/Saint Mary, Brikama, West Coast Division, The Gambia"
    },
    {
      "lat": 13.40954470757783,
      "lon": -16.70840356098331,
      "geoinfo": {
        "display_name": "Darboe Jula Estate Agency, Brusubi Phase 2, Sukuta, Kombo North/Saint Mary, Brikama, West Coast Division, The Gambia",
        "road": null,
        "house_number": null,
        "neighbourhood": null,
        "suburb": "Brusubi Phase 2",
        "city_district": null,
        "city": "Sukuta",
        "state": "West Coast Division",
        "postcode": null,
        "country": "The Gambia",
        "country_code": "gm"
      },
      "address": "782, Darboe Jula Estate Agency, Brusubi Phase 2, Sukuta, Kombo North/Saint Mary, Brikama, West Coast Division, The Gambia"
    },
    {
      "lat": 13.410484314483128,
      "lon": -16.708620919073425,
      "geoinfo": {
        "display_name": "Darboe Jula Estate Agency, Brusubi Phase 2, Sukuta, Kombo North/Saint Mary, Brikama, West Coast Division, The Gambia",
        "road": null,
        "house_number": null,
        "neighbourhood": null,
        "suburb": "Brusubi Phase 2",
        "city_district": null,
        "city": "Sukuta",
        "state": "West Coast Division",
        "postcode": null,
        "country": "The Gambia",
        "country_code": "gm"
      },
      "address": "544, Darboe Jula Estate Agency, Brusubi Phase 2, Sukuta, Kombo North/Saint Mary, Brikama, West Coast Division, The Gambia"
    },
    {
      "lat": 13.408701933626551,
      "lon": -16.709119202308205,
      "geoinfo": {
        "display_name": "Darboe Jula Estate Agency, Brusubi Phase 2, Sukuta, Kombo North/Saint Mary, Brikama, West Coast Division, The Gambia",
        "road": null,
        "house_number": null,
        "neighbourhood": null,
        "suburb": "Brusubi Phase 2",
        "city_district": null,
        "city": "Sukuta",
        "state": "West Coast Division",
        "postcode": null,
        "country": "The Gambia",
        "country_code": "gm"
      },
      "address": "602, Darboe Jula Estate Agency, Brusubi Phase 2, Sukuta, Kombo North/Saint Mary, Brikama, West Coast Division, The Gambia"
    },
    {
      "lat": 13.410087138647867,
      "lon": -16.70863411871488,
      "geoinfo": {
        "display_name": "Darboe Jula Estate Agency, Brusubi Phase 2, Sukuta, Kombo North/Saint Mary, Brikama, West Coast Division, The Gambia",
        "road": null,
        "house_number": null,
        "neighbourhood": null,
        "suburb": "Brusubi Phase 2",
        "city_district": null,
        "city": "Sukuta",
        "state": "West Coast Division",
        "postcode": null,
        "country": "The Gambia",
        "country_code": "gm"
      },
      "address": "563, Darboe Jula Estate Agency, Brusubi Phase 2, Sukuta, Kombo North/Saint Mary, Brikama, West Coast Division, The Gambia"
    },
    {
      "lat": 13.409129003863221,
      "lon": -16.709662744416832,
      "geoinfo": {
        "display_name": "Darboe Jula Estate Agency, Brusubi Phase 2, Sukuta, Kombo North/Saint Mary, Brikama, West Coast Division, The Gambia",
        "road": null,
        "house_number": null,
        "neighbourhood": null,
        "suburb": "Brusubi Phase 2",
        "city_district": null,
        "city": "Sukuta",
        "state": "West Coast Division",
        "postcode": null,
        "country": "The Gambia",
        "country_code": "gm"
      },
      "address": "301, Darboe Jula Estate Agency, Brusubi Phase 2, Sukuta, Kombo North/Saint Mary, Brikama, West Coast Division, The Gambia"
    },
    {
      "lat": 13.410383631233602,
      "lon": -16.706636976943493,
      "geoinfo": {
        "display_name": "Brusubi Phase 2, Sukuta, Kombo North/Saint Mary, Brikama, West Coast Division, The Gambia",
        "road": null,
        "house_number": null,
        "neighbourhood": null,
        "suburb": "Brusubi Phase 2",
        "city_district": null,
        "city": "Sukuta",
        "state": "West Coast Division",
        "postcode": null,
        "country": "The Gambia",
        "country_code": "gm"
      },
      "address": "Brusubi Phase 2, Sukuta, Kombo North/Saint Mary, Brikama, 81883 West Coast Division, The Gambia"
    },
    {
      "lat": 13.41005642412298,
      "lon": -16.706328302696626,
      "geoinfo": {
        "display_name": "Sukuta, Kombo North/Saint Mary, Brikama, West Coast Division, The Gambia",
        "road": null,
        "house_number": null,
        "neighbourhood": null,
        "suburb": null,
        "city_district": null,
        "city": "Sukuta",
        "state": "West Coast Division",
        "postcode": null,
        "country": "The Gambia",
        "country_code": "gm"
      },
      "address": "631, Sukuta, Kombo North/Saint Mary, Brikama, 51472 West Coast Division, The Gambia"
    },
    {
      "lat": 13.408292533077548,
      "lon": -16.707998116929378,
      "geoinfo": {
        "display_name": "Darboe Jula Estate Agency, Brusubi Phase 2, Sukuta, Kombo North/Saint Mary, Brikama, West Coast Division, The Gambia",
        "road": null,
        "house_number": null,
        "neighbourhood": null,
        "suburb": "Brusubi Phase 2",
        "city_district": null,
        "city": "Sukuta",
        "state": "West Coast Division",
        "postcode": null,
        "country": "The Gambia",
        "country_code": "gm"
      },
      "address": "269, Darboe Jula Estate Agency, Brusubi Phase 2, Sukuta, Kombo North/Saint Mary, Brikama, West Coast Division, The Gambia"
    },
    {
      "lat": 13.410596762901426,
      "lon": -16.706112174181644,
      "geoinfo": {
        "display_name": "Brusubi Phase 2, Sukuta, Kombo North/Saint Mary, Brikama, West Coast Division, The Gambia",
        "road": null,
        "house_number": null,
        "neighbourhood": null,
        "suburb": "Brusubi Phase 2",
        "city_district": null,
        "city": "Sukuta",
        "state": "West Coast Division",
        "postcode": null,
        "country": "The Gambia",
        "country_code": "gm"
      },
      "address": "Brusubi Phase 2, Sukuta, Kombo North/Saint Mary, Brikama, 26969 West Coast Division, The Gambia"
    },
    {
      "lat": 13.4120767896502,
      "lon": -16.70902693383694,
      "geoinfo": {
        "display_name": "Darboe Jula Estate Agency, Brusubi Phase 2, Sukuta, Kombo North/Saint Mary, Brikama, West Coast Division, The Gambia",
        "road": null,
        "house_number": null,
        "neighbourhood": null,
        "suburb": "Brusubi Phase 2",
        "city_district": null,
        "city": "Sukuta",
        "state": "West Coast Division",
        "postcode": null,
        "country": "The Gambia",
        "country_code": "gm"
      },
      "address": "942, Darboe Jula Estate Agency, Brusubi Phase 2, Sukuta, Kombo North/Saint Mary, Brikama, West Coast Division, The Gambia"
    },
    {
      "lat": 13.408623070723609,
      "lon": -16.707644628598334,
      "geoinfo": {
        "display_name": "Sayerjobe Avenue, Brusubi Phase 2, Sukuta, Kombo North/Saint Mary, Brikama, West Coast Division, The Gambia",
        "road": "Sayerjobe Avenue",
        "house_number": null,
        "neighbourhood": null,
        "suburb": "Brusubi Phase 2",
        "city_district": null,
        "city": "Sukuta",
        "state": "West Coast Division",
        "postcode": null,
        "country": "The Gambia",
        "country_code": "gm"
      },
      "address": "302, Sayerjobe Avenue, Brusubi Phase 2, Sukuta, Kombo North/Saint Mary, Brikama, West Coast Division, The Gambia"
    },
    {
      "lat": 13.40902604766681,
      "lon": -16.708577963469406,
      "geoinfo": {
        "display_name": "Darboe Jula Estate Agency, Brusubi Phase 2, Sukuta, Kombo North/Saint Mary, Brikama, West Coast Division, The Gambia",
        "road": null,
        "house_number": null,
        "neighbourhood": null,
        "suburb": "Brusubi Phase 2",
        "city_district": null,
        "city": "Sukuta",
        "state": "West Coast Division",
        "postcode": null,
        "country": "The Gambia",
        "country_code": "gm"
      },
      "address": "383, Darboe Jula Estate Agency, Brusubi Phase 2, Sukuta, Kombo North/Saint Mary, Brikama, West Coast Division, The Gambia"
    }
  ],
  "updated_at": "2025-10-21T23:17:15.212213+00:00",
  "_kind": "geo_samples"
}