{
  "country_code": "GM",
  "country": "Gambia",
  "city": "Welingara",
  "geonameid": 2411700,
  "target_addresses": 50,
  "samples": [
    {
      "lat": 13.398827927421488,
      "lon": -16.68076864055661,
      "geoinfo": {
        "display_name": "Wellingara, Kombo North/Saint Mary, Brikama, West Coast Division, The Gambia",
        "road": null,
        "house_number": null,
        "neighbourhood": null,
        "suburb": null,
        "city_district": null,
        "city": "Wellingara",
        "state": "West Coast Division",
        "postcode": null,
        "country": "The Gambia",
        "country_code": "gm"
      },
      "address": "Welingara, West Coast Division, Gambia"
    },
    {
      "lat": 13.37855878567853,
      "lon": -16.66285872852788,
      "geoinfo": {
        "display_name": "Banjulinding, Kombo North/Saint Mary, Brikama, West Coast Division, The Gambia",
        "road": null,
        "house_number": null,
        "neighbourhood": null,
        "suburb": null,
        "city_district": null,
        "city": "Banjulinding",
        "state": "West Coast Division",
        "postcode": null,
        "country": "The Gambia",
        "country_code": "gm"
      },
      "address": "Welingara, 44187 West Coast Division, Gambia"
    },
    {
      "lat": 13.364008676712228,
      "lon": -16.690943178888354,
      "geoinfo": {
        "display_name": "Old Yundum, Kombo North/Saint Mary, Brikama, West Coast Division, The Gambia",
        "road": null,
        "house_number": null,
        "neighbourhood": null,
        "suburb": null,
        "city_district": null,
        "city": "Old Yundum",
        "state": "West Coast Division",
        "postcode": null,
        "country": "The Gambia",
        "country_code": "gm"
      },
      "address": "Welingara, 75622 West Coast Division, Gambia"
    },
    {
      "lat": 13.380865811884599,
      "lon": -16.634694041234507,
      "geoinfo": {
        "display_name": "Lamin, Kombo North/Saint Mary, Brikama, West Coast Division, The Gambia",
        "road": null,
        "house_number": null,
        "neighbourhood": null,
        "suburb": null,
        "city_district": null,
        "city": "Lamin",
        "state": "West Coast Division",
        "postcode": null,
        "country": "The Gambia",
        "country_code": "gm"
      },
      "address": "Lamin, Kombo North/Saint Mary, Brikama, 20098 West Coast Division, The Gambia"
    },
    {
      "lat": 13.39469052373597,
      "lon": -16.643568004669532,
      "geoinfo": {
        "display_name": "Abuko, Lamin, Kombo North/Saint Mary, Brikama, West Coast Division, The Gambia",
        "road": null,
        "house_number": null,
        "neighbourhood": null,
        "suburb": null,
        "city_district": null,
        "city": "Lamin",
        "state": "West Coast Division",
        "postcode": null,
        "country": "The Gambia",
        "country_code": "gm"
      },
      "address": "192, Abuko, Lamin, Kombo North/Saint Mary, Brikama, 25172 West Coast Division, The Gambia"
    },
    {
      "lat": 13.411113661143112,
      "lon": -16.65535050749893,
      "geoinfo": {
        "display_name": "Faji Kunda, Abuko, Kombo North/Saint Mary, Brikama, West Coast Division, The Gambia",
        "road": null,
        "house_number": null,
        "neighbourhood": null,
        "suburb": null,
        "city_district": null,
        "city": "Abuko",
        "state": "West Coast Division",
        "postcode": null,
        "country": "The Gambia",
        "country_code": "gm"
      },
      "address": "237, Faji Kunda, Abuko, Kombo North/Saint Mary, Brikama, 24200 West Coast Division, The Gambia"
    },
    {
      "lat": 13.36935268231512,
      "lon": -16.6542846876001,
      "geoinfo": {
        "display_name": "Banjulinding, Kombo North/Saint Mary, Brikama, West Coast Division, The Gambia",
        "road": null,
        "house_number": null,
        "neighbourhood": null,
        "suburb": null,
        "city_district": null,
        "city": "Banjulinding",
        "state": "West Coast Division",
        "postcode": null,
        "country": "The Gambia",
        "country_code": "gm"
      },
      "address": "748, Banjulinding, Kombo North/Saint Mary, Brikama, 10122 West Coast Division, The Gambia"
    },
    {
      "lat": 13.387343448750855,
      "lon": -16.699363607716293,
      "geoinfo": {
        "display_name": "Old Yundum, Kombo North/Saint Mary, Brikama, West Coast Division, The Gambia",
        "road": null,
        "house_number": null,
        "neighbourhood": null,
        "suburb": null,
        "city_district": null,
        "city": "Old Yundum",
        "state": "West Coast Division",
        "postcode": null,
        "country": "The Gambia",
        "country_code": "gm"
      },
      "address": "197, Old Yundum, Kombo North/Saint Mary, Brikama, 26455 West Coast Division, The Gambia"
    },
    {
      "lat": 13.39062143164386,
      "lon": -16.71396985544519,
      "geoinfo": {
        "display_name": "Sukuta, Kombo North/Saint Mary, Brikama, West Coast Division, The Gambia",
        "road": null,
        "house_number": null,
        "neighbourhood": null,
        "suburb": null,
        "city_district": null,
        "city": "Sukuta",
        "state": "West Coast Division",
        "postcode": null,
        "country": "The Gambia",
        "country_code": "gm"
      },
      "address": "722, Sukuta, Kombo North/Saint Mary, Brikama, 44404 West Coast Division, The Gambia"
    },
    {
      "lat": 13.425377013792774,
      "lon": -16.634827882050306,
      "geoinfo": {
        "display_name": "Ebo Town, New Jeshwang and Ebo Town, Serrekunda, Kanifing Municipal Council, The Gambia",
        "road": null,
        "house_number": null,
        "neighbourhood": null,
        "suburb": "Ebo Town",
        "city_district": null,
        "city": "Serrekunda",
        "state": "Kanifing Municipal Council",
        "postcode": null,
        "country": "The Gambia",
        "country_code": "gm"
      },
      "address": "622, Ebo Town, New Jeshwang and Ebo Town, Serrekunda, 66340 Kanifing Municipal Council, The Gambia"
    },
    {
      "lat": 13.374894679733918,
      "lon": -16.708816974167267,
      "geoinfo": {
        "display_name": "Jabang, Kombo North/Saint Mary, Brikama, West Coast Division, The Gambia",
        "road": null,
        "house_number": null,
        "neighbourhood": null,
        "suburb": null,
        "city_district": null,
        "city": "Jabang",
        "state": "West Coast Division",
        "postcode": null,
        "country": "The Gambia",
        "country_code": "gm"
      },
      "address": "739, Jabang, Kombo North/Saint Mary, Brikama, 53849 West Coast Division, The Gambia"
    },
    {
      "lat": 13.393739650547063,
      "lon": -16.68766546184887,
      "geoinfo": {
        "display_name": "Wellingara, Kombo North/Saint Mary, Brikama, West Coast Division, The Gambia",
        "road": null,
        "house_number": null,
        "neighbourhood": null,
        "suburb": null,
        "city_district": null,
        "city": "Wellingara",
        "state": "West Coast Division",
        "postcode": null,
        "country": "The Gambia",
        "country_code": "gm"
      },
      "address": "201, Wellingara, Kombo North/Saint Mary, Brikama, 71495 West Coast Division, The Gambia"
    },
    {
      "lat": 13.434349449425751,
      "lon": -16.690929430292776,
      "geoinfo": {
        "display_name": "Kotu Highway, Manjai Kunda, Bakoteh, Serrekunda, Kanifing Municipal Council, The Gambia",
        "road": "Kotu Highway",
        "house_number": null,
        "neighbourhood": null,
        "suburb": "Manjai Kunda",
        "city_district": null,
        "city": "Serrekunda",
        "state": "Kanifing Municipal Council",
        "postcode": null,
        "country": "The Gambia",
        "country_code": "gm"
      },
      "address": "758, Kotu Highway, Manjai Kunda, Bakoteh, Serrekunda, 50266 Kanifing Municipal Council, The Gambia"
    },
    {
      "lat": 13.39642986507877,
      "lon": -16.671827215457043,
      "geoinfo": {
        "display_name": "Wellingara, Kombo North/Saint Mary, Brikama, West Coast Division, The Gambia",
        "road": null,
        "house_number": null,
        "neighbourhood": null,
        "suburb": null,
        "city_district": null,
        "city": "Wellingara",
        "state": "West Coast Division",
        "postcode": null,
        "country": "The Gambia",
        "country_code": "gm"
      },
      "address": "002, Wellingara, Kombo North/Saint Mary, Brikama, 46253 West Coast Division, The Gambia"
    },
    {
      "lat": 13.39378466468186,
      "lon": -16.661519386576316,
      "geoinfo": {
        "display_name": "Abuko Nature Reserve Trail, Abuko, Lamin, Kombo North/Saint Mary, Brikama, West Coast Division, The Gambia",
        "road": "Abuko Nature Reserve Trail",
        "house_number": null,
        "neighbourhood": null,
        "suburb": null,
        "city_district": null,
        "city": "Lamin",
        "state": "West Coast Division",
        "postcode": null,
        "country": "The Gambia",
        "country_code": "gm"
      },
      "address": "593, Abuko Nature Reserve Trail, Abuko, Lamin, Kombo North/Saint Mary, Brikama, 21824 West Coast Division, The Gambia"
    },
    {
      "lat": 13.424783639198866,
      "lon": -16.71125738744658,
      "geoinfo": {
        "display_name": "Kerr Serign, Sukuta, Kombo North/Saint Mary, Brikama, West Coast Division, The Gambia",
        "road": null,
        "house_number": null,
        "neighbourhood": null,
        "suburb": "Kerr Serign",
        "city_district": null,
        "city": "Sukuta",
        "state": "West Coast Division",
        "postcode": null,
        "country": "The Gambia",
        "country_code": "gm"
      },
      "address": "476, Kerr Serign, Sukuta, Kombo North/Saint Mary, Brikama, 68268 West Coast Division, The Gambia"
    },
    {
      "lat": 13.403956421630616,
      "lon": -16.675883361228504,
      "geoinfo": {
        "display_name": "Wellingara, Kombo North/Saint Mary, Brikama, West Coast Division, The Gambia",
        "road": null,
        "house_number": null,
        "neighbourhood": null,
        "suburb": null,
        "city_district": null,
        "city": "Wellingara",
        "state": "West Coast Division",
        "postcode": null,
        "country": "The Gambia",
        "country_code": "gm"
      },
      "address": "919, Wellingara, Kombo North/Saint Mary, Brikama, 52103 West Coast Division, The Gambia"
    },
    {
      "lat": 13.40231370927956,
      "lon": -16.672151784380755,
      "geoinfo": {
        "display_name": "Wellingara, Kombo North/Saint Mary, Brikama, West Coast Division, The Gambia",
        "road": null,
        "house_number": null,
        "neighbourhood": null,
        "suburb": null,
        "city_district": null,
        "city": "Wellingara",
        "state": "West Coast Division",
        "postcode": null,
        "country": "The Gambia",
        "country_code": "gm"
      },
      "address": "659, Wellingara, Kombo North/Saint Mary, Brikama, 12147 West Coast Division, The Gambia"
    },
    {
      "lat": 13.4051559669367,
      "lon": -16.67567632006652,
      "geoinfo": {
        "display_name": "Wellingara, Kombo North/Saint Mary, Brikama, West Coast Division, The Gambia",
        "road": null,
        "house_number": null,
        "neighbourhood": null,
        "suburb": null,
        "city_district": null,
        "city": "Wellingara",
        "state": "West Coast Division",
        "postcode": null,
        "country": "The Gambia",
        "country_code": "gm"
      },
      "address": "904, Wellingara, Kombo North/Saint Mary, Brikama, 85304 West Coast Division, The Gambia"
    },
    {
      "lat": 13.402207321097821,
      "lon": -16.67264197837451,
      "geoinfo": {
        "display_name": "Wellingara, Kombo North/Saint Mary, Brikama, West Coast Division, The Gambia",
        "road": null,
        "house_number": null,
        "neighbourhood": null,
        "suburb": null,
        "city_district": null,
        "city": "Wellingara",
        "state": "West Coast Division",
        "postcode": null,
        "country": "The Gambia",
        "country_code": "gm"
      },
      "address": "439, Wellingara, Kombo North/Saint Mary, Brikama, 00860 West Coast Division, The Gambia"
    },
    {
      "lat": 13.402700433816666,
      "lon": -16.674124854698736,
      "geoinfo": {
        "display_name": "Wellingara, Kombo North/Saint Mary, Brikama, West Coast Division, The Gambia",
        "road": null,
        "house_number": null,
        "neighbourhood": null,
        "suburb": null,
        "city_district": null,
        "city": "Wellingara",
        "state": "West Coast Division",
        "postcode": null,
        "country": "The Gambia",
        "country_code": "gm"
      },
      "address": "040, Wellingara, Kombo North/Saint Mary, Brikama, 62839 West Coast Division, The Gambia"
    },
    {
      "lat": 13.402271064008406,
      "lon": -16.67252675820682,
      "geoinfo": {
        "display_name": "Wellingara, Kombo North/Saint Mary, Brikama, West Coast Division, The Gambia",
        "road": null,
        "house_number": null,
        "neighbourhood": null,
        "suburb": null,
        "city_district": null,
        "city": "Wellingara",
        "state": "West Coast Division",
        "postcode": null,
        "country": "The Gambia",
        "country_code": "gm"
      },
      "address": "530, Wellingara, Kombo North/Saint Mary, Brikama, 15856 West Coast Division, The Gambia"
    },
    {
      "lat": 13.402726844722803,
      "lon": -16.67258997556481,
      "geoinfo": {
        "display_name": "Wellingara, Kombo North/Saint Mary, Brikama, West Coast Division, The Gambia",
        "road": null,
        "house_number": null,
        "neighbourhood": null,
        "suburb": null,
        "city_district": null,
        "city": "Wellingara",
        "state": "West Coast Division",
        "postcode": null,
        "country": "The Gambia",
        "country_code": "gm"
      },
      "address": "533, Wellingara, Kombo North/Saint Mary, Brikama, 62855 West Coast Division, The Gambia"
    },
    {
      "lat": 13.404960996171091,
      "lon": -16.672918846595216,
      "geoinfo": {
        "display_name": "Wellingara, Kombo North/Saint Mary, Brikama, West Coast Division, The Gambia",
        "road": null,
        "house_number": null,
        "neighbourhood": null,
        "suburb": null,
        "city_district": null,
        "city": "Wellingara",
        "state": "West Coast Division",
        "postcode": null,
        "country": "The Gambia",
        "country_code": "gm"
      },
      "address": "658, Wellingara, Kombo North/Saint Mary, Brikama, 20669 West Coast Division, The Gambia"
    },
    {
      "lat": 13.402043307301922,
      "lon": -16.675581007292074,
      "geoinfo": {
        "display_name": "Wellingara, Kombo North/Saint Mary, Brikama, West Coast Division, The Gambia",
        "road": null,
        "house_number": null,
        "neighbourhood": null,
        "suburb": null,
        "city_district": null,
        "city": "Wellingara",
        "state": "West Coast Division",
        "postcode": null,
        "country": "The Gambia",
        "country_code": "gm"
      },
      "address": "382, Wellingara, Kombo North/Saint Mary, Brikama, 56724 West Coast Division, The Gambia"
    },
    {
      "lat": 13.403045290668627,
      "lon": -16.675283645076085,
      "geoinfo": {
        "display_name": "Wellingara, Kombo North/Saint Mary, Brikama, West Coast Division, The Gambia",
        "road": null,
        "house_number": null,
        "neighbourhood": null,
        "suburb": null,
        "city_district": null,
        "city": "Wellingara",
        "state": "West Coast Division",
        "postcode": null,
        "country": "The Gambia",
        "country_code": "gm"
      },
      "address": "963, Wellingara, Kombo North/Saint Mary, Brikama, 53053 West Coast Division, The Gambia"
    },
    {
      "lat": 13.403208646361653,
      "lon": -16.676326315249664,
      "geoinfo": {
        "display_name": "Wellingara, Kombo North/Saint Mary, Brikama, West Coast Division, The Gambia",
        "road": null,
        "house_number": null,
        "neighbourhood": null,
        "suburb": null,
        "city_district": null,
        "city": "Wellingara",
        "state": "West Coast Division",
        "postcode": null,
        "country": "The Gambia",
        "country_code": "gm"
      },
      "address": "913, Wellingara, Kombo North/Saint Mary, Brikama, 96569 West Coast Division, The Gambia"
    },
    {
      "lat": 13.40323635029234,
      "lon": -16.673631457139244,
      "geoinfo": {
        "display_name": "Wellingara, Kombo North/Saint Mary, Brikama, West Coast Division, The Gambia",
        "road": null,
        "house_number": null,
        "neighbourhood": null,
        "suburb": null,
        "city_district": null,
        "city": "Wellingara",
        "state": "West Coast Division",
        "postcode": null,
        "country": "The Gambia",
        "country_code": "gm"
      },
      "address": "335, Wellingara, Kombo North/Saint Mary, Brikama, 26960 West Coast Division, The Gambia"
    },
    {
      "lat": 13.403057982858405,
      "lon": -16.675504040046263,
      "geoinfo": {
        "display_name": "Wellingara, Kombo North/Saint Mary, Brikama, West Coast Division, The Gambia",
        "road": null,
        "house_number": null,
        "neighbourhood": null,
        "suburb": null,
        "city_district": null,
        "city": "Wellingara",
        "state": "West Coast Division",
        "postcode": null,
        "country": "The Gambia",
        "country_code": "gm"
      },
      "address": "472, Wellingara, Kombo North/Saint Mary, Brikama, 57743 West Coast Division, The Gambia"
    },
    {
      "lat": 13.404710958315496,
      "lon": -16.67159385235558,
      "geoinfo": {
        "display_name": "Wellingara, Kombo North/Saint Mary, Brikama, West Coast Division, The Gambia",
        "road": null,
        "house_number": null,
        "neighbourhood": null,
        "suburb": null,
        "city_district": null,
        "city": "Wellingara",
        "state": "West Coast Division",
        "postcode": null,
        "country": "The Gambia",
        "country_code": "gm"
      },
      "address": "264, Wellingara, Kombo North/Saint Mary, Brikama, 75530 West Coast Division, The Gambia"
    },
    {
      "lat": 13.402955528700652,
      "lon": -16.674132743460795,
      "geoinfo": {
        "display_name": "Wellingara, Kombo North/Saint Mary, Brikama, West Coast Division, The Gambia",
        "road": null,
        "house_number": null,
        "neighbourhood": null,
        "suburb": null,
        "city_district": null,
        "city": "Wellingara",
        "state": "West Coast Division",
        "postcode": null,
        "country": "The Gambia",
        "country_code": "gm"
      },
      "address": "667, Wellingara, Kombo North/Saint Mary, Brikama, 04088 West Coast Division, The Gambia"
    },
    {
      "lat": 13.402518492623292,
      "lon": -16.675951489850007,
      "geoinfo": {
        "display_name": "Wellingara, Kombo North/Saint Mary, Brikama, West Coast Division, The Gambia",
        "road": null,
        "house_number": null,
        "neighbourhood": null,
        "suburb": null,
        "city_district": null,
        "city": "Wellingara",
        "state": "West Coast Division",
        "postcode": null,
        "country": "The Gambia",
        "country_code": "gm"
      },
      "address": "644, Wellingara, Kombo North/Saint Mary, Brikama, 02590 West Coast Division, The Gambia"
    },
    {
      "lat": 13.404918338421675,
      "lon": -16.672732871883134,
      "geoinfo": {
        "display_name": "Wellingara, Kombo North/Saint Mary, Brikama, West Coast Division, The Gambia",
        "road": null,
        "house_number": null,
        "neighbourhood": null,
        "suburb": null,
        "city_district": null,
        "city": "Wellingara",
        "state": "West Coast Division",
        "postcode": null,
        "country": "The Gambia",
        "country_code": "gm"
      },
      "address": "792, Wellingara, Kombo North/Saint Mary, Brikama, 90769 West Coast Division, The Gambia"
    },
    {
      "lat": 13.402567474317445,
      "lon": -16.67272430148031,
      "geoinfo": {
        "display_name": "Wellingara, Kombo North/Saint Mary, Brikama, West Coast Division, The Gambia",
        "road": null,
        "house_number": null,
        "neighbourhood": null,
        "suburb": null,
        "city_district": null,
        "city": "Wellingara",
        "state": "West Coast Division",
        "postcode": null,
        "country": "The Gambia",
        "country_code": "gm"
      },
      "address": "224, Wellingara, Kombo North/Saint Mary, Brikama, 57804 West Coast Division, The Gambia"
    },
    {
      "lat": 13.405112859767087,
      "lon": -16.671635844112693,
      "geoinfo": {
        "display_name": "Wellingara, Kombo North/Saint Mary, Brikama, West Coast Division, The Gambia",
        "road": null,
        "house_number": null,
        "neighbourhood": null,
        "suburb": null,
        "city_district": null,
        "city": "Wellingara",
        "state": "West Coast Division",
        "postcode": null,
        "country": "The Gambia",
        "country_code": "gm"
      },
      "address": "339, Wellingara, Kombo North/Saint Mary, Brikama, 90832 West Coast Division, The Gambia"
    },
    {
      "lat": 13.405286166149658,
      "lon": -16.674694866027984,
      "geoinfo": {
        "display_name": "Wellingara, Kombo North/Saint Mary, Brikama, West Coast Division, The Gambia",
        "road": null,
        "house_number": null,
        "neighbourhood": null,
        "suburb": null,
        "city_district": null,
        "city": "Wellingara",
        "state": "West Coast Division",
        "postcode": null,
        "country": "The Gambia",
        "country_code": "gm"
      },
      "address": "205, Wellingara, Kombo North/Saint Mary, Brikama, 06764 West Coast Division, The Gambia"
    },
    {
      "lat": 13.402563141156298,
      "lon": -16.672465159686112,
      "geoinfo": {
        "display_name": "Wellingara, Kombo North/Saint Mary, Brikama, West Coast Division, The Gambia",
        "road": null,
        "house_number": null,
        "neighbourhood": null,
        "suburb": null,
        "city_district": null,
        "city": "Wellingara",
        "state": "West Coast Division",
        "postcode": null,
        "country": "The Gambia",
        "country_code": "gm"
      },
      "address": "963, Wellingara, Kombo North/Saint Mary, Brikama, 49367 West Coast Division, The Gambia"
    },
    {
      "lat": 13.401327607496754,
      "lon": -16.67362770635594,
      "geoinfo": {
        "display_name": "Wellingara, Kombo North/Saint Mary, Brikama, West Coast Division, The Gambia",
        "road": null,
        "house_number": null,
        "neighbourhood": null,
        "suburb": null,
        "city_district": null,
        "city": "Wellingara",
        "state": "West Coast Division",
        "postcode": null,
        "country": "The Gambia",
        "country_code": "gm"
      },
      "address": "024, Wellingara, Kombo North/Saint Mary, Brikama, 63731 West Coast Division, The Gambia"
    },
    {
      "lat": 13.405140496472573,
      "lon": -16.674315339089873,
      "geoinfo": {
        "display_name": "Wellingara, Kombo North/Saint Mary, Brikama, West Coast Division, The Gambia",
        "road": null,
        "house_number": null,
        "neighbourhood": null,
        "suburb": null,
        "city_district": null,
        "city": "Wellingara",
        "state": "West Coast Division",
        "postcode": null,
        "country": "The Gambia",
        "country_code": "gm"
      },
      "address": "653, Wellingara, Kombo North/Saint Mary, Brikama, 97400 West Coast Division, The Gambia"
    },
    {
      "lat": 13.404373297494443,
      "lon": -16.67511975690422,
      "geoinfo": {
        "display_name": "Wellingara, Kombo North/Saint Mary, Brikama, West Coast Division, The Gambia",
        "road": null,
        "house_number": null,
        "neighbourhood": null,
        "suburb": null,
        "city_district": null,
        "city": "Wellingara",
        "state": "West Coast Division",
        "postcode": null,
        "country": "The Gambia",
        "country_code": "gm"
      },
      "address": "284, Wellingara, Kombo North/Saint Mary, Brikama, 07182 West Coast Division, The Gambia"
    },
    {
      "lat": 13.406267679610565,
      "lon": -16.673358366531517,
      "geoinfo": {
        "display_name": "Wellingara, Kombo North/Saint Mary, Brikama, West Coast Division, The Gambia",
        "road": null,
        "house_number": null,
        "neighbourhood": null,
        "suburb": null,
        "city_district": null,
        "city": "Wellingara",
        "state": "West Coast Division",
        "postcode": null,
        "country": "The Gambia",
        "country_code": "gm"
      },
      "address": "165, Wellingara, Kombo North/Saint Mary, Brikama, 67207 West Coast Division, The Gambia"
    },
    {
      "lat": 13.404386019421722,
      "lon": -16.67534013672716,
      "geoinfo": {
        "display_name": "Wellingara, Kombo North/Saint Mary, Brikama, West Coast Division, The Gambia",
        "road": null,
        "house_number": null,
        "neighbourhood": null,
        "suburb": null,
        "city_district": null,
        "city": "Wellingara",
        "state": "West Coast Division",
        "postcode": null,
        "country": "The Gambia",
        "country_code": "gm"
      },
      "address": "775, Wellingara, Kombo North/Saint Mary, Brikama, 05492 West Coast Division, The Gambia"
    },
    {
      "lat": 13.402174602032607,
      "lon": -16.67251836383635,
      "geoinfo": {
        "display_name": "Wellingara, Kombo North/Saint Mary, Brikama, West Coast Division, The Gambia",
        "road": null,
        "house_number": null,
        "neighbourhood": null,
        "suburb": null,
        "city_district": null,
        "city": "Wellingara",
        "state": "West Coast Division",
        "postcode": null,
        "country": "The Gambia",
        "country_code": "gm"
      },
      "address": "567, Wellingara, Kombo North/Saint Mary, Brikama, 34673 West Coast Division, The Gambia"
    },
    {
      "lat": 13.405829252366715,
      "lon": -16.672909619027557,
      "geoinfo": {
        "display_name": "Wellingara, Kombo North/Saint Mary, Brikama, West Coast Division, The Gambia",
        "road": null,
        "house_number": null,
        "neighbourhood": null,
        "suburb": null,
        "city_district": null,
        "city": "Wellingara",
        "state": "West Coast Division",
        "postcode": null,
        "country": "The Gambia",
        "country_code": "gm"
      },
      "address": "528, Wellingara, Kombo North/Saint Mary, Brikama, 76113 West Coast Division, The Gambia"
    },
    {
      "lat": 13.403926348629815,
      "lon": -16.673788524701806,
      "geoinfo": {
        "display_name": "Wellingara, Kombo North/Saint Mary, Brikama, West Coast Division, The Gambia",
        "road": null,
        "house_number": null,
        "neighbourhood": null,
        "suburb": null,
        "city_district": null,
        "city": "Wellingara",
        "state": "West Coast Division",
        "postcode": null,
        "country": "The Gambia",
        "country_code": "gm"
      },
      "address": "643, Wellingara, Kombo North/Saint Mary, Brikama, 27585 West Coast Division, The Gambia"
    },
    {
      "lat": 13.402487183234298,
      "lon": -16.673617542957214,
      "geoinfo": {
        "display_name": "Wellingara, Kombo North/Saint Mary, Brikama, West Coast Division, The Gambia",
        "road": null,
        "house_number": null,
        "neighbourhood": null,
        "suburb": null,
        "city_district": null,
        "city": "Wellingara",
        "state": "West Coast Division",
        "postcode": null,
        "country": "The Gambia",
        "country_code": "gm"
      },
      "address": "447, Wellingara, Kombo North/Saint Mary, Brikama, 47953 West Coast Division, The Gambia"
    },
    {
      "lat": 13.404300680478663,
      "lon": -16.674493065830227,
      "geoinfo": {
        "display_name": "Wellingara, Kombo North/Saint Mary, Brikama, West Coast Division, The Gambia",
        "road": null,
        "house_number": null,
        "neighbourhood": null,
        "suburb": null,
        "city_district": null,
        "city": "Wellingara",
        "state": "West Coast Division",
        "postcode": null,
        "country": "The Gambia",
        "country_code": "gm"
      },
      "address": "056, Wellingara, Kombo North/Saint Mary, Brikama, 93975 West Coast Division, The Gambia"
    },
    {
      "lat": 13.40623970413826,
      "lon": -16.673188622408112,
      "geoinfo": {
        "display_name": "Wellingara, Kombo North/Saint Mary, Brikama, West Coast Division, The Gambia",
        "road": null,
        "house_number": null,
        "neighbourhood": null,
        "suburb": null,
        "city_district": null,
        "city": "Wellingara",
        "state": "West Coast Division",
        "postcode": null,
        "country": "The Gambia",
        "country_code": "gm"
      },
      "address": "863, Wellingara, Kombo North/Saint Mary, Brikama, 59428 West Coast Division, The Gambia"
    },
    {
      "lat": 13.40421501093,
      "lon": -16.67095069162575,
      "geoinfo": {
        "display_name": "Latrikunda Sabiji, Wellingara, Kombo North/Saint Mary, Brikama, West Coast Division, The Gambia",
        "road": null,
        "house_number": null,
        "neighbourhood": null,
        "suburb": null,
        "city_district": null,
        "city": "Wellingara",
        "state": "West Coast Division",
        "postcode": null,
        "country": "The Gambia",
        "country_code": "gm"
      },
      "address": "903, Latrikunda Sabiji, Wellingara, Kombo North/Saint Mary, Brikama, 80632 West Coast Division, The Gambia"
    },
    {
      "lat": 13.40382476158149,
      "lon": -16.67334866786794,
      "geoinfo": {
        "display_name": "Latrikunda Sabiji, Wellingara, Kombo North/Saint Mary, Brikama, West Coast Division, The Gambia",
        "road": null,
        "house_number": null,
        "neighbourhood": null,
        "suburb": null,
        "city_district": null,
        "city": "Wellingara",
        "state": "West Coast Division",
        "postcode": null,
        "country": "The Gambia",
        "country_code": "gm"
      },
      "address": "989, Latrikunda Sabiji, Wellingara, Kombo North/Saint Mary, Brikama, 40952 West Coast Division, The Gambia"
    },
    {
      "lat": 13.404531038482293,
      "lon": -16.671936190204672,
      "geoinfo": {
        "display_name": "Wellingara, Kombo North/Saint Mary, Brikama, West Coast Division, The Gambia",
        "road": null,
        "house_number": null,
        "neighbourhood": null,
        "suburb": null,
        "city_district": null,
        "city": "Wellingara",
        "state": "West Coast Division",
        "postcode": null,
        "country": "The Gambia",
        "country_code": "gm"
      },
      "address": "495, Wellingara, Kombo North/Saint Mary, Brikama, 02348 West Coast Division, The Gambia"
    },
    {
      "lat": 13.402881379666463,
      "lon": -16.673689833506437,
      "geoinfo": {
        "display_name": "Wellingara, Kombo North/Saint Mary, Brikama, West Coast Division, The Gambia",
        "road": null,
        "house_number": null,
        "neighbourhood": null,
        "suburb": null,
        "city_district": null,
        "city": "Wellingara",
        "state": "West Coast Division",
        "postcode": null,
        "country": "The Gambia",
        "country_code": "gm"
      },
      "address": "826, Wellingara, Kombo North/Saint Mary, Brikama, 63813 West Coast Division, The Gambia"
    },
    {
      "lat": 13.404780802414113,
      "lon": -16.671268156205848,
      "geoinfo": {
        "display_name": "Wellingara, Kombo North/Saint Mary, Brikama, West Coast Division, The Gambia",
        "road": null,
        "house_number": null,
        "neighbourhood": null,
        "suburb": null,
        "city_district": null,
        "city": "Wellingara",
        "state": "West Coast Division",
        "postcode": null,
        "country": "The Gambia",
        "country_code": "gm"
      },
      "address": "458, Wellingara, Kombo North/Saint Mary, Brikama, 66948 West Coast Division, The Gambia"
    },
    {
      "lat": 13.40370054982922,
      "lon": -16.675155001933305,
      "geoinfo": {
        "display_name": "Wellingara, Kombo North/Saint Mary, Brikama, West Coast Division, The Gambia",
        "road": null,
        "house_number": null,
        "neighbourhood": null,
        "suburb": null,
        "city_district": null,
        "city": "Wellingara",
        "state": "West Coast Division",
        "postcode": null,
        "country": "The Gambia",
        "country_code": "gm"
      },
      "address": "393, Wellingara, Kombo North/Saint Mary, Brikama, 03780 West Coast Division, The Gambia"
    }
  ],
  "updated_at": "2025-10-21T23:14:00.351571+00:00",
  "_kind": "geo_samples"
}