{
  "country_code": "JO",
  "country": "Jordan",
  "city": "Al Jubayhah",
  "geonameid": 250637,
  "target_addresses": 3,
  "samples": [
    {
      "lat": 31.999112620797984,
      "lon": 35.93431241495369,
      "geoinfo": {
        "display_name": "3, Umm Al-Saffaa’ Street, منطقة طارق, Marka Sub-District, Marka District, Amman, 11123, Jordan",
        "road": "Umm Al-Saffaa’ Street",
        "house_number": "3",
        "neighbourhood": null,
        "suburb": "منطقة طارق",
        "city_district": null,
        "city": null,
        "state": "Amman",
        "postcode": "11123",
        "country": "Jordan",
        "country_code": "jo"
      },
      "address": "3, Umm Al-Saffaa’ Street, منطقة طارق, Marka Sub-District, Marka District, Amman, 11123, Jordan"
    },
    {
      "lat": 31.99879372883669,
      "lon": 35.851237096407026,
      "geoinfo": {
        "display_name": "Issa Al-Subay'i Street, الخالدين, منطقة تلاع العلي, Sweileh, Al-Jami'ah Sub-District, Al-Jami'ah District, Amman, 11196, Jordan",
        "road": "Issa Al-Subay'i Street",
        "house_number": null,
        "neighbourhood": "الخالدين",
        "suburb": "منطقة تلاع العلي",
        "city_district": null,
        "city": "Sweileh",
        "state": "Amman",
        "postcode": "11196",
        "country": "Jordan",
        "country_code": "jo"
      },
      "address": "453, Issa Al-Subay'i Street, الخالدين, منطقة تلاع العلي, Sweileh, Al-Jami'ah Sub-District, Al-Jami'ah District, Amman, 11196, Jordan"
    },
    {
      "lat": 31.998927183127712,
      "lon": 35.91290713926492,
      "geoinfo": {
        "display_name": "11, Ibn Al-Saffar Street, اكرم زلوم, Al-Jubaiha, Al-Jami'ah Sub-District, Al-Jami'ah District, Amman, 11192, Jordan",
        "road": "Ibn Al-Saffar Street",
        "house_number": "11",
        "neighbourhood": null,
        "suburb": null,
        "city_district": null,
        "city": "Al-Jubaiha",
        "state": "Amman",
        "postcode": "11192",
        "country": "Jordan",
        "country_code": "jo"
      },
      "address": "11, Ibn Al-Saffar Street, اكرم زلوم, Al-Jubaiha, Al-Jami'ah Sub-District, Al-Jami'ah District, Amman, 11192, Jordan"
    }
  ],
  "updated_at": "2025-10-19T07:15:16.907807+00:00",
  "_kind": "geo_samples"
}