{
  "country_code": "JO",
  "country": "Jordan",
  "city": "Irbid",
  "geonameid": 248946,
  "target_addresses": 3,
  "samples": [
    {
      "lat": 32.57981653545199,
      "lon": 35.868099090561415,
      "geoinfo": {
        "display_name": "حي البياضة المنطقة الشرقية, Irbid, حوارة, Irbid Qasabah District, Irbid, 21124, Jordan",
        "road": null,
        "house_number": null,
        "neighbourhood": "حي البياضة المنطقة الشرقية",
        "suburb": null,
        "city_district": null,
        "city": "Irbid",
        "state": "Irbid",
        "postcode": "21124",
        "country": "Jordan",
        "country_code": "jo"
      },
      "address": "حي البياضة المنطقة الشرقية, Irbid, Irbid, Jordan"
    },
    {
      "lat": 32.52276300027118,
      "lon": 35.86851002798663,
      "geoinfo": {
        "display_name": "Aydoun, Bani Obeid Sub-District, Bani Obeid District, Irbid, 21166, Jordan",
        "road": null,
        "house_number": null,
        "neighbourhood": null,
        "suburb": null,
        "city_district": null,
        "city": "Aydoun",
        "state": "Irbid",
        "postcode": "21166",
        "country": "Jordan",
        "country_code": "jo"
      },
      "address": "Irbid, Irbid, Jordan"
    },
    {
      "lat": 32.56426838137834,
      "lon": 35.883296215423165,
      "geoinfo": {
        "display_name": "حي الروضة, Irbid, حوارة, Irbid Qasabah District, Irbid, 21141, Jordan",
        "road": null,
        "house_number": null,
        "neighbourhood": "حي الروضة",
        "suburb": null,
        "city_district": null,
        "city": "Irbid",
        "state": "Irbid",
        "postcode": "21141",
        "country": "Jordan",
        "country_code": "jo"
      },
      "address": "حي الروضة, Irbid, Irbid, Jordan"
    },
    {
      "lat": 32.59264686527209,
      "lon": 35.83298716458919,
      "geoinfo": {
        "display_name": "Bayt Ras, حوارة, Irbid Qasabah District, Irbid, 21124, Jordan",
        "road": null,
        "house_number": null,
        "neighbourhood": null,
        "suburb": null,
        "city_district": null,
        "city": "Bayt Ras",
        "state": "Irbid",
        "postcode": "21124",
        "country": "Jordan",
        "country_code": "jo"
      },
      "address": "995, Bayt Ras, حوارة, Irbid Qasabah District, Irbid, 21124, Jordan"
    },
    {
      "lat": 32.53112508166964,
      "lon": 35.81410548076927,
      "geoinfo": {
        "display_name": "Irbid, حوارة, Irbid Qasabah District, Irbid, 21162, Jordan",
        "road": null,
        "house_number": null,
        "neighbourhood": null,
        "suburb": null,
        "city_district": null,
        "city": "Irbid",
        "state": "Irbid",
        "postcode": "21162",
        "country": "Jordan",
        "country_code": "jo"
      },
      "address": "947, Irbid, حوارة, Irbid Qasabah District, Irbid, 21162, Jordan"
    },
    {
      "lat": 32.55096431494541,
      "lon": 35.87127113413922,
      "geoinfo": {
        "display_name": "حي الزهراء, Irbid, حوارة, Irbid Qasabah District, Irbid, 21166, Jordan",
        "road": null,
        "house_number": null,
        "neighbourhood": "حي الزهراء",
        "suburb": null,
        "city_district": null,
        "city": "Irbid",
        "state": "Irbid",
        "postcode": "21166",
        "country": "Jordan",
        "country_code": "jo"
      },
      "address": "963, حي الزهراء, Irbid, حوارة, Irbid Qasabah District, Irbid, 21166, Jordan"
    }
  ],
  "updated_at": "2025-10-19T05:24:33.455966+00:00",
  "_kind": "geo_samples"
}