{
  "country_code": "JO",
  "country": "Jordan",
  "city": "Kurayyimah",
  "geonameid": 248414,
  "target_addresses": 3,
  "samples": [
    {
      "lat": 32.30292818504078,
      "lon": 35.577371697843304,
      "geoinfo": {
        "display_name": "ابو سيدو, Aghwar Janoobiyah Sub-District, Aghwar Shamaliyah District, Irbid, Jordan",
        "road": null,
        "house_number": null,
        "neighbourhood": null,
        "suburb": null,
        "city_district": null,
        "city": "ابو سيدو",
        "state": "Irbid",
        "postcode": null,
        "country": "Jordan",
        "country_code": "jo"
      },
      "address": "Kurayyimah, Irbid, Jordan"
    },
    {
      "lat": 32.30272400664311,
      "lon": 35.562151692040224,
      "geoinfo": {
        "display_name": "Ayn Nubayrah, 65, ابو سيدو, Aghwar Janoobiyah Sub-District, Aghwar Shamaliyah District, Irbid, Jordan",
        "road": "65",
        "house_number": null,
        "neighbourhood": null,
        "suburb": null,
        "city_district": null,
        "city": "ابو سيدو",
        "state": "Irbid",
        "postcode": null,
        "country": "Jordan",
        "country_code": "jo"
      },
      "address": "65, Kurayyimah, 43951 Irbid, Jordan"
    },
    {
      "lat": 32.316287151165334,
      "lon": 35.59284028322858,
      "geoinfo": {
        "display_name": "ابو سيدو, Aghwar Janoobiyah Sub-District, Aghwar Shamaliyah District, Irbid, Jordan",
        "road": null,
        "house_number": null,
        "neighbourhood": null,
        "suburb": null,
        "city_district": null,
        "city": "ابو سيدو",
        "state": "Irbid",
        "postcode": null,
        "country": "Jordan",
        "country_code": "jo"
      },
      "address": "739, ابو سيدو, Aghwar Janoobiyah Sub-District, Aghwar Shamaliyah District, 78726 Irbid, Jordan"
    },
    {
      "lat": 32.2973905814618,
      "lon": 35.64153236206019,
      "geoinfo": {
        "display_name": "Khirbat al Wahadina, Ajloun Sub-District, Ajloun Qasabah District, Ajlun, Jordan",
        "road": null,
        "house_number": null,
        "neighbourhood": null,
        "suburb": null,
        "city_district": null,
        "city": "Khirbat al Wahadina",
        "state": "Ajlun",
        "postcode": null,
        "country": "Jordan",
        "country_code": "jo"
      },
      "address": "629, Khirbat al Wahadina, Ajloun Sub-District, Ajloun Qasabah District, 00398 Ajlun, Jordan"
    }
  ],
  "updated_at": "2025-10-19T03:44:43.639566+00:00",
  "_kind": "geo_samples"
}