{
  "country_code": "JO",
  "country": "Jordan",
  "city": "Marj Al Hamam",
  "geonameid": 13308287,
  "target_addresses": 3,
  "samples": [
    {
      "lat": 31.93373758974572,
      "lon": 35.87212931602784,
      "geoinfo": {
        "display_name": "Wadi Essier Sub-District, Wadi Essier District, Amman, 11194, Jordan",
        "road": null,
        "house_number": null,
        "neighbourhood": null,
        "suburb": null,
        "city_district": null,
        "city": null,
        "state": "Amman",
        "postcode": "11194",
        "country": "Jordan",
        "country_code": "jo"
      },
      "address": "Marj Al Hamam, Amman, Jordan"
    },
    {
      "lat": 31.90802184804165,
      "lon": 35.844306589395174,
      "geoinfo": {
        "display_name": "18, Mohammad Al-Mazen Al-Manaseer Street, Marj Al-hamam, Wadi Essier Sub-District, Wadi Essier District, Amman, 11732, Jordan",
        "road": "Mohammad Al-Mazen Al-Manaseer Street",
        "house_number": "18",
        "neighbourhood": null,
        "suburb": "Marj Al-hamam",
        "city_district": null,
        "city": null,
        "state": "Amman",
        "postcode": "11732",
        "country": "Jordan",
        "country_code": "jo"
      },
      "address": "18 Mohammad Al-Mazen Al-Manaseer Street, Marj Al Hamam, Amman, Jordan"
    },
    {
      "lat": 31.897864549166503,
      "lon": 35.85803530050096,
      "geoinfo": {
        "display_name": "Marj Al-hamam, Wadi Essier Sub-District, Wadi Essier District, Amman, 11732, Jordan",
        "road": null,
        "house_number": null,
        "neighbourhood": null,
        "suburb": "Marj Al-hamam",
        "city_district": null,
        "city": null,
        "state": "Amman",
        "postcode": "11732",
        "country": "Jordan",
        "country_code": "jo"
      },
      "address": "Marj Al-hamam, Marj Al Hamam, Amman, Jordan"
    },
    {
      "lat": 31.88874355600418,
      "lon": 35.89336148627955,
      "geoinfo": {
        "display_name": "ام الجدايل, Na'oor Sub-District, Na'oor District, Amman, 11623, Jordan",
        "road": null,
        "house_number": null,
        "neighbourhood": "ام الجدايل",
        "suburb": null,
        "city_district": null,
        "city": null,
        "state": "Amman",
        "postcode": "11623",
        "country": "Jordan",
        "country_code": "jo"
      },
      "address": "877, ام الجدايل, Na'oor Sub-District, Na'oor District, Amman, 11623, Jordan"
    },
    {
      "lat": 31.872958340421118,
      "lon": 35.87505907887818,
      "geoinfo": {
        "display_name": "المجد, Um Elbasatien Sub-District, Na'oor District, Amman, 11732, Jordan",
        "road": null,
        "house_number": null,
        "neighbourhood": null,
        "suburb": null,
        "city_district": null,
        "city": "المجد",
        "state": "Amman",
        "postcode": "11732",
        "country": "Jordan",
        "country_code": "jo"
      },
      "address": "746, المجد, Um Elbasatien Sub-District, Na'oor District, Amman, 11732, Jordan"
    },
    {
      "lat": 31.900984609246155,
      "lon": 35.87002507469317,
      "geoinfo": {
        "display_name": "Queen Alia Airport Road, الصحابة, Quaismeh Sub-District, Quaismeh District, Amman, 11732, Jordan",
        "road": "Queen Alia Airport Road",
        "house_number": null,
        "neighbourhood": "الصحابة",
        "suburb": null,
        "city_district": null,
        "city": null,
        "state": "Amman",
        "postcode": "11732",
        "country": "Jordan",
        "country_code": "jo"
      },
      "address": "031, Queen Alia Airport Road, الصحابة, Quaismeh Sub-District, Quaismeh District, Amman, 11732, Jordan"
    }
  ],
  "updated_at": "2025-10-19T07:15:47.015267+00:00",
  "_kind": "geo_samples"
}