{
  "country_code": "JO",
  "country": "Jordan",
  "city": "Mādabā",
  "geonameid": 248370,
  "target_addresses": 17,
  "samples": [
    {
      "lat": 31.74097819274768,
      "lon": 35.81031250254107,
      "geoinfo": {
        "display_name": "المأمونية الغربية, Madaba, Madaba Sub-District, Madaba Qasabah District, Madaba, 17125, Jordan",
        "road": null,
        "house_number": null,
        "neighbourhood": "المأمونية الغربية",
        "suburb": null,
        "city_district": null,
        "city": "Madaba",
        "state": "Madaba",
        "postcode": "17125",
        "country": "Jordan",
        "country_code": "jo"
      },
      "address": "المأمونية الغربية, Mādabā, Madaba, Jordan"
    },
    {
      "lat": 31.718102197872476,
      "lon": 35.84226974487504,
      "geoinfo": {
        "display_name": "Jelul, Jizah Sub-District, Jizah District, Amman, Jordan",
        "road": null,
        "house_number": null,
        "neighbourhood": null,
        "suburb": null,
        "city_district": null,
        "city": "Jelul",
        "state": "Amman",
        "postcode": null,
        "country": "Jordan",
        "country_code": "jo"
      },
      "address": "Mādabā, Amman, Jordan"
    },
    {
      "lat": 31.69712260218183,
      "lon": 35.770210652974036,
      "geoinfo": {
        "display_name": "التيم, Madaba Sub-District, Madaba Qasabah District, Madaba, 17110, Jordan",
        "road": null,
        "house_number": null,
        "neighbourhood": null,
        "suburb": null,
        "city_district": null,
        "city": "التيم",
        "state": "Madaba",
        "postcode": "17110",
        "country": "Jordan",
        "country_code": "jo"
      },
      "address": "Mādabā, Madaba, Jordan"
    },
    {
      "lat": 31.709667183450353,
      "lon": 35.80215798246128,
      "geoinfo": {
        "display_name": "مجمع السفريات, Madaba, Madaba Sub-District, Madaba Qasabah District, Madaba, 17110, Jordan",
        "road": null,
        "house_number": null,
        "neighbourhood": "مجمع السفريات",
        "suburb": null,
        "city_district": null,
        "city": "Madaba",
        "state": "Madaba",
        "postcode": "17110",
        "country": "Jordan",
        "country_code": "jo"
      },
      "address": "مجمع السفريات, Mādabā, 68423 Madaba, Jordan"
    },
    {
      "lat": 31.71875069326079,
      "lon": 35.803058928387486,
      "geoinfo": {
        "display_name": "Madaba Street, الحمد, Madaba, Madaba Sub-District, Madaba Qasabah District, Madaba, 17110, Jordan",
        "road": "Madaba Street",
        "house_number": null,
        "neighbourhood": "الحمد",
        "suburb": null,
        "city_district": null,
        "city": "Madaba",
        "state": "Madaba",
        "postcode": "17110",
        "country": "Jordan",
        "country_code": "jo"
      },
      "address": "Madaba Street, Mādabā, 33320 Madaba, Jordan"
    },
    {
      "lat": 31.697931870811267,
      "lon": 35.81074855778911,
      "geoinfo": {
        "display_name": "Al-Waleed Bin Abdulmalek Street, Madaba, Madaba Sub-District, Madaba Qasabah District, Madaba, 17110, Jordan",
        "road": "Al-Waleed Bin Abdulmalek Street",
        "house_number": null,
        "neighbourhood": null,
        "suburb": null,
        "city_district": null,
        "city": "Madaba",
        "state": "Madaba",
        "postcode": "17110",
        "country": "Jordan",
        "country_code": "jo"
      },
      "address": "746, Al-Waleed Bin Abdulmalek Street, Mādabā, 17110 Madaba, Jordan"
    },
    {
      "lat": 31.691701474326585,
      "lon": 35.81733095995982,
      "geoinfo": {
        "display_name": "Al-Waleed Bin Abdulmalek Street, العرقوب, نتل, Madaba Sub-District, Madaba Qasabah District, Madaba, Jordan",
        "road": "Al-Waleed Bin Abdulmalek Street",
        "house_number": null,
        "neighbourhood": null,
        "suburb": null,
        "city_district": null,
        "city": "نتل",
        "state": "Madaba",
        "postcode": null,
        "country": "Jordan",
        "country_code": "jo"
      },
      "address": "570, Al-Waleed Bin Abdulmalek Street, Mādabā, 41718 Madaba, Jordan"
    },
    {
      "lat": 31.731422390896533,
      "lon": 35.83673541006607,
      "geoinfo": {
        "display_name": "المأمونية الشرقية, Madaba Sub-District, Madaba Qasabah District, Madaba, 17125, Jordan",
        "road": null,
        "house_number": null,
        "neighbourhood": "المأمونية الشرقية",
        "suburb": null,
        "city_district": null,
        "city": null,
        "state": "Madaba",
        "postcode": "17125",
        "country": "Jordan",
        "country_code": "jo"
      },
      "address": "376, المأمونية الشرقية, Mādabā, 17125 Madaba, Jordan"
    },
    {
      "lat": 31.735932465193414,
      "lon": 35.79217593363416,
      "geoinfo": {
        "display_name": "Madaba Al-Gharbi Street, محمد الفاتح, Madaba, Jrainah Sub-District, Madaba Qasabah District, Madaba, 17110, Jordan",
        "road": "Madaba Al-Gharbi Street",
        "house_number": null,
        "neighbourhood": "محمد الفاتح",
        "suburb": null,
        "city_district": null,
        "city": "Madaba",
        "state": "Madaba",
        "postcode": "17110",
        "country": "Jordan",
        "country_code": "jo"
      },
      "address": "969, Madaba Al-Gharbi Street, Mādabā, 17110 Madaba, Jordan"
    },
    {
      "lat": 31.74495800554761,
      "lon": 35.825129936470255,
      "geoinfo": {
        "display_name": "الروابي, Madaba Sub-District, Madaba Qasabah District, Madaba, 17125, Jordan",
        "road": null,
        "house_number": null,
        "neighbourhood": "الروابي",
        "suburb": null,
        "city_district": null,
        "city": null,
        "state": "Madaba",
        "postcode": "17125",
        "country": "Jordan",
        "country_code": "jo"
      },
      "address": "955, الروابي, Mādabā, 17125 Madaba, Jordan"
    },
    {
      "lat": 31.676894239645016,
      "lon": 35.80761485398796,
      "geoinfo": {
        "display_name": "Sufe, Jizah Sub-District, Jizah District, Amman, Jordan",
        "road": null,
        "house_number": null,
        "neighbourhood": null,
        "suburb": null,
        "city_district": null,
        "city": "Sufe",
        "state": "Amman",
        "postcode": null,
        "country": "Jordan",
        "country_code": "jo"
      },
      "address": "767, Sufe, Jizah Sub-District, Jizah District, 67589 Amman, Jordan"
    },
    {
      "lat": 31.746434249695056,
      "lon": 35.80989226080388,
      "geoinfo": {
        "display_name": "المأمونية الغربية, Madaba, Madaba Sub-District, Madaba Qasabah District, Madaba, 17125, Jordan",
        "road": null,
        "house_number": null,
        "neighbourhood": "المأمونية الغربية",
        "suburb": null,
        "city_district": null,
        "city": "Madaba",
        "state": "Madaba",
        "postcode": "17125",
        "country": "Jordan",
        "country_code": "jo"
      },
      "address": "883, المأمونية الغربية, Mādabā, 17125 Madaba, Jordan"
    },
    {
      "lat": 31.708506630804546,
      "lon": 35.77242181339621,
      "geoinfo": {
        "display_name": "النديم, Madaba, Madaba Sub-District, Madaba Qasabah District, Madaba, 17110, Jordan",
        "road": null,
        "house_number": null,
        "neighbourhood": "النديم",
        "suburb": null,
        "city_district": null,
        "city": "Madaba",
        "state": "Madaba",
        "postcode": "17110",
        "country": "Jordan",
        "country_code": "jo"
      },
      "address": "040, النديم, Mādabā, 17110 Madaba, Jordan"
    },
    {
      "lat": 31.709311212404078,
      "lon": 35.75258866617352,
      "geoinfo": {
        "display_name": "Um Jereisat, Madaba Sub-District, Madaba Qasabah District, Madaba, 17110, Jordan",
        "road": null,
        "house_number": null,
        "neighbourhood": null,
        "suburb": null,
        "city_district": null,
        "city": "Um Jereisat",
        "state": "Madaba",
        "postcode": "17110",
        "country": "Jordan",
        "country_code": "jo"
      },
      "address": "214, Um Jereisat, Madaba Sub-District, Madaba Qasabah District, Madaba, 17110, Jordan"
    },
    {
      "lat": 31.708970391277948,
      "lon": 35.84243677757884,
      "geoinfo": {
        "display_name": "Hawara, Jizah Sub-District, Jizah District, Amman, Jordan",
        "road": null,
        "house_number": null,
        "neighbourhood": null,
        "suburb": null,
        "city_district": null,
        "city": "Hawara",
        "state": "Amman",
        "postcode": null,
        "country": "Jordan",
        "country_code": "jo"
      },
      "address": "234, Hawara, Jizah Sub-District, Jizah District, 78922 Amman, Jordan"
    },
    {
      "lat": 31.711722866881257,
      "lon": 35.775436670201465,
      "geoinfo": {
        "display_name": "النديم, Madaba, Madaba Sub-District, Madaba Qasabah District, Madaba, 17110, Jordan",
        "road": null,
        "house_number": null,
        "neighbourhood": "النديم",
        "suburb": null,
        "city_district": null,
        "city": "Madaba",
        "state": "Madaba",
        "postcode": "17110",
        "country": "Jordan",
        "country_code": "jo"
      },
      "address": "683, النديم, Mādabā, 17110 Madaba, Jordan"
    },
    {
      "lat": 31.7493910606148,
      "lon": 35.78545966755837,
      "geoinfo": {
        "display_name": "غرناطة, العريش, Madaba Sub-District, Madaba Qasabah District, Madaba, 17125, Jordan",
        "road": null,
        "house_number": null,
        "neighbourhood": "غرناطة",
        "suburb": null,
        "city_district": null,
        "city": "العريش",
        "state": "Madaba",
        "postcode": "17125",
        "country": "Jordan",
        "country_code": "jo"
      },
      "address": "982, غرناطة, Mādabā, 17125 Madaba, Jordan"
    },
    {
      "lat": 31.718729432833484,
      "lon": 35.84309801723704,
      "geoinfo": {
        "display_name": "Jelul, Jizah Sub-District, Jizah District, Amman, Jordan",
        "road": null,
        "house_number": null,
        "neighbourhood": null,
        "suburb": null,
        "city_district": null,
        "city": "Jelul",
        "state": "Amman",
        "postcode": null,
        "country": "Jordan",
        "country_code": "jo"
      },
      "address": "428, Jelul, Jizah Sub-District, Jizah District, 64351 Amman, Jordan"
    }
  ],
  "updated_at": "2025-10-19T05:04:00.265371+00:00",
  "_kind": "geo_samples"
}