{
  "country_code": "JO",
  "country": "Jordan",
  "city": "Māḩiş",
  "geonameid": 248299,
  "target_addresses": 3,
  "samples": [
    {
      "lat": 31.998743699371694,
      "lon": 35.79855630407603,
      "geoinfo": {
        "display_name": "Mahes and Fuhais Sub-District, Mahes and Fuhais District, Balqa, 19152, Jordan",
        "road": null,
        "house_number": null,
        "neighbourhood": null,
        "suburb": null,
        "city_district": null,
        "city": null,
        "state": "Balqa",
        "postcode": "19152",
        "country": "Jordan",
        "country_code": "jo"
      },
      "address": "Māḩiş, Balqa, Jordan"
    },
    {
      "lat": 31.979054094517316,
      "lon": 35.79444898480293,
      "geoinfo": {
        "display_name": "Um al Usud, Wadi Essier Sub-District, Wadi Essier District, Amman, 19152, Jordan",
        "road": null,
        "house_number": null,
        "neighbourhood": null,
        "suburb": null,
        "city_district": null,
        "city": "Um al Usud",
        "state": "Amman",
        "postcode": "19152",
        "country": "Jordan",
        "country_code": "jo"
      },
      "address": "106, Um al Usud, Wadi Essier Sub-District, Wadi Essier District, Amman, 19152, Jordan"
    },
    {
      "lat": 32.02375383466689,
      "lon": 35.74731424560511,
      "geoinfo": {
        "display_name": "Khirbat al Innab, Al-Salt Sub-District, Salt Qasabah District, Balqa, 19152, Jordan",
        "road": null,
        "house_number": null,
        "neighbourhood": null,
        "suburb": null,
        "city_district": null,
        "city": "Khirbat al Innab",
        "state": "Balqa",
        "postcode": "19152",
        "country": "Jordan",
        "country_code": "jo"
      },
      "address": "200, Khirbat al Innab, Al-Salt Sub-District, Salt Qasabah District, Balqa, 19152, Jordan"
    },
    {
      "lat": 31.99339454039968,
      "lon": 35.73991895016277,
      "geoinfo": {
        "display_name": "Wild Camp, King Abdullah II Street, العلالي, Mahis, Mahes and Fuhais Sub-District, Mahes and Fuhais District, Balqa, 19152, Jordan",
        "road": "King Abdullah II Street",
        "house_number": null,
        "neighbourhood": "العلالي",
        "suburb": null,
        "city_district": null,
        "city": "Mahis",
        "state": "Balqa",
        "postcode": "19152",
        "country": "Jordan",
        "country_code": "jo"
      },
      "address": "694, King Abdullah II Street, Māḩiş, 19152 Balqa, Jordan"
    }
  ],
  "updated_at": "2025-10-19T05:22:48.458273+00:00",
  "_kind": "geo_samples"
}