{
  "country_code": "JO",
  "country": "Jordan",
  "city": "Saḩāb",
  "geonameid": 247105,
  "target_addresses": 3,
  "samples": [
    {
      "lat": 31.830264333334533,
      "lon": 35.993332516934196,
      "geoinfo": {
        "display_name": "Rajm al-Shami Sub-District, Muaqqar District, Amman, 11511, Jordan",
        "road": null,
        "house_number": null,
        "neighbourhood": null,
        "suburb": null,
        "city_district": null,
        "city": null,
        "state": "Amman",
        "postcode": "11511",
        "country": "Jordan",
        "country_code": "jo"
      },
      "address": "Saḩāb, Amman, Jordan"
    },
    {
      "lat": 31.874215224792554,
      "lon": 35.966567720821196,
      "geoinfo": {
        "display_name": "40, Sahab, Quaismeh Sub-District, Quaismeh District, Amman, 11511, Jordan",
        "road": "40",
        "house_number": null,
        "neighbourhood": null,
        "suburb": null,
        "city_district": null,
        "city": "Sahab",
        "state": "Amman",
        "postcode": "11511",
        "country": "Jordan",
        "country_code": "jo"
      },
      "address": "40, Saḩāb, Amman, Jordan"
    },
    {
      "lat": 31.890508315835635,
      "lon": 36.033111289496496,
      "geoinfo": {
        "display_name": "منطقة احد, Sahab, Sahab Sub-District, Sahab District, Amman, 11511, Jordan",
        "road": null,
        "house_number": null,
        "neighbourhood": null,
        "suburb": "منطقة احد",
        "city_district": null,
        "city": "Sahab",
        "state": "Amman",
        "postcode": "11511",
        "country": "Jordan",
        "country_code": "jo"
      },
      "address": "منطقة احد, Saḩāb, Amman, Jordan"
    },
    {
      "lat": 31.86744273068296,
      "lon": 36.05467592896278,
      "geoinfo": {
        "display_name": "Sahab, Sahab Sub-District, Sahab District, Amman, Jordan",
        "road": null,
        "house_number": null,
        "neighbourhood": null,
        "suburb": null,
        "city_district": null,
        "city": "Sahab",
        "state": "Amman",
        "postcode": null,
        "country": "Jordan",
        "country_code": "jo"
      },
      "address": "876, Sahab, Sahab Sub-District, Sahab District, 82629 Amman, Jordan"
    },
    {
      "lat": 31.904884742264798,
      "lon": 35.9960439508021,
      "geoinfo": {
        "display_name": "Al Rajib, Quaismeh Sub-District, Quaismeh District, Amman, 11511, Jordan",
        "road": null,
        "house_number": null,
        "neighbourhood": null,
        "suburb": null,
        "city_district": null,
        "city": "Al Rajib",
        "state": "Amman",
        "postcode": "11511",
        "country": "Jordan",
        "country_code": "jo"
      },
      "address": "612, Al Rajib, Quaismeh Sub-District, Quaismeh District, Amman, 11511, Jordan"
    },
    {
      "lat": 31.886349182235058,
      "lon": 35.976245882189104,
      "geoinfo": {
        "display_name": "أبو صوانة, Al Rajib, Quaismeh Sub-District, Quaismeh District, Amman, 11511, Jordan",
        "road": null,
        "house_number": null,
        "neighbourhood": "أبو صوانة",
        "suburb": null,
        "city_district": null,
        "city": "Al Rajib",
        "state": "Amman",
        "postcode": "11511",
        "country": "Jordan",
        "country_code": "jo"
      },
      "address": "243, أبو صوانة, Saḩāb, 11511 Amman, Jordan"
    }
  ],
  "updated_at": "2025-10-19T05:23:21.448074+00:00",
  "_kind": "geo_samples"
}