{
  "country_code": "TN",
  "country": "Tunisia",
  "city": "Gremda",
  "geonameid": 2473470,
  "target_addresses": 3,
  "samples": [
    {
      "lat": 34.80177931101795,
      "lon": 10.701885540134896,
      "geoinfo": {
        "display_name": "قرمدة, معتمدية صفاقس الجنوبية, Sfax, 3012, Tunisia",
        "road": null,
        "house_number": null,
        "neighbourhood": null,
        "suburb": null,
        "city_district": null,
        "city": null,
        "state": "Sfax",
        "postcode": "3012",
        "country": "Tunisia",
        "country_code": "tn"
      },
      "address": "Gremda, Sfax, Tunisia"
    },
    {
      "lat": 34.79818649067124,
      "lon": 10.764688423730838,
      "geoinfo": {
        "display_name": "Sakiet Ezzit, ساقية الزيت, معتمدية ساقية الزيت, Sfax, 3021, Tunisia",
        "road": null,
        "house_number": null,
        "neighbourhood": null,
        "suburb": null,
        "city_district": null,
        "city": "Sakiet Ezzit",
        "state": "Sfax",
        "postcode": "3021",
        "country": "Tunisia",
        "country_code": "tn"
      },
      "address": "936, Sakiet Ezzit, ساقية الزيت, معتمدية ساقية الزيت, Sfax, 3021, Tunisia"
    },
    {
      "lat": 34.74734715628351,
      "lon": 10.729002653417812,
      "geoinfo": {
        "display_name": "Merkez Dammak, العالية, معتمدية صفاقس الغربية, Sfax, 3051, Tunisia",
        "road": null,
        "house_number": null,
        "neighbourhood": null,
        "suburb": "Merkez Dammak",
        "city_district": null,
        "city": null,
        "state": "Sfax",
        "postcode": "3051",
        "country": "Tunisia",
        "country_code": "tn"
      },
      "address": "918, Merkez Dammak, العالية, معتمدية صفاقس الغربية, Sfax, 3051, Tunisia"
    }
  ],
  "updated_at": "2025-10-19T06:30:04.246606+00:00",
  "_kind": "geo_samples"
}