{
  "country_code": "TN",
  "country": "Tunisia",
  "city": "Mnihla",
  "geonameid": 13132710,
  "target_addresses": 3,
  "samples": [
    {
      "lat": 36.87385325912833,
      "lon": 10.077618111371573,
      "geoinfo": {
        "display_name": "سبالة بن عمار, معتمدية سيدي ثابت, Ariana, 2094, Tunisia",
        "road": null,
        "house_number": null,
        "neighbourhood": null,
        "suburb": null,
        "city_district": null,
        "city": null,
        "state": "Ariana",
        "postcode": "2094",
        "country": "Tunisia",
        "country_code": "tn"
      },
      "address": "Mnihla, Ariana, Tunisia"
    },
    {
      "lat": 36.83344995062009,
      "lon": 10.13973063331615,
      "geoinfo": {
        "display_name": "كولزي صولة, المنار 1, معتمدية المنزه, Tunis, 2062, Tunisia",
        "road": null,
        "house_number": null,
        "neighbourhood": null,
        "suburb": "المنار 1",
        "city_district": "معتمدية المنزه",
        "city": "Tunis",
        "state": "Tunis",
        "postcode": "2062",
        "country": "Tunisia",
        "country_code": "tn"
      },
      "address": "كولزي صولة, المنار 1, معتمدية المنزه, Tunis, 2062, Tunisia"
    },
    {
      "lat": 36.84549009754717,
      "lon": 10.131073136500774,
      "geoinfo": {
        "display_name": "العمران الأعلى, معتمدية العمران الأعلى, Tunis, 2096, Tunisia",
        "road": null,
        "house_number": null,
        "neighbourhood": null,
        "suburb": "العمران الأعلى",
        "city_district": "معتمدية العمران الأعلى",
        "city": "Tunis",
        "state": "Tunis",
        "postcode": "2096",
        "country": "Tunisia",
        "country_code": "tn"
      },
      "address": "065, العمران الأعلى, معتمدية العمران الأعلى, Tunis, 2096, Tunisia"
    },
    {
      "lat": 36.86660446660908,
      "lon": 10.07035087870091,
      "geoinfo": {
        "display_name": "X 20, حي الشباب, معتمدية دوار هيشر, Manouba, 2086, Tunisia",
        "road": "X 20",
        "house_number": null,
        "neighbourhood": null,
        "suburb": null,
        "city_district": null,
        "city": null,
        "state": "Manouba",
        "postcode": "2086",
        "country": "Tunisia",
        "country_code": "tn"
      },
      "address": "X 20, حي الشباب, معتمدية دوار هيشر, Manouba, 2086, Tunisia"
    }
  ],
  "updated_at": "2025-10-19T06:30:22.923302+00:00",
  "_kind": "geo_samples"
}