{
  "country_code": "TN",
  "country": "Tunisia",
  "city": "Msaken",
  "geonameid": 2469140,
  "target_addresses": 3,
  "samples": [
    {
      "lat": 35.71900952018951,
      "lon": 10.598529038896984,
      "geoinfo": {
        "display_name": "النجاجرة, معتمدية مساكن, Sousse, 4016, Tunisia",
        "road": null,
        "house_number": null,
        "neighbourhood": null,
        "suburb": null,
        "city_district": null,
        "city": null,
        "state": "Sousse",
        "postcode": "4016",
        "country": "Tunisia",
        "country_code": "tn"
      },
      "address": "Msaken, Sousse, Tunisia"
    },
    {
      "lat": 35.75638700844207,
      "lon": 10.616053662179807,
      "geoinfo": {
        "display_name": "Messadine, المسعدين, معتمدية مساكن, Sousse, 4023, Tunisia",
        "road": null,
        "house_number": null,
        "neighbourhood": null,
        "suburb": null,
        "city_district": null,
        "city": "Messadine",
        "state": "Sousse",
        "postcode": "4023",
        "country": "Tunisia",
        "country_code": "tn"
      },
      "address": "906, Messadine, المسعدين, معتمدية مساكن, Sousse, 4023, Tunisia"
    },
    {
      "lat": 35.764318538320204,
      "lon": 10.55565655846255,
      "geoinfo": {
        "display_name": "Moureddine, الموردين, معتمدية مساكن, Sousse, 4070, Tunisia",
        "road": null,
        "house_number": null,
        "neighbourhood": null,
        "suburb": null,
        "city_district": null,
        "city": "Moureddine",
        "state": "Sousse",
        "postcode": "4070",
        "country": "Tunisia",
        "country_code": "tn"
      },
      "address": "933, Moureddine, الموردين, معتمدية مساكن, Sousse, 4070, Tunisia"
    },
    {
      "lat": 35.73355469318682,
      "lon": 10.57764552902946,
      "geoinfo": {
        "display_name": "M'Saken, التوارة الجنوبية, معتمدية مساكن, Sousse, 4070, Tunisia",
        "road": null,
        "house_number": null,
        "neighbourhood": null,
        "suburb": null,
        "city_district": null,
        "city": "M'Saken",
        "state": "Sousse",
        "postcode": "4070",
        "country": "Tunisia",
        "country_code": "tn"
      },
      "address": "085, M'Saken, التوارة الجنوبية, معتمدية مساكن, Sousse, 4070, Tunisia"
    }
  ],
  "updated_at": "2025-10-19T06:29:51.280425+00:00",
  "_kind": "geo_samples"
}