{
  "country_code": "TN",
  "country": "Tunisia",
  "city": "Mégrine",
  "geonameid": 2469230,
  "target_addresses": 3,
  "samples": [
    {
      "lat": 36.7415758741859,
      "lon": 10.264963805898034,
      "geoinfo": {
        "display_name": "الطريق الوطنية تونس - رأس جدير, المدينة الجديدة 2, معتمدية المدينة الجديدة, معتمدية رادس, Ben Arous, 2097, Tunisia",
        "road": "الطريق الوطنية تونس - رأس جدير",
        "house_number": null,
        "neighbourhood": null,
        "suburb": null,
        "city_district": "المدينة الجديدة 2",
        "city": "معتمدية المدينة الجديدة",
        "state": "Ben Arous",
        "postcode": "2097",
        "country": "Tunisia",
        "country_code": "tn"
      },
      "address": "الطريق الوطنية تونس - رأس جدير, Mégrine, Ben Arous, Tunisia"
    },
    {
      "lat": 36.737381431554596,
      "lon": 10.241107795381843,
      "geoinfo": {
        "display_name": "الياسمينات, معتمدية المدينة الجديدة, Ben Arous, 2014, Tunisia",
        "road": null,
        "house_number": null,
        "neighbourhood": null,
        "suburb": null,
        "city_district": "الياسمينات",
        "city": "معتمدية المدينة الجديدة",
        "state": "Ben Arous",
        "postcode": "2014",
        "country": "Tunisia",
        "country_code": "tn"
      },
      "address": "945, الياسمينات, معتمدية المدينة الجديدة, Ben Arous, 2014, Tunisia"
    },
    {
      "lat": 36.76324751299571,
      "lon": 10.269507078606168,
      "geoinfo": {
        "display_name": "نهج لبنان, رادس المدينة, Radès, معتمدية رادس, Ben Arous, 2040, Tunisia",
        "road": "نهج لبنان",
        "house_number": null,
        "neighbourhood": null,
        "suburb": null,
        "city_district": "رادس المدينة",
        "city": "Radès",
        "state": "Ben Arous",
        "postcode": "2040",
        "country": "Tunisia",
        "country_code": "tn"
      },
      "address": "344, نهج لبنان, رادس المدينة, Radès, معتمدية رادس, Ben Arous, 2040, Tunisia"
    }
  ],
  "updated_at": "2025-10-19T06:29:53.516037+00:00",
  "_kind": "geo_samples"
}