{
  "country_code": "CL",
  "country": "Chile",
  "city": "Cañete",
  "geonameid": 3896924,
  "target_addresses": 2,
  "samples": [
    {
      "lat": -37.778313456146144,
      "lon": -73.3824468583917,
      "geoinfo": {
        "display_name": "Complejo Deportivo Cañete, Ruta P-516, Caillín, Pedro de Valdivia, Cañete, Provincia de Arauco, Biobio Region, 4390000, Chile",
        "road": "Ruta P-516",
        "house_number": null,
        "neighbourhood": null,
        "suburb": null,
        "city_district": null,
        "city": "Cañete",
        "state": "Biobio Region",
        "postcode": "4390000",
        "country": "Chile",
        "country_code": "cl"
      },
      "address": "Ruta P-516, Cañete, Biobio Region, Chile"
    },
    {
      "lat": -37.787616205908286,
      "lon": -73.39108553137973,
      "geoinfo": {
        "display_name": "Rodrigo de Quiroga, Los Canelos, Cañete, Provincia de Arauco, Biobio Region, 4399001, Chile",
        "road": "Rodrigo de Quiroga",
        "house_number": null,
        "neighbourhood": "Los Canelos",
        "suburb": null,
        "city_district": null,
        "city": "Cañete",
        "state": "Biobio Region",
        "postcode": "4399001",
        "country": "Chile",
        "country_code": "cl"
      },
      "address": "Rodrigo de Quiroga, Cañete, Biobio Region, Chile"
    },
    {
      "lat": -37.78947985386335,
      "lon": -73.38794508200907,
      "geoinfo": {
        "display_name": "Los Alerces, Los Canelos, Cañete, Provincia de Arauco, Biobio Region, 4399001, Chile",
        "road": "Los Alerces",
        "house_number": null,
        "neighbourhood": "Los Canelos",
        "suburb": null,
        "city_district": null,
        "city": "Cañete",
        "state": "Biobio Region",
        "postcode": "4399001",
        "country": "Chile",
        "country_code": "cl"
      },
      "address": "084, Los Alerces, Los Canelos, Cañete, Provincia de Arauco, Biobio Region, 4399001, Chile"
    },
    {
      "lat": -37.785081713686246,
      "lon": -73.37594056861252,
      "geoinfo": {
        "display_name": "Los Canelos, Comunidad Lorenzo Pilquimán, Pedro de Valdivia, Cañete, Provincia de Arauco, Biobio Region, 4390000, Chile",
        "road": null,
        "house_number": null,
        "neighbourhood": "Los Canelos",
        "suburb": null,
        "city_district": null,
        "city": "Cañete",
        "state": "Biobio Region",
        "postcode": "4390000",
        "country": "Chile",
        "country_code": "cl"
      },
      "address": "667, Los Canelos, Cañete, 4390000 Biobio Region, Chile"
    }
  ],
  "updated_at": "2025-10-19T01:48:31.982431+00:00",
  "_kind": "geo_samples"
}