{
  "country_code": "CL",
  "country": "Chile",
  "city": "Concepción",
  "geonameid": 3893894,
  "target_addresses": 2,
  "samples": [
    {
      "lat": -36.861043028269734,
      "lon": -73.07323115811359,
      "geoinfo": {
        "display_name": "Ingeniero Ernesto Pinto Lagarrigue, Villa Rucalhue, San Pedro de la Paz, Provincia de Concepción, Biobio Region, 4040237, Chile",
        "road": "Ingeniero Ernesto Pinto Lagarrigue",
        "house_number": null,
        "neighbourhood": "Villa Rucalhue",
        "suburb": null,
        "city_district": null,
        "city": "San Pedro de la Paz",
        "state": "Biobio Region",
        "postcode": "4040237",
        "country": "Chile",
        "country_code": "cl"
      },
      "address": "Ingeniero Ernesto Pinto Lagarrigue, Concepción, Biobio Region, Chile"
    },
    {
      "lat": -36.809290267778245,
      "lon": -73.00206865677316,
      "geoinfo": {
        "display_name": "Valle Noble, Concepcion, Provincia de Concepción, Biobio Region, 4051381, Chile",
        "road": null,
        "house_number": null,
        "neighbourhood": "Valle Noble",
        "suburb": null,
        "city_district": null,
        "city": "Concepcion",
        "state": "Biobio Region",
        "postcode": "4051381",
        "country": "Chile",
        "country_code": "cl"
      },
      "address": "Valle Noble, Concepción, Biobio Region, Chile"
    },
    {
      "lat": -36.86359226186293,
      "lon": -73.04943923855566,
      "geoinfo": {
        "display_name": "Avenida Costanera, Punta del Este, Chiguayante, Provincia de Concepción, Biobio Region, 4040237, Chile",
        "road": "Avenida Costanera",
        "house_number": null,
        "neighbourhood": "Punta del Este",
        "suburb": null,
        "city_district": null,
        "city": "Chiguayante",
        "state": "Biobio Region",
        "postcode": "4040237",
        "country": "Chile",
        "country_code": "cl"
      },
      "address": "259, Avenida Costanera, Punta del Este, Chiguayante, Provincia de Concepción, Biobio Region, 4040237, Chile"
    },
    {
      "lat": -36.7897893804392,
      "lon": -73.06974659393593,
      "geoinfo": {
        "display_name": "Avenida Santa María, Talcahuano, Provincia de Concepción, Biobio Region, 4061735, Chile",
        "road": "Avenida Santa María",
        "house_number": null,
        "neighbourhood": null,
        "suburb": null,
        "city_district": null,
        "city": "Talcahuano",
        "state": "Biobio Region",
        "postcode": "4061735",
        "country": "Chile",
        "country_code": "cl"
      },
      "address": "235, Avenida Santa María, Talcahuano, Provincia de Concepción, Biobio Region, 4061735, Chile"
    }
  ],
  "updated_at": "2025-10-19T01:48:22.359108+00:00",
  "_kind": "geo_samples"
}