{
  "country_code": "CL",
  "country": "Chile",
  "city": "Iquique",
  "geonameid": 3887127,
  "target_addresses": 2,
  "samples": [
    {
      "lat": -20.248925394191325,
      "lon": -70.15164775282553,
      "geoinfo": {
        "display_name": "Chile",
        "road": null,
        "house_number": null,
        "neighbourhood": null,
        "suburb": null,
        "city_district": null,
        "city": null,
        "state": null,
        "postcode": null,
        "country": "Chile",
        "country_code": "cl"
      },
      "address": "Iquique, Chile"
    },
    {
      "lat": -20.206544934544738,
      "lon": -70.15592234782169,
      "geoinfo": {
        "display_name": "Jorge Barrera, Puerto de Iquique, Iquique, Provincia de Iquique, Tarapacа Region, 1100026, Chile",
        "road": "Jorge Barrera",
        "house_number": null,
        "neighbourhood": null,
        "suburb": null,
        "city_district": null,
        "city": "Iquique",
        "state": "Tarapacа Region",
        "postcode": "1100026",
        "country": "Chile",
        "country_code": "cl"
      },
      "address": "Jorge Barrera, Iquique, Tarapacа Region, Chile"
    },
    {
      "lat": -20.178103361372536,
      "lon": -70.14215843136687,
      "geoinfo": {
        "display_name": "Marinero Desconocido, Acceso Monumento Marino Desconocido (Iquique), Iquique, Provincia de Iquique, Tarapacа Region, 1100026, Chile",
        "road": "Acceso Monumento Marino Desconocido (Iquique)",
        "house_number": null,
        "neighbourhood": null,
        "suburb": null,
        "city_district": null,
        "city": "Iquique",
        "state": "Tarapacа Region",
        "postcode": "1100026",
        "country": "Chile",
        "country_code": "cl"
      },
      "address": "035, Acceso Monumento Marino Desconocido (Iquique), Iquique, 1100026 Tarapacа Region, Chile"
    },
    {
      "lat": -20.239284506472416,
      "lon": -70.13086599252935,
      "geoinfo": {
        "display_name": "Los Lichiguayos, Iquique, Provincia de Iquique, Tarapacа Region, 1110887, Chile",
        "road": "Los Lichiguayos",
        "house_number": null,
        "neighbourhood": null,
        "suburb": null,
        "city_district": null,
        "city": "Iquique",
        "state": "Tarapacа Region",
        "postcode": "1110887",
        "country": "Chile",
        "country_code": "cl"
      },
      "address": "564, Los Lichiguayos, Iquique, Provincia de Iquique, Tarapacа Region, 1110887, Chile"
    }
  ],
  "updated_at": "2025-10-19T03:34:31.929907+00:00",
  "_kind": "geo_samples"
}