{
  "country_code": "CL",
  "country": "Chile",
  "city": "La Serena",
  "geonameid": 3884373,
  "target_addresses": 2,
  "samples": [
    {
      "lat": -29.874386830797366,
      "lon": -71.28608344111568,
      "geoinfo": {
        "display_name": "Loteo San Pedro del Mar, Caleta San Pedro, La Serena, Provincia de Elqui, Coquimbo Region, 1700900, Chile",
        "road": null,
        "house_number": null,
        "neighbourhood": "Loteo San Pedro del Mar",
        "suburb": null,
        "city_district": null,
        "city": "La Serena",
        "state": "Coquimbo Region",
        "postcode": "1700900",
        "country": "Chile",
        "country_code": "cl"
      },
      "address": "Loteo San Pedro del Mar, La Serena, Coquimbo Region, Chile"
    },
    {
      "lat": -29.90915200248691,
      "lon": -71.23034905966696,
      "geoinfo": {
        "display_name": "Bernarda Ossandón, Alfalfares, La Antena, La Serena, Provincia de Elqui, Coquimbo Region, 1720539, Chile",
        "road": "Bernarda Ossandón",
        "house_number": null,
        "neighbourhood": "Alfalfares",
        "suburb": "La Antena",
        "city_district": null,
        "city": "La Serena",
        "state": "Coquimbo Region",
        "postcode": "1720539",
        "country": "Chile",
        "country_code": "cl"
      },
      "address": "Bernarda Ossandón, La Serena, Coquimbo Region, Chile"
    },
    {
      "lat": -29.940532403691336,
      "lon": -71.27484350266002,
      "geoinfo": {
        "display_name": "Brisas del Elqui, La Serena, Provincia de Elqui, Coquimbo Region, 1711017, Chile",
        "road": null,
        "house_number": null,
        "neighbourhood": "Brisas del Elqui",
        "suburb": null,
        "city_district": null,
        "city": "La Serena",
        "state": "Coquimbo Region",
        "postcode": "1711017",
        "country": "Chile",
        "country_code": "cl"
      },
      "address": "136, Brisas del Elqui, La Serena, Provincia de Elqui, Coquimbo Region, 1711017, Chile"
    },
    {
      "lat": -29.898344414658066,
      "lon": -71.29438089343297,
      "geoinfo": {
        "display_name": "Caleta San Pedro, La Serena, Provincia de Elqui, Coquimbo Region, 1700900, Chile",
        "road": null,
        "house_number": null,
        "neighbourhood": null,
        "suburb": null,
        "city_district": null,
        "city": "La Serena",
        "state": "Coquimbo Region",
        "postcode": "1700900",
        "country": "Chile",
        "country_code": "cl"
      },
      "address": "865, Caleta San Pedro, La Serena, Provincia de Elqui, Coquimbo Region, 1700900, Chile"
    }
  ],
  "updated_at": "2025-10-19T01:29:26.021325+00:00",
  "_kind": "geo_samples"
}