{
  "country_code": "CL",
  "country": "Chile",
  "city": "Las Animas",
  "geonameid": 6458708,
  "target_addresses": 2,
  "samples": [
    {
      "lat": -39.778457339646636,
      "lon": -73.20639908599277,
      "geoinfo": {
        "display_name": "El Arenal, Valdivia, Provincia de Valdivia, Los Ríos, 5090000, Chile",
        "road": null,
        "house_number": null,
        "neighbourhood": null,
        "suburb": null,
        "city_district": null,
        "city": "Valdivia",
        "state": "Los Ríos",
        "postcode": "5090000",
        "country": "Chile",
        "country_code": "cl"
      },
      "address": "Las Animas, Los Ríos, Chile"
    },
    {
      "lat": -39.794960699202505,
      "lon": -73.17372672570633,
      "geoinfo": {
        "display_name": "Ruta T-302, Santa Bárbara, El Arenal, Valdivia, Provincia de Valdivia, Los Ríos, 5090262, Chile",
        "road": "Ruta T-302",
        "house_number": null,
        "neighbourhood": null,
        "suburb": null,
        "city_district": null,
        "city": "Valdivia",
        "state": "Los Ríos",
        "postcode": "5090262",
        "country": "Chile",
        "country_code": "cl"
      },
      "address": "Ruta T-302, Las Animas, Los Ríos, Chile"
    },
    {
      "lat": -39.80152009513414,
      "lon": -73.18916208706713,
      "geoinfo": {
        "display_name": "Ruta 204, Torreones V, Collico, Valdivia, Provincia de Valdivia, Los Ríos, 5090262, Chile",
        "road": "Ruta 204",
        "house_number": null,
        "neighbourhood": "Torreones V",
        "suburb": "Collico",
        "city_district": null,
        "city": "Valdivia",
        "state": "Los Ríos",
        "postcode": "5090262",
        "country": "Chile",
        "country_code": "cl"
      },
      "address": "Ruta 204, Torreones V, Collico, Valdivia, Provincia de Valdivia, Los Ríos, 5090262, Chile"
    },
    {
      "lat": -39.84017334532021,
      "lon": -73.22501206401719,
      "geoinfo": {
        "display_name": "Nueva San Martín, Villa Cau-Cau, Villa Santa María, Valdivia, Provincia de Valdivia, Los Ríos, 5090397, Chile",
        "road": "Nueva San Martín",
        "house_number": null,
        "neighbourhood": "Villa Cau-Cau",
        "suburb": null,
        "city_district": null,
        "city": "Valdivia",
        "state": "Los Ríos",
        "postcode": "5090397",
        "country": "Chile",
        "country_code": "cl"
      },
      "address": "978, Nueva San Martín, Villa Cau-Cau, Villa Santa María, Valdivia, Provincia de Valdivia, Los Ríos, 5090397, Chile"
    }
  ],
  "updated_at": "2025-10-19T03:11:18.838164+00:00",
  "_kind": "geo_samples"
}