{
  "country_code": "CL",
  "country": "Chile",
  "city": "Lautaro",
  "geonameid": 3883615,
  "target_addresses": 2,
  "samples": [
    {
      "lat": -38.56967876458138,
      "lon": -72.43679252697805,
      "geoinfo": {
        "display_name": "Ruta S-237, Comunidad Juan Millape Paillaqueo, Lautaro, Provincia de Cautín, Araucania Region, 4860000, Chile",
        "road": "Ruta S-237",
        "house_number": null,
        "neighbourhood": null,
        "suburb": null,
        "city_district": null,
        "city": "Lautaro",
        "state": "Araucania Region",
        "postcode": "4860000",
        "country": "Chile",
        "country_code": "cl"
      },
      "address": "Ruta S-237, Lautaro, Araucania Region, Chile"
    },
    {
      "lat": -38.54566049216693,
      "lon": -72.42937349164431,
      "geoinfo": {
        "display_name": "Parque Isabel Riquelme, Arcoiris, Lautaro, Provincia de Cautín, Araucania Region, 4860000, Chile",
        "road": "Parque Isabel Riquelme",
        "house_number": null,
        "neighbourhood": "Arcoiris",
        "suburb": null,
        "city_district": null,
        "city": "Lautaro",
        "state": "Araucania Region",
        "postcode": "4860000",
        "country": "Chile",
        "country_code": "cl"
      },
      "address": "Parque Isabel Riquelme, Lautaro, Araucania Region, Chile"
    },
    {
      "lat": -38.52735833191664,
      "lon": -72.41325843680949,
      "geoinfo": {
        "display_name": "Ruta S-11-R, Santa Guadalupe, Comunidad Antonio Quidel, Lautaro, Provincia de Cautín, Araucania Region, Chile",
        "road": "Ruta S-11-R",
        "house_number": null,
        "neighbourhood": "Santa Guadalupe",
        "suburb": null,
        "city_district": null,
        "city": "Lautaro",
        "state": "Araucania Region",
        "postcode": null,
        "country": "Chile",
        "country_code": "cl"
      },
      "address": "Ruta S-11-R, Santa Guadalupe, Comunidad Antonio Quidel, Lautaro, Provincia de Cautín, 68994 Araucania Region, Chile"
    },
    {
      "lat": -38.51404690416507,
      "lon": -72.46570121023555,
      "geoinfo": {
        "display_name": "Comunidad Pancho Cayuqueo Poniente, Lautaro, Provincia de Cautín, Araucania Region, 4860000, Chile",
        "road": null,
        "house_number": null,
        "neighbourhood": null,
        "suburb": null,
        "city_district": null,
        "city": "Lautaro",
        "state": "Araucania Region",
        "postcode": "4860000",
        "country": "Chile",
        "country_code": "cl"
      },
      "address": "474, Comunidad Pancho Cayuqueo Poniente, Lautaro, Provincia de Cautín, Araucania Region, 4860000, Chile"
    }
  ],
  "updated_at": "2025-10-19T03:18:38.319462+00:00",
  "_kind": "geo_samples"
}