{
  "country_code": "CL",
  "country": "Chile",
  "city": "Limache",
  "geonameid": 3883214,
  "target_addresses": 2,
  "samples": [
    {
      "lat": -33.03115862115599,
      "lon": -71.23144620369305,
      "geoinfo": {
        "display_name": "Ruta F-638, Condominio Huinganal, Limache, Provincia de Marga Marga, Valparaiso Region, 2330020, Chile",
        "road": "Ruta F-638",
        "house_number": null,
        "neighbourhood": null,
        "suburb": null,
        "city_district": null,
        "city": "Limache",
        "state": "Valparaiso Region",
        "postcode": "2330020",
        "country": "Chile",
        "country_code": "cl"
      },
      "address": "Ruta F-638, Limache, Valparaiso Region, Chile"
    },
    {
      "lat": -32.99359453607069,
      "lon": -71.21713201831338,
      "geoinfo": {
        "display_name": "Cay Cay, Olmué, Provincia de Marga Marga, Valparaiso Region, 2330020, Chile",
        "road": null,
        "house_number": null,
        "neighbourhood": null,
        "suburb": null,
        "city_district": null,
        "city": "Olmué",
        "state": "Valparaiso Region",
        "postcode": "2330020",
        "country": "Chile",
        "country_code": "cl"
      },
      "address": "Limache, Valparaiso Region, Chile"
    },
    {
      "lat": -32.9829928631885,
      "lon": -71.23006145495616,
      "geoinfo": {
        "display_name": "Callejón Cabrera, Limache, Provincia de Marga Marga, Valparaiso Region, 2330020, Chile",
        "road": "Callejón Cabrera",
        "house_number": null,
        "neighbourhood": null,
        "suburb": null,
        "city_district": null,
        "city": "Limache",
        "state": "Valparaiso Region",
        "postcode": "2330020",
        "country": "Chile",
        "country_code": "cl"
      },
      "address": "556, Callejón Cabrera, Limache, Provincia de Marga Marga, Valparaiso Region, 2330020, Chile"
    },
    {
      "lat": -33.028880378100745,
      "lon": -71.26558130631678,
      "geoinfo": {
        "display_name": "Parcelación San Alfonso, Hacienda Limache, Limache, Provincia de Marga Marga, Valparaiso Region, 2240000, Chile",
        "road": "Parcelación San Alfonso",
        "house_number": null,
        "neighbourhood": null,
        "suburb": null,
        "city_district": null,
        "city": "Limache",
        "state": "Valparaiso Region",
        "postcode": "2240000",
        "country": "Chile",
        "country_code": "cl"
      },
      "address": "225, Parcelación San Alfonso, Hacienda Limache, Limache, Provincia de Marga Marga, Valparaiso Region, 2240000, Chile"
    }
  ],
  "updated_at": "2025-10-19T01:47:56.123129+00:00",
  "_kind": "geo_samples"
}