{
  "country_code": "CL",
  "country": "Chile",
  "city": "Linares",
  "geonameid": 3883167,
  "target_addresses": 2,
  "samples": [
    {
      "lat": -35.83873232406951,
      "lon": -71.59710388988557,
      "geoinfo": {
        "display_name": "Liceo Politecnico Ireneo Badilla Fuentes, 101, Avenida Presidente Ibáñez, Villa Sara Lamothe, Linares, Provincia de Linares, Maule Region, 4300000, Chile",
        "road": "Avenida Presidente Ibáñez",
        "house_number": "101",
        "neighbourhood": "Villa Sara Lamothe",
        "suburb": null,
        "city_district": null,
        "city": "Linares",
        "state": "Maule Region",
        "postcode": "4300000",
        "country": "Chile",
        "country_code": "cl"
      },
      "address": "101 Avenida Presidente Ibáñez, Linares, Maule Region, Chile"
    },
    {
      "lat": -35.85838377915703,
      "lon": -71.54390955123503,
      "geoinfo": {
        "display_name": "Aeródromo Municipal de Linares, Los Avellanos, Villa Alcalde Luis Navarrete Carvacho, San Antonio Lamas Poniente, San Antonio, Linares, Provincia de Linares, Maule Region, 9250000, Chile",
        "road": "Los Avellanos",
        "house_number": null,
        "neighbourhood": "Villa Alcalde Luis Navarrete Carvacho",
        "suburb": null,
        "city_district": null,
        "city": "Linares",
        "state": "Maule Region",
        "postcode": "9250000",
        "country": "Chile",
        "country_code": "cl"
      },
      "address": "Los Avellanos, Linares, Maule Region, Chile"
    },
    {
      "lat": -35.837251772001586,
      "lon": -71.64328637884842,
      "geoinfo": {
        "display_name": "Condominio San Francisco, Linares, Provincia de Linares, 4300000, Chile",
        "road": null,
        "house_number": null,
        "neighbourhood": null,
        "suburb": null,
        "city_district": null,
        "city": "Linares",
        "state": null,
        "postcode": "4300000",
        "country": "Chile",
        "country_code": "cl"
      },
      "address": "251, Condominio San Francisco, Linares, Provincia de Linares, 4300000, Chile"
    },
    {
      "lat": -35.85336547245956,
      "lon": -71.59593821223123,
      "geoinfo": {
        "display_name": "Rengo, Villa Fernando Diez, Huapi, Linares, Provincia de Linares, Maule Region, 3581004, Chile",
        "road": "Rengo",
        "house_number": null,
        "neighbourhood": "Villa Fernando Diez",
        "suburb": "Huapi",
        "city_district": null,
        "city": "Linares",
        "state": "Maule Region",
        "postcode": "3581004",
        "country": "Chile",
        "country_code": "cl"
      },
      "address": "308, Rengo, Villa Fernando Diez, Huapi, Linares, Provincia de Linares, Maule Region, 3581004, Chile"
    }
  ],
  "updated_at": "2025-10-19T03:34:03.995479+00:00",
  "_kind": "geo_samples"
}