{
  "country_code": "CL",
  "country": "Chile",
  "city": "Lo Prado",
  "geonameid": 7281020,
  "target_addresses": 6,
  "samples": [
    {
      "lat": -33.430319384114036,
      "lon": -70.69572129924748,
      "geoinfo": {
        "display_name": "Avenida Mapocho, Barrio Tropezón, Quinta Normal, Provincia de Santiago, Santiago Metropolitan Region, 8350302, Chile",
        "road": "Avenida Mapocho",
        "house_number": null,
        "neighbourhood": "Barrio Tropezón",
        "suburb": "Quinta Normal",
        "city_district": null,
        "city": "Quinta Normal",
        "state": "Santiago Metropolitan Region",
        "postcode": "8350302",
        "country": "Chile",
        "country_code": "cl"
      },
      "address": "Avenida Mapocho, Lo Prado, Santiago Metropolitan Region, Chile"
    },
    {
      "lat": -33.44274709739725,
      "lon": -70.709550008664,
      "geoinfo": {
        "display_name": "Osorno, Villa Erradicación San Luis, Lo Prado, Provincia de Santiago, Santiago Metropolitan Region, 8500445, Chile",
        "road": "Osorno",
        "house_number": null,
        "neighbourhood": "Villa Erradicación San Luis",
        "suburb": "Lo Prado",
        "city_district": null,
        "city": "Lo Prado",
        "state": "Santiago Metropolitan Region",
        "postcode": "8500445",
        "country": "Chile",
        "country_code": "cl"
      },
      "address": "Osorno, Lo Prado, Santiago Metropolitan Region, Chile"
    },
    {
      "lat": -33.425180910728,
      "lon": -70.70017770294541,
      "geoinfo": {
        "display_name": "Salvador Gutiérrez, Barrio Argentina, Quinta Normal, Provincia de Santiago, Santiago Metropolitan Region, 8520512, Chile",
        "road": "Salvador Gutiérrez",
        "house_number": null,
        "neighbourhood": "Barrio Argentina",
        "suburb": "Quinta Normal",
        "city_district": null,
        "city": "Quinta Normal",
        "state": "Santiago Metropolitan Region",
        "postcode": "8520512",
        "country": "Chile",
        "country_code": "cl"
      },
      "address": "002, Salvador Gutiérrez, Barrio Argentina, Quinta Normal, Provincia de Santiago, Santiago Metropolitan Region, 8520512, Chile"
    },
    {
      "lat": -33.40287700406569,
      "lon": -70.72004635149528,
      "geoinfo": {
        "display_name": "Calle Nueva, Villa General Vergara, Renca, Provincia de Santiago, Santiago Metropolitan Region, 9100277, Chile",
        "road": "Calle Nueva",
        "house_number": null,
        "neighbourhood": "Villa General Vergara",
        "suburb": "Renca",
        "city_district": null,
        "city": "Renca",
        "state": "Santiago Metropolitan Region",
        "postcode": "9100277",
        "country": "Chile",
        "country_code": "cl"
      },
      "address": "028, Calle Nueva, Villa General Vergara, Renca, Provincia de Santiago, Santiago Metropolitan Region, 9100277, Chile"
    },
    {
      "lat": -33.479437587589906,
      "lon": -70.73515238390841,
      "geoinfo": {
        "display_name": "Doctor Livingstone, Barrio Lo Errázuriz, Maipú, Provincia de Santiago, Santiago Metropolitan Region, 9290386, Chile",
        "road": "Doctor Livingstone",
        "house_number": null,
        "neighbourhood": null,
        "suburb": "Maipú",
        "city_district": null,
        "city": null,
        "state": "Santiago Metropolitan Region",
        "postcode": "9290386",
        "country": "Chile",
        "country_code": "cl"
      },
      "address": "405, Doctor Livingstone, Barrio Lo Errázuriz, Maipú, Provincia de Santiago, Santiago Metropolitan Region, 9290386, Chile"
    },
    {
      "lat": -33.45572278317399,
      "lon": -70.7070505438577,
      "geoinfo": {
        "display_name": "36, Pasaje Demetrio, Lo Prado, Provincia de Santiago, Santiago Metropolitan Region, 9190847, Chile",
        "road": "Pasaje Demetrio",
        "house_number": "36",
        "neighbourhood": null,
        "suburb": null,
        "city_district": null,
        "city": "Lo Prado",
        "state": "Santiago Metropolitan Region",
        "postcode": "9190847",
        "country": "Chile",
        "country_code": "cl"
      },
      "address": "36, Pasaje Demetrio, Lo Prado, Provincia de Santiago, Santiago Metropolitan Region, 9190847, Chile"
    }
  ],
  "updated_at": "2025-10-19T03:48:42.503488+00:00",
  "_kind": "geo_samples"
}