{
  "country_code": "CL",
  "country": "Chile",
  "city": "Los Ángeles",
  "geonameid": 3882428,
  "target_addresses": 2,
  "samples": [
    {
      "lat": -37.479001994541015,
      "lon": -72.36772273118487,
      "geoinfo": {
        "display_name": "6ª Compañía Cuerpo de Bomberos Los Ángeles, Avenida Padre Hurtado, Villa Plazas de Santa María, Los Ángeles, Provincia de Bío-Bío, Biobio Region, 8340422, Chile",
        "road": "Avenida Padre Hurtado",
        "house_number": null,
        "neighbourhood": "Villa Plazas de Santa María",
        "suburb": null,
        "city_district": null,
        "city": "Los Ángeles",
        "state": "Biobio Region",
        "postcode": "8340422",
        "country": "Chile",
        "country_code": "cl"
      },
      "address": "Avenida Padre Hurtado, Los Ángeles, Biobio Region, Chile"
    },
    {
      "lat": -37.47742876567904,
      "lon": -72.38608899837934,
      "geoinfo": {
        "display_name": "Avenida El Aromo, Villa Los Profesores, Los Ángeles, Provincia de Bío-Bío, Biobio Region, 8340422, Chile",
        "road": "Avenida El Aromo",
        "house_number": null,
        "neighbourhood": "Villa Los Profesores",
        "suburb": null,
        "city_district": null,
        "city": "Los Ángeles",
        "state": "Biobio Region",
        "postcode": "8340422",
        "country": "Chile",
        "country_code": "cl"
      },
      "address": "Avenida El Aromo, Los Ángeles, Biobio Region, Chile"
    },
    {
      "lat": -37.43479416153883,
      "lon": -72.36794367517878,
      "geoinfo": {
        "display_name": "Los Ángeles, Provincia de Bío-Bío, Biobio Region, 4450001, Chile",
        "road": null,
        "house_number": null,
        "neighbourhood": null,
        "suburb": null,
        "city_district": null,
        "city": "Los Ángeles",
        "state": "Biobio Region",
        "postcode": "4450001",
        "country": "Chile",
        "country_code": "cl"
      },
      "address": "545, Los Ángeles, Provincia de Bío-Bío, Biobio Region, 4450001, Chile"
    },
    {
      "lat": -37.43622615489133,
      "lon": -72.36535190482361,
      "geoinfo": {
        "display_name": "Los Ángeles, Provincia de Bío-Bío, Biobio Region, 4450001, Chile",
        "road": null,
        "house_number": null,
        "neighbourhood": null,
        "suburb": null,
        "city_district": null,
        "city": "Los Ángeles",
        "state": "Biobio Region",
        "postcode": "4450001",
        "country": "Chile",
        "country_code": "cl"
      },
      "address": "702, Los Ángeles, Provincia de Bío-Bío, Biobio Region, 4450001, Chile"
    }
  ],
  "updated_at": "2025-10-19T03:10:45.195350+00:00",
  "_kind": "geo_samples"
}