{
  "country_code": "CL",
  "country": "Chile",
  "city": "Melipilla",
  "geonameid": 3880107,
  "target_addresses": 2,
  "samples": [
    {
      "lat": -33.68217232266342,
      "lon": -71.26379107087278,
      "geoinfo": {
        "display_name": "Esmeralda, Melipilla, Provincia de Melipilla, Santiago Metropolitan Region, 9580887, Chile",
        "road": null,
        "house_number": null,
        "neighbourhood": null,
        "suburb": null,
        "city_district": null,
        "city": "Melipilla",
        "state": "Santiago Metropolitan Region",
        "postcode": "9580887",
        "country": "Chile",
        "country_code": "cl"
      },
      "address": "Melipilla, Santiago Metropolitan Region, Chile"
    },
    {
      "lat": -33.68800840022358,
      "lon": -71.21525754962668,
      "geoinfo": {
        "display_name": "Farmacia Prieto, Ortúzar, Las Margaritas, Melipilla, Provincia de Melipilla, Santiago Metropolitan Region, 9580887, Chile",
        "road": "Ortúzar",
        "house_number": null,
        "neighbourhood": "Las Margaritas",
        "suburb": null,
        "city_district": null,
        "city": "Melipilla",
        "state": "Santiago Metropolitan Region",
        "postcode": "9580887",
        "country": "Chile",
        "country_code": "cl"
      },
      "address": "Ortúzar, Melipilla, Santiago Metropolitan Region, Chile"
    },
    {
      "lat": -33.656335122582774,
      "lon": -71.23077028863128,
      "geoinfo": {
        "display_name": "El Milagro San José, Melipilla, Provincia de Melipilla, Santiago Metropolitan Region, 9580887, Chile",
        "road": null,
        "house_number": null,
        "neighbourhood": null,
        "suburb": null,
        "city_district": null,
        "city": "Melipilla",
        "state": "Santiago Metropolitan Region",
        "postcode": "9580887",
        "country": "Chile",
        "country_code": "cl"
      },
      "address": "143, El Milagro San José, Melipilla, Provincia de Melipilla, Santiago Metropolitan Region, 9580887, Chile"
    },
    {
      "lat": -33.715877383563495,
      "lon": -71.18334051131826,
      "geoinfo": {
        "display_name": "Junco, La Vega, Carmen Bajo, Melipilla, Provincia de Melipilla, Santiago Metropolitan Region, 9580000, Chile",
        "road": "Junco",
        "house_number": null,
        "neighbourhood": null,
        "suburb": null,
        "city_district": null,
        "city": "Melipilla",
        "state": "Santiago Metropolitan Region",
        "postcode": "9580000",
        "country": "Chile",
        "country_code": "cl"
      },
      "address": "343, Junco, La Vega, Carmen Bajo, Melipilla, Provincia de Melipilla, Santiago Metropolitan Region, 9580000, Chile"
    }
  ],
  "updated_at": "2025-10-19T03:33:42.873030+00:00",
  "_kind": "geo_samples"
}