{
  "country_code": "CL",
  "country": "Chile",
  "city": "Nueva Imperial",
  "geonameid": 3878456,
  "target_addresses": 2,
  "samples": [
    {
      "lat": -38.771175921493445,
      "lon": -72.9222731408837,
      "geoinfo": {
        "display_name": "Comunidad Domingo Colimán, Nueva Imperial, Provincia de Cautín, Araucania Region, Chile",
        "road": null,
        "house_number": null,
        "neighbourhood": null,
        "suburb": null,
        "city_district": null,
        "city": "Nueva Imperial",
        "state": "Araucania Region",
        "postcode": null,
        "country": "Chile",
        "country_code": "cl"
      },
      "address": "Nueva Imperial, Araucania Region, Chile"
    },
    {
      "lat": -38.7506882580122,
      "lon": -72.9273719459734,
      "geoinfo": {
        "display_name": "Las Violetas, Población Diego Portales, Bajo Las Violetas, Nueva Imperial, Provincia de Cautín, Araucania Region, Chile",
        "road": "Las Violetas",
        "house_number": null,
        "neighbourhood": "Población Diego Portales",
        "suburb": null,
        "city_district": null,
        "city": "Nueva Imperial",
        "state": "Araucania Region",
        "postcode": null,
        "country": "Chile",
        "country_code": "cl"
      },
      "address": "Las Violetas, Nueva Imperial, Araucania Region, Chile"
    },
    {
      "lat": -38.72484956816678,
      "lon": -72.9285673427583,
      "geoinfo": {
        "display_name": "Comunidad Alonso Mariqueo, Nueva Imperial, Provincia de Cautín, Araucania Region, Chile",
        "road": null,
        "house_number": null,
        "neighbourhood": null,
        "suburb": null,
        "city_district": null,
        "city": "Nueva Imperial",
        "state": "Araucania Region",
        "postcode": null,
        "country": "Chile",
        "country_code": "cl"
      },
      "address": "913, Comunidad Alonso Mariqueo, Nueva Imperial, Provincia de Cautín, 63947 Araucania Region, Chile"
    },
    {
      "lat": -38.76240200785828,
      "lon": -72.95598649270114,
      "geoinfo": {
        "display_name": "Traitraico, Nueva Imperial, Provincia de Cautín, Araucania Region, Chile",
        "road": null,
        "house_number": null,
        "neighbourhood": null,
        "suburb": null,
        "city_district": null,
        "city": "Nueva Imperial",
        "state": "Araucania Region",
        "postcode": null,
        "country": "Chile",
        "country_code": "cl"
      },
      "address": "789, Traitraico, Nueva Imperial, Provincia de Cautín, 69778 Araucania Region, Chile"
    }
  ],
  "updated_at": "2025-10-19T03:15:36.174953+00:00",
  "_kind": "geo_samples"
}