{
  "country_code": "CL",
  "country": "Chile",
  "city": "Osorno",
  "geonameid": 3877949,
  "target_addresses": 2,
  "samples": [
    {
      "lat": -40.5766921834106,
      "lon": -73.184919241371,
      "geoinfo": {
        "display_name": "Princesa Diana, Brisas de Mirasur II, Osorno, Provincia de Osorno, Los Lagos Region, 5301065, Chile",
        "road": "Princesa Diana",
        "house_number": null,
        "neighbourhood": "Brisas de Mirasur II",
        "suburb": null,
        "city_district": null,
        "city": "Osorno",
        "state": "Los Lagos Region",
        "postcode": "5301065",
        "country": "Chile",
        "country_code": "cl"
      },
      "address": "Princesa Diana, Osorno, Los Lagos Region, Chile"
    },
    {
      "lat": -40.59604614377231,
      "lon": -73.08298514539398,
      "geoinfo": {
        "display_name": "Club de Campo Osorno, Alcalde Alberto Fuchslocher, Condominio Los Casta√±os, Osorno, Provincia de Osorno, Los Lagos Region, 5290000, Chile",
        "road": "Alcalde Alberto Fuchslocher",
        "house_number": null,
        "neighbourhood": null,
        "suburb": null,
        "city_district": null,
        "city": "Osorno",
        "state": "Los Lagos Region",
        "postcode": "5290000",
        "country": "Chile",
        "country_code": "cl"
      },
      "address": "Alcalde Alberto Fuchslocher, Osorno, Los Lagos Region, Chile"
    },
    {
      "lat": -40.53938884451752,
      "lon": -73.14889545176604,
      "geoinfo": {
        "display_name": "Osorno, Provincia de Osorno, Los Lagos Region, 5312321, Chile",
        "road": null,
        "house_number": null,
        "neighbourhood": null,
        "suburb": null,
        "city_district": null,
        "city": "Osorno",
        "state": "Los Lagos Region",
        "postcode": "5312321",
        "country": "Chile",
        "country_code": "cl"
      },
      "address": "434, Osorno, Provincia de Osorno, Los Lagos Region, 5312321, Chile"
    },
    {
      "lat": -40.58679715180147,
      "lon": -73.09538200706936,
      "geoinfo": {
        "display_name": "SAG, Osorno, Provincia de Osorno, Los Lagos Region, 5290000, Chile",
        "road": "SAG",
        "house_number": null,
        "neighbourhood": null,
        "suburb": null,
        "city_district": null,
        "city": "Osorno",
        "state": "Los Lagos Region",
        "postcode": "5290000",
        "country": "Chile",
        "country_code": "cl"
      },
      "address": "678, SAG, Osorno, Provincia de Osorno, Los Lagos Region, 5290000, Chile"
    }
  ],
  "updated_at": "2025-10-19T03:27:25.644417+00:00",
  "_kind": "geo_samples"
}