{
  "country_code": "CL",
  "country": "Chile",
  "city": "Pucón",
  "geonameid": 3875070,
  "target_addresses": 6,
  "samples": [
    {
      "lat": -39.31616766960011,
      "lon": -71.92674485428887,
      "geoinfo": {
        "display_name": "Pucón, Provincia de Cautín, Araucania Region, Chile",
        "road": null,
        "house_number": null,
        "neighbourhood": null,
        "suburb": null,
        "city_district": null,
        "city": null,
        "state": "Araucania Region",
        "postcode": null,
        "country": "Chile",
        "country_code": "cl"
      },
      "address": "Pucón, Araucania Region, Chile"
    },
    {
      "lat": -39.26890801088294,
      "lon": -71.97920922772397,
      "geoinfo": {
        "display_name": "Ruka Pucón, Paseo Costanera Pucón, Parque Foresta, Pucón, Provincia de Cautín, Araucania Region, 4920488, Chile",
        "road": "Paseo Costanera Pucón",
        "house_number": null,
        "neighbourhood": "Parque Foresta",
        "suburb": null,
        "city_district": null,
        "city": "Pucón",
        "state": "Araucania Region",
        "postcode": "4920488",
        "country": "Chile",
        "country_code": "cl"
      },
      "address": "Paseo Costanera Pucón, Pucón, Araucania Region, Chile"
    },
    {
      "lat": -39.245295546721636,
      "lon": -71.95751009181859,
      "geoinfo": {
        "display_name": "Quelhue, Pucón, Provincia de Cautín, Araucania Region, 4920051, Chile",
        "road": null,
        "house_number": null,
        "neighbourhood": null,
        "suburb": null,
        "city_district": null,
        "city": null,
        "state": "Araucania Region",
        "postcode": "4920051",
        "country": "Chile",
        "country_code": "cl"
      },
      "address": "239, Quelhue, Pucón, Provincia de Cautín, Araucania Region, 4920051, Chile"
    },
    {
      "lat": -39.28094178115992,
      "lon": -71.97140781678682,
      "geoinfo": {
        "display_name": "470, Ramón Guiñez, Las Vertientes, Pucón, Provincia de Cautín, Araucania Region, 4920000, Chile",
        "road": "Ramón Guiñez",
        "house_number": "470",
        "neighbourhood": "Las Vertientes",
        "suburb": null,
        "city_district": null,
        "city": "Pucón",
        "state": "Araucania Region",
        "postcode": "4920000",
        "country": "Chile",
        "country_code": "cl"
      },
      "address": "470, Ramón Guiñez, Las Vertientes, Pucón, Provincia de Cautín, Araucania Region, 4920000, Chile"
    },
    {
      "lat": -39.269230952910505,
      "lon": -71.94060051855875,
      "geoinfo": {
        "display_name": "Ex Balsa Quelhue, Pucón, Provincia de Cautín, Araucania Region, 4920051, Chile",
        "road": null,
        "house_number": null,
        "neighbourhood": null,
        "suburb": null,
        "city_district": null,
        "city": "Pucón",
        "state": "Araucania Region",
        "postcode": "4920051",
        "country": "Chile",
        "country_code": "cl"
      },
      "address": "554, Ex Balsa Quelhue, Pucón, Provincia de Cautín, Araucania Region, 4920051, Chile"
    },
    {
      "lat": -39.26904065954311,
      "lon": -71.97080928367755,
      "geoinfo": {
        "display_name": "Avenida Los Parques, Parque Foresta, Pucón, Provincia de Cautín, Araucania Region, 4920488, Chile",
        "road": "Avenida Los Parques",
        "house_number": null,
        "neighbourhood": "Parque Foresta",
        "suburb": null,
        "city_district": null,
        "city": "Pucón",
        "state": "Araucania Region",
        "postcode": "4920488",
        "country": "Chile",
        "country_code": "cl"
      },
      "address": "347, Avenida Los Parques, Parque Foresta, Pucón, Provincia de Cautín, Araucania Region, 4920488, Chile"
    }
  ],
  "updated_at": "2025-10-19T03:48:18.953488+00:00",
  "_kind": "geo_samples"
}