{
  "country_code": "CL",
  "country": "Chile",
  "city": "Puerto Varas",
  "geonameid": 3874930,
  "target_addresses": 6,
  "samples": [
    {
      "lat": -41.31582863002832,
      "lon": -72.99462926805145,
      "geoinfo": {
        "display_name": "353, Lago Llanquihue, Villa Los Presidentes 1, Puerto Varas, Provincia de Llanquihue, Los Lagos Region, 5550451, Chile",
        "road": "Lago Llanquihue",
        "house_number": "353",
        "neighbourhood": "Villa Los Presidentes 1",
        "suburb": null,
        "city_district": null,
        "city": "Puerto Varas",
        "state": "Los Lagos Region",
        "postcode": "5550451",
        "country": "Chile",
        "country_code": "cl"
      },
      "address": "353 Lago Llanquihue, Puerto Varas, Los Lagos Region, Chile"
    },
    {
      "lat": -41.311863306952155,
      "lon": -72.99385857582938,
      "geoinfo": {
        "display_name": "El Emporio, 211, Los Alpes, Terrazas de Los Alpes, Puerto Varas, Provincia de Llanquihue, Los Lagos Region, 5550176, Chile",
        "road": "Los Alpes",
        "house_number": "211",
        "neighbourhood": "Terrazas de Los Alpes",
        "suburb": null,
        "city_district": null,
        "city": "Puerto Varas",
        "state": "Los Lagos Region",
        "postcode": "5550176",
        "country": "Chile",
        "country_code": "cl"
      },
      "address": "211 Los Alpes, Puerto Varas, Los Lagos Region, Chile"
    },
    {
      "lat": -41.29264691647814,
      "lon": -72.99332412623465,
      "geoinfo": {
        "display_name": "Avenida Molino Viejo, Condominio El Laurel, Puerto Varas, Provincia de Llanquihue, Los Lagos Region, 5550176, Chile",
        "road": "Avenida Molino Viejo",
        "house_number": null,
        "neighbourhood": "Condominio El Laurel",
        "suburb": null,
        "city_district": null,
        "city": "Puerto Varas",
        "state": "Los Lagos Region",
        "postcode": "5550176",
        "country": "Chile",
        "country_code": "cl"
      },
      "address": "051, Avenida Molino Viejo, Condominio El Laurel, Puerto Varas, Provincia de Llanquihue, Los Lagos Region, 5550176, Chile"
    },
    {
      "lat": -41.32855333988383,
      "lon": -73.01259334514381,
      "geoinfo": {
        "display_name": "Parque Westfalia, Puerto Varas, Provincia de Llanquihue, Los Lagos Region, 5550596, Chile",
        "road": null,
        "house_number": null,
        "neighbourhood": "Parque Westfalia",
        "suburb": null,
        "city_district": null,
        "city": "Puerto Varas",
        "state": "Los Lagos Region",
        "postcode": "5550596",
        "country": "Chile",
        "country_code": "cl"
      },
      "address": "376, Parque Westfalia, Puerto Varas, Provincia de Llanquihue, Los Lagos Region, 5550596, Chile"
    },
    {
      "lat": -41.327250115722585,
      "lon": -72.99391949608682,
      "geoinfo": {
        "display_name": "1, La Omama, Mirador de Volcanes VII, Puerto Varas, Provincia de Llanquihue, Los Lagos Region, 5550596, Chile",
        "road": "La Omama",
        "house_number": "1",
        "neighbourhood": "Mirador de Volcanes VII",
        "suburb": null,
        "city_district": null,
        "city": "Puerto Varas",
        "state": "Los Lagos Region",
        "postcode": "5550596",
        "country": "Chile",
        "country_code": "cl"
      },
      "address": "1, La Omama, Mirador de Volcanes VII, Puerto Varas, Provincia de Llanquihue, Los Lagos Region, 5550596, Chile"
    },
    {
      "lat": -41.31435131047086,
      "lon": -72.99534835283613,
      "geoinfo": {
        "display_name": "541, Jorge Alessandri, Villa Los Presidentes 1, Puerto Varas, Provincia de Llanquihue, Los Lagos Region, 5550451, Chile",
        "road": "Jorge Alessandri",
        "house_number": "541",
        "neighbourhood": "Villa Los Presidentes 1",
        "suburb": null,
        "city_district": null,
        "city": "Puerto Varas",
        "state": "Los Lagos Region",
        "postcode": "5550451",
        "country": "Chile",
        "country_code": "cl"
      },
      "address": "541, Jorge Alessandri, Villa Los Presidentes 1, Puerto Varas, Provincia de Llanquihue, Los Lagos Region, 5550451, Chile"
    }
  ],
  "updated_at": "2025-10-19T03:48:02.912740+00:00",
  "_kind": "geo_samples"
}