{
  "country_code": "CL",
  "country": "Chile",
  "city": "Rancagua",
  "geonameid": 3873775,
  "target_addresses": 2,
  "samples": [
    {
      "lat": -34.142540038401705,
      "lon": -70.72926483302628,
      "geoinfo": {
        "display_name": "Diego de Almagro, Centro de eventos Las Palmeras, Rancagua, Provincia de Cachapoal, O'Higgins Region, 2880000, Chile",
        "road": "Diego de Almagro",
        "house_number": null,
        "neighbourhood": null,
        "suburb": null,
        "city_district": null,
        "city": "Rancagua",
        "state": "O'Higgins Region",
        "postcode": "2880000",
        "country": "Chile",
        "country_code": "cl"
      },
      "address": "Diego de Almagro, Rancagua, O'Higgins Region, Chile"
    },
    {
      "lat": -34.154823963895815,
      "lon": -70.77667999757546,
      "geoinfo": {
        "display_name": "La Moranina, Rancagua, Provincia de Cachapoal, O'Higgins Region, 2820000, Chile",
        "road": null,
        "house_number": null,
        "neighbourhood": null,
        "suburb": null,
        "city_district": null,
        "city": "Rancagua",
        "state": "O'Higgins Region",
        "postcode": "2820000",
        "country": "Chile",
        "country_code": "cl"
      },
      "address": "Rancagua, O'Higgins Region, Chile"
    },
    {
      "lat": -34.14837162034982,
      "lon": -70.72510253535411,
      "geoinfo": {
        "display_name": "Yerbas Buenas, Rancagua, Provincia de Cachapoal, O'Higgins Region, 2880000, Chile",
        "road": null,
        "house_number": null,
        "neighbourhood": "Yerbas Buenas",
        "suburb": null,
        "city_district": null,
        "city": "Rancagua",
        "state": "O'Higgins Region",
        "postcode": "2880000",
        "country": "Chile",
        "country_code": "cl"
      },
      "address": "869, Yerbas Buenas, Rancagua, Provincia de Cachapoal, O'Higgins Region, 2880000, Chile"
    },
    {
      "lat": -34.13919702086551,
      "lon": -70.78097286938437,
      "geoinfo": {
        "display_name": "La Gonzalina, Villa Las Flores, Villa Los Laureles, Rancagua, Provincia de Cachapoal, O'Higgins Region, 2820000, Chile",
        "road": "La Gonzalina",
        "house_number": null,
        "neighbourhood": "Villa Las Flores",
        "suburb": null,
        "city_district": null,
        "city": "Rancagua",
        "state": "O'Higgins Region",
        "postcode": "2820000",
        "country": "Chile",
        "country_code": "cl"
      },
      "address": "993, La Gonzalina, Villa Las Flores, Villa Los Laureles, Rancagua, Provincia de Cachapoal, O'Higgins Region, 2820000, Chile"
    }
  ],
  "updated_at": "2025-10-19T03:18:09.462400+00:00",
  "_kind": "geo_samples"
}