{
  "country_code": "CL",
  "country": "Chile",
  "city": "Talca",
  "geonameid": 3870294,
  "target_addresses": 2,
  "samples": [
    {
      "lat": -35.4262123508638,
      "lon": -71.6116557405217,
      "geoinfo": {
        "display_name": "Pasaje 9½ Norte D, Las Rastras, Esmeralda, Talca, Provincia de Talca, Maule Region, 3461761, Chile",
        "road": "Pasaje 9½ Norte D",
        "house_number": null,
        "neighbourhood": "Las Rastras",
        "suburb": "Esmeralda",
        "city_district": null,
        "city": "Talca",
        "state": "Maule Region",
        "postcode": "3461761",
        "country": "Chile",
        "country_code": "cl"
      },
      "address": "Pasaje 9½ Norte D, Talca, Maule Region, Chile"
    },
    {
      "lat": -35.40039219795806,
      "lon": -71.61652417882247,
      "geoinfo": {
        "display_name": "Ruta K-511, Villa Batalla de Lircay, Alto Lircay, Talca, Provincia de Talca, Maule Region, Chile",
        "road": "Ruta K-511",
        "house_number": null,
        "neighbourhood": "Villa Batalla de Lircay",
        "suburb": null,
        "city_district": null,
        "city": "Talca",
        "state": "Maule Region",
        "postcode": null,
        "country": "Chile",
        "country_code": "cl"
      },
      "address": "Ruta K-511, Talca, Maule Region, Chile"
    },
    {
      "lat": -35.38906995959708,
      "lon": -71.63953191067381,
      "geoinfo": {
        "display_name": "Avenida Costanera Norte, Valles de Lircay I, Lircay, Talca, Provincia de Talca, Maule Region, 3461761, Chile",
        "road": "Avenida Costanera Norte",
        "house_number": null,
        "neighbourhood": null,
        "suburb": "Lircay",
        "city_district": null,
        "city": "Talca",
        "state": "Maule Region",
        "postcode": "3461761",
        "country": "Chile",
        "country_code": "cl"
      },
      "address": "842, Avenida Costanera Norte, Valles de Lircay I, Lircay, Talca, Provincia de Talca, Maule Region, 3461761, Chile"
    },
    {
      "lat": -35.384261262346406,
      "lon": -71.65723914813923,
      "geoinfo": {
        "display_name": "Ruta K-120, Población Don Renato II, Barrio Norte, Talca, Provincia de Talca, Maule Region, 3461632, Chile",
        "road": "Ruta K-120",
        "house_number": null,
        "neighbourhood": "Población Don Renato II",
        "suburb": "Barrio Norte",
        "city_district": null,
        "city": "Talca",
        "state": "Maule Region",
        "postcode": "3461632",
        "country": "Chile",
        "country_code": "cl"
      },
      "address": "Ruta K-120, Población Don Renato II, Barrio Norte, Talca, Provincia de Talca, Maule Region, 3461632, Chile"
    }
  ],
  "updated_at": "2025-10-19T01:47:05.890875+00:00",
  "_kind": "geo_samples"
}