{
  "country_code": "CL",
  "country": "Chile",
  "city": "Valdivia",
  "geonameid": 3868707,
  "target_addresses": 2,
  "samples": [
    {
      "lat": -39.80834696068744,
      "lon": -73.22162001642496,
      "geoinfo": {
        "display_name": "Toconao, Norte Grande I, Las Ánimas, Valdivia, Provincia de Valdivia, Los Ríos, 5110679, Chile",
        "road": "Toconao",
        "house_number": null,
        "neighbourhood": "Norte Grande I",
        "suburb": "Las Ánimas",
        "city_district": null,
        "city": "Valdivia",
        "state": "Los Ríos",
        "postcode": "5110679",
        "country": "Chile",
        "country_code": "cl"
      },
      "address": "Toconao, Valdivia, Los Ríos, Chile"
    },
    {
      "lat": -39.80563193518207,
      "lon": -73.20015451245797,
      "geoinfo": {
        "display_name": "Ruta 204, Torreones V, Collico, Valdivia, Provincia de Valdivia, Los Ríos, 5090262, Chile",
        "road": "Ruta 204",
        "house_number": null,
        "neighbourhood": "Torreones V",
        "suburb": "Collico",
        "city_district": null,
        "city": "Valdivia",
        "state": "Los Ríos",
        "postcode": "5090262",
        "country": "Chile",
        "country_code": "cl"
      },
      "address": "Ruta 204, Valdivia, Los Ríos, Chile"
    },
    {
      "lat": -39.783945083361964,
      "lon": -73.24800146148677,
      "geoinfo": {
        "display_name": "Cabo Blanco Alto, Valdivia, Provincia de Valdivia, Los Ríos, 5090000, Chile",
        "road": null,
        "house_number": null,
        "neighbourhood": null,
        "suburb": null,
        "city_district": null,
        "city": "Valdivia",
        "state": "Los Ríos",
        "postcode": "5090000",
        "country": "Chile",
        "country_code": "cl"
      },
      "address": "100, Cabo Blanco Alto, Valdivia, Provincia de Valdivia, Los Ríos, 5090000, Chile"
    },
    {
      "lat": -39.794016757027194,
      "lon": -73.24096433382388,
      "geoinfo": {
        "display_name": "Las Marías Airport, Ruta T-344, Valdivia, Provincia de Valdivia, Los Ríos, 5110212, Chile",
        "road": "Ruta T-344",
        "house_number": null,
        "neighbourhood": null,
        "suburb": null,
        "city_district": null,
        "city": "Valdivia",
        "state": "Los Ríos",
        "postcode": "5110212",
        "country": "Chile",
        "country_code": "cl"
      },
      "address": "Las Marías Airport, Ruta T-344, Valdivia, Provincia de Valdivia, Los Ríos, 5110212, Chile"
    }
  ],
  "updated_at": "2025-10-19T03:32:41.866798+00:00",
  "_kind": "geo_samples"
}