{
  "country_code": "BO",
  "country": "Bolivia",
  "city": "Caranavi",
  "geonameid": 3922037,
  "target_addresses": 3,
  "samples": [
    {
      "lat": -15.838433185684405,
      "lon": -67.53309228244301,
      "geoinfo": {
        "display_name": "Bautista Saavedra C, Caranavi, La Paz, Bolivia",
        "road": null,
        "house_number": null,
        "neighbourhood": null,
        "suburb": null,
        "city_district": null,
        "city": "Caranavi",
        "state": "La Paz",
        "postcode": null,
        "country": "Bolivia",
        "country_code": "bo"
      },
      "address": "Caranavi, La Paz, Bolivia"
    },
    {
      "lat": -15.84346239305557,
      "lon": -67.53786694706413,
      "geoinfo": {
        "display_name": "RN3: Quiquibey-Bella Vista-Caranavi, Corpus Christi, Bautista Saavedra B, Caranavi, La Paz, Bolivia",
        "road": "RN3: Quiquibey-Bella Vista-Caranavi",
        "house_number": null,
        "neighbourhood": null,
        "suburb": null,
        "city_district": null,
        "city": "Caranavi",
        "state": "La Paz",
        "postcode": null,
        "country": "Bolivia",
        "country_code": "bo"
      },
      "address": "RN3: Quiquibey-Bella Vista-Caranavi, Caranavi, La Paz, Bolivia"
    },
    {
      "lat": -15.850006899793325,
      "lon": -67.54785138980833,
      "geoinfo": {
        "display_name": "Urbanizaci칩n Villa La Paz, Corpus Christi, Bautista Saavedra B, Caranavi, La Paz, Bolivia",
        "road": null,
        "house_number": null,
        "neighbourhood": "Urbanizaci칩n Villa La Paz",
        "suburb": null,
        "city_district": null,
        "city": "Caranavi",
        "state": "La Paz",
        "postcode": null,
        "country": "Bolivia",
        "country_code": "bo"
      },
      "address": "Urbanizaci칩n Villa La Paz, Caranavi, La Paz, Bolivia"
    },
    {
      "lat": -15.813277442100878,
      "lon": -67.5531241512917,
      "geoinfo": {
        "display_name": "Urbanizacion Alto Caranavi, Caranavi, La Paz, Bolivia",
        "road": null,
        "house_number": null,
        "neighbourhood": "Urbanizacion Alto Caranavi",
        "suburb": null,
        "city_district": null,
        "city": "Caranavi",
        "state": "La Paz",
        "postcode": null,
        "country": "Bolivia",
        "country_code": "bo"
      },
      "address": "901, Urbanizacion Alto Caranavi, Caranavi, 43358 La Paz, Bolivia"
    },
    {
      "lat": -15.856498721549997,
      "lon": -67.55513214619575,
      "geoinfo": {
        "display_name": "Pe침as, Fiscal La Florida, Caranavi, La Paz, Bolivia",
        "road": null,
        "house_number": null,
        "neighbourhood": null,
        "suburb": null,
        "city_district": null,
        "city": "Caranavi",
        "state": "La Paz",
        "postcode": null,
        "country": "Bolivia",
        "country_code": "bo"
      },
      "address": "364, Caranavi, 39689 La Paz, Bolivia"
    },
    {
      "lat": -15.85191227767816,
      "lon": -67.5855873137085,
      "geoinfo": {
        "display_name": "Uyunense, Alto Broncini, Bajo Boncini, Caranavi, La Paz, Bolivia",
        "road": null,
        "house_number": null,
        "neighbourhood": null,
        "suburb": null,
        "city_district": null,
        "city": "Caranavi",
        "state": "La Paz",
        "postcode": null,
        "country": "Bolivia",
        "country_code": "bo"
      },
      "address": "562, Caranavi, 12614 La Paz, Bolivia"
    }
  ],
  "updated_at": "2025-10-19T02:53:51.632757+00:00",
  "_kind": "geo_samples"
}