{
  "country_code": "BO",
  "country": "Bolivia",
  "city": "Cochabamba",
  "geonameid": 3919968,
  "target_addresses": 3,
  "samples": [
    {
      "lat": -17.415811992580554,
      "lon": -66.15312591700886,
      "geoinfo": {
        "display_name": "Parque Piraí, Cochabamba, Cercado, Cochabamba, Bolivia",
        "road": null,
        "house_number": null,
        "neighbourhood": "Parque Piraí",
        "suburb": null,
        "city_district": null,
        "city": "Cochabamba",
        "state": "Cochabamba",
        "postcode": null,
        "country": "Bolivia",
        "country_code": "bo"
      },
      "address": "Parque Piraí, Cochabamba, Cochabamba, Bolivia"
    },
    {
      "lat": -17.420741043549413,
      "lon": -66.15984054770988,
      "geoinfo": {
        "display_name": "Avenida Mártires de la Democracia, San Luis Copacabana, Alejo Calatayud, Cochabamba, Cercado, Cochabamba, Bolivia",
        "road": "Avenida Mártires de la Democracia",
        "house_number": null,
        "neighbourhood": "San Luis Copacabana",
        "suburb": "Alejo Calatayud",
        "city_district": null,
        "city": "Cochabamba",
        "state": "Cochabamba",
        "postcode": null,
        "country": "Bolivia",
        "country_code": "bo"
      },
      "address": "Avenida Mártires de la Democracia, Cochabamba, Cochabamba, Bolivia"
    },
    {
      "lat": -17.36654050155191,
      "lon": -66.14390529119872,
      "geoinfo": {
        "display_name": "Área Deportiva Villa Moscú, Calle Los Lirios, Villa Moscú, Adela Zamudio, Cochabamba, Cercado, Cochabamba, Bolivia",
        "road": "Calle Los Lirios",
        "house_number": null,
        "neighbourhood": "Villa Moscú",
        "suburb": "Adela Zamudio",
        "city_district": null,
        "city": "Cochabamba",
        "state": "Cochabamba",
        "postcode": null,
        "country": "Bolivia",
        "country_code": "bo"
      },
      "address": "Calle Los Lirios, Cochabamba, Cochabamba, Bolivia"
    },
    {
      "lat": -17.36088699535022,
      "lon": -66.12088755229982,
      "geoinfo": {
        "display_name": "Primavera, Pacata, Chapare, Cochabamba, Bolivia",
        "road": null,
        "house_number": null,
        "neighbourhood": "Primavera",
        "suburb": "Pacata",
        "city_district": null,
        "city": null,
        "state": "Cochabamba",
        "postcode": null,
        "country": "Bolivia",
        "country_code": "bo"
      },
      "address": "381, Primavera, Pacata, Chapare, 65889 Cochabamba, Bolivia"
    },
    {
      "lat": -17.358963258680635,
      "lon": -66.15334587034265,
      "geoinfo": {
        "display_name": "Calle Claure, Cochabamba, Cercado, Cochabamba, Bolivia",
        "road": null,
        "house_number": null,
        "neighbourhood": "Calle Claure",
        "suburb": null,
        "city_district": null,
        "city": "Cochabamba",
        "state": "Cochabamba",
        "postcode": null,
        "country": "Bolivia",
        "country_code": "bo"
      },
      "address": "511, Calle Claure, Cochabamba, Cercado, 48299 Cochabamba, Bolivia"
    },
    {
      "lat": -17.351237764886097,
      "lon": -66.13223118071878,
      "geoinfo": {
        "display_name": "Hotel Colina, Calle Jacinto Anaya, Oroni Pampa, Estancia Pakollo, Cochabamba, Cercado, Cochabamba, Bolivia",
        "road": "Calle Jacinto Anaya",
        "house_number": null,
        "neighbourhood": "Oroni Pampa",
        "suburb": null,
        "city_district": null,
        "city": "Cochabamba",
        "state": "Cochabamba",
        "postcode": null,
        "country": "Bolivia",
        "country_code": "bo"
      },
      "address": "861, Calle Jacinto Anaya, Cochabamba, 19185 Cochabamba, Bolivia"
    }
  ],
  "updated_at": "2025-10-19T02:43:37.329646+00:00",
  "_kind": "geo_samples"
}