{
  "country_code": "BO",
  "country": "Bolivia",
  "city": "Colcapirhua",
  "geonameid": 3919902,
  "target_addresses": 3,
  "samples": [
    {
      "lat": -17.40283944630664,
      "lon": -66.19556565524017,
      "geoinfo": {
        "display_name": "Calle E. Balls, Magisterio Rural Villa Busch, Molle, Cochabamba, Cercado, Cochabamba, Bolivia",
        "road": "Calle E. Balls",
        "house_number": null,
        "neighbourhood": "Magisterio Rural Villa Busch",
        "suburb": "Molle",
        "city_district": null,
        "city": "Cochabamba",
        "state": "Cochabamba",
        "postcode": null,
        "country": "Bolivia",
        "country_code": "bo"
      },
      "address": "882, Calle E. Balls, Magisterio Rural Villa Busch, Molle, Cochabamba, Cercado, 84886 Cochabamba, Bolivia"
    },
    {
      "lat": -17.359762905270294,
      "lon": -66.25245760565728,
      "geoinfo": {
        "display_name": "Pandoja, Quillacollo, Cochabamba, Bolivia",
        "road": null,
        "house_number": null,
        "neighbourhood": null,
        "suburb": null,
        "city_district": null,
        "city": "Pandoja",
        "state": "Cochabamba",
        "postcode": null,
        "country": "Bolivia",
        "country_code": "bo"
      },
      "address": "169, Pandoja, Quillacollo, 56542 Cochabamba, Bolivia"
    },
    {
      "lat": -17.365682456867138,
      "lon": -66.20090181710248,
      "geoinfo": {
        "display_name": "Calle Tucuypaj, Linde Sud, Cochabamba, Quillacollo, Cochabamba, Bolivia",
        "road": "Calle Tucuypaj",
        "house_number": null,
        "neighbourhood": "Linde Sud",
        "suburb": null,
        "city_district": null,
        "city": "Cochabamba",
        "state": "Cochabamba",
        "postcode": null,
        "country": "Bolivia",
        "country_code": "bo"
      },
      "address": "211, Calle Tucuypaj, Linde Sud, Cochabamba, Quillacollo, 23622 Cochabamba, Bolivia"
    }
  ],
  "updated_at": "2025-10-19T03:04:55.164793+00:00",
  "_kind": "geo_samples"
}