{
  "country_code": "BO",
  "country": "Bolivia",
  "city": "Guayaramerín",
  "geonameid": 3915350,
  "target_addresses": 16,
  "samples": [
    {
      "lat": -10.849481892759188,
      "lon": -65.38111044577184,
      "geoinfo": {
        "display_name": "RN8: Riberalta-Guayaramerin, San Agustin, Canton Guayamerin, Guayaramerín, Beni, Bolivia",
        "road": "RN8: Riberalta-Guayaramerin",
        "house_number": null,
        "neighbourhood": null,
        "suburb": null,
        "city_district": "Canton Guayamerin",
        "city": "Guayaramerín",
        "state": "Beni",
        "postcode": null,
        "country": "Bolivia",
        "country_code": "bo"
      },
      "address": "RN8: Riberalta-Guayaramerin, Guayaramerín, Beni, Bolivia"
    },
    {
      "lat": -10.829028930427707,
      "lon": -65.32628830024336,
      "geoinfo": {
        "display_name": "Canton Guayamerin, Guayaramerín, Beni, Bolivia",
        "road": null,
        "house_number": null,
        "neighbourhood": null,
        "suburb": null,
        "city_district": "Canton Guayamerin",
        "city": "Guayaramerín",
        "state": "Beni",
        "postcode": null,
        "country": "Bolivia",
        "country_code": "bo"
      },
      "address": "Canton Guayamerin, Guayaramerín, Beni, Bolivia"
    },
    {
      "lat": -10.84230387639899,
      "lon": -65.33433083610349,
      "geoinfo": {
        "display_name": "Camino Firmeza, 1 de Mayo, Canton Guayamerin, Guayaramerín, Beni, Bolivia",
        "road": "Camino Firmeza",
        "house_number": null,
        "neighbourhood": null,
        "suburb": null,
        "city_district": "Canton Guayamerin",
        "city": "Guayaramerín",
        "state": "Beni",
        "postcode": null,
        "country": "Bolivia",
        "country_code": "bo"
      },
      "address": "Camino Firmeza, Guayaramerín, Beni, Bolivia"
    },
    {
      "lat": -10.843575291917222,
      "lon": -65.33379920667716,
      "geoinfo": {
        "display_name": "Camino Firmeza, 1 de Mayo, Canton Guayamerin, Guayaramerín, Beni, Bolivia",
        "road": "Camino Firmeza",
        "house_number": null,
        "neighbourhood": null,
        "suburb": null,
        "city_district": "Canton Guayamerin",
        "city": "Guayaramerín",
        "state": "Beni",
        "postcode": null,
        "country": "Bolivia",
        "country_code": "bo"
      },
      "address": "Camino Firmeza, Guayaramerín, 89089 Beni, Bolivia"
    },
    {
      "lat": -10.851721598134898,
      "lon": -65.36459490273506,
      "geoinfo": {
        "display_name": "El Porvenir, Canton Guayamerin, Guayaramerín, Antonio Vaca Díez, Beni, Bolivia",
        "road": null,
        "house_number": null,
        "neighbourhood": null,
        "suburb": null,
        "city_district": "Canton Guayamerin",
        "city": "Guayaramerín",
        "state": "Beni",
        "postcode": null,
        "country": "Bolivia",
        "country_code": "bo"
      },
      "address": "Canton Guayamerin, Guayaramerín, 26151 Beni, Bolivia"
    },
    {
      "lat": -10.80094289526434,
      "lon": -65.35374010862371,
      "geoinfo": {
        "display_name": "Canton Guayamerin, Guayaramerín, Beni, Bolivia",
        "road": null,
        "house_number": null,
        "neighbourhood": null,
        "suburb": null,
        "city_district": "Canton Guayamerin",
        "city": "Guayaramerín",
        "state": "Beni",
        "postcode": null,
        "country": "Bolivia",
        "country_code": "bo"
      },
      "address": "Canton Guayamerin, Guayaramerín, 95449 Beni, Bolivia"
    },
    {
      "lat": -10.846097568899335,
      "lon": -65.35824421214403,
      "geoinfo": {
        "display_name": "Avenida Alcides d'Orbigny, Canton Guayamerin, Guayaramerín, Antonio Vaca Díez, Beni, Bolivia",
        "road": "Avenida Alcides d'Orbigny",
        "house_number": null,
        "neighbourhood": null,
        "suburb": null,
        "city_district": "Canton Guayamerin",
        "city": "Guayaramerín",
        "state": "Beni",
        "postcode": null,
        "country": "Bolivia",
        "country_code": "bo"
      },
      "address": "079, Avenida Alcides d'Orbigny, Canton Guayamerin, Guayaramerín, Antonio Vaca Díez, 73017 Beni, Bolivia"
    },
    {
      "lat": -10.84325700365655,
      "lon": -65.32730803754036,
      "geoinfo": {
        "display_name": "Ecia. La Cruz, Canton Guayamerin, Guayaramerín, Beni, Bolivia",
        "road": null,
        "house_number": null,
        "neighbourhood": null,
        "suburb": null,
        "city_district": "Canton Guayamerin",
        "city": "Guayaramerín",
        "state": "Beni",
        "postcode": null,
        "country": "Bolivia",
        "country_code": "bo"
      },
      "address": "413, Ecia. La Cruz, Canton Guayamerin, Guayaramerín, 00285 Beni, Bolivia"
    },
    {
      "lat": -10.800420366207709,
      "lon": -65.39186933879152,
      "geoinfo": {
        "display_name": "Villa Purísima, Canton Guayamerin, Guayaramerín, Beni, Bolivia",
        "road": null,
        "house_number": null,
        "neighbourhood": null,
        "suburb": null,
        "city_district": "Canton Guayamerin",
        "city": "Guayaramerín",
        "state": "Beni",
        "postcode": null,
        "country": "Bolivia",
        "country_code": "bo"
      },
      "address": "745, Villa Purísima, Canton Guayamerin, Guayaramerín, 03276 Beni, Bolivia"
    },
    {
      "lat": -10.85020800506401,
      "lon": -65.34677716030701,
      "geoinfo": {
        "display_name": "Canton Guayamerin, Guayaramerín, Antonio Vaca Díez, Beni, Bolivia",
        "road": null,
        "house_number": null,
        "neighbourhood": null,
        "suburb": null,
        "city_district": "Canton Guayamerin",
        "city": "Guayaramerín",
        "state": "Beni",
        "postcode": null,
        "country": "Bolivia",
        "country_code": "bo"
      },
      "address": "090, Canton Guayamerin, Guayaramerín, 75511 Beni, Bolivia"
    },
    {
      "lat": -10.841123249131945,
      "lon": -65.33848992260414,
      "geoinfo": {
        "display_name": "Camino Firmeza, 1 de Mayo, Canton Guayamerin, Guayaramerín, Beni, Bolivia",
        "road": "Camino Firmeza",
        "house_number": null,
        "neighbourhood": null,
        "suburb": null,
        "city_district": "Canton Guayamerin",
        "city": "Guayaramerín",
        "state": "Beni",
        "postcode": null,
        "country": "Bolivia",
        "country_code": "bo"
      },
      "address": "825, Camino Firmeza, 1 de Mayo, Canton Guayamerin, Guayaramerín, Beni, Bolivia"
    },
    {
      "lat": -10.845870401906833,
      "lon": -65.32992424913931,
      "geoinfo": {
        "display_name": "Camino Firmeza, 1 de Mayo, Canton Guayamerin, Guayaramerín, Beni, Bolivia",
        "road": "Camino Firmeza",
        "house_number": null,
        "neighbourhood": null,
        "suburb": null,
        "city_district": "Canton Guayamerin",
        "city": "Guayaramerín",
        "state": "Beni",
        "postcode": null,
        "country": "Bolivia",
        "country_code": "bo"
      },
      "address": "483, Camino Firmeza, 1 de Mayo, Canton Guayamerin, Guayaramerín, Beni, Bolivia"
    },
    {
      "lat": -10.847724509584053,
      "lon": -65.3867772859259,
      "geoinfo": {
        "display_name": "Canton Guayamerin, Guayaramerín, Beni, Bolivia",
        "road": null,
        "house_number": null,
        "neighbourhood": null,
        "suburb": null,
        "city_district": "Canton Guayamerin",
        "city": "Guayaramerín",
        "state": "Beni",
        "postcode": null,
        "country": "Bolivia",
        "country_code": "bo"
      },
      "address": "006, Canton Guayamerin, Guayaramerín, 04654 Beni, Bolivia"
    },
    {
      "lat": -10.846687975220261,
      "lon": -65.38281755073187,
      "geoinfo": {
        "display_name": "Canton Guayamerin, Guayaramerín, Beni, Bolivia",
        "road": null,
        "house_number": null,
        "neighbourhood": null,
        "suburb": null,
        "city_district": "Canton Guayamerin",
        "city": "Guayaramerín",
        "state": "Beni",
        "postcode": null,
        "country": "Bolivia",
        "country_code": "bo"
      },
      "address": "785, Canton Guayamerin, Guayaramerín, 94362 Beni, Bolivia"
    },
    {
      "lat": -10.84384534901952,
      "lon": -65.39553036447276,
      "geoinfo": {
        "display_name": "Canton Guayamerin, Guayaramerín, Beni, Bolivia",
        "road": null,
        "house_number": null,
        "neighbourhood": null,
        "suburb": null,
        "city_district": "Canton Guayamerin",
        "city": "Guayaramerín",
        "state": "Beni",
        "postcode": null,
        "country": "Bolivia",
        "country_code": "bo"
      },
      "address": "961, Canton Guayamerin, Guayaramerín, 31744 Beni, Bolivia"
    },
    {
      "lat": -10.837973013841722,
      "lon": -65.39928846985299,
      "geoinfo": {
        "display_name": "Rancho Nueva Canaan, Canton Guayamerin, Guayaramerín, Beni, Bolivia",
        "road": null,
        "house_number": null,
        "neighbourhood": null,
        "suburb": null,
        "city_district": "Canton Guayamerin",
        "city": "Guayaramerín",
        "state": "Beni",
        "postcode": null,
        "country": "Bolivia",
        "country_code": "bo"
      },
      "address": "653, Rancho Nueva Canaan, Canton Guayamerin, Guayaramerín, 09489 Beni, Bolivia"
    },
    {
      "lat": -10.830991167840146,
      "lon": -65.34332644124454,
      "geoinfo": {
        "display_name": "Canton Guayamerin, Guayaramerín, Beni, Bolivia",
        "road": null,
        "house_number": null,
        "neighbourhood": null,
        "suburb": null,
        "city_district": "Canton Guayamerin",
        "city": "Guayaramerín",
        "state": "Beni",
        "postcode": null,
        "country": "Bolivia",
        "country_code": "bo"
      },
      "address": "250, Canton Guayamerin, Guayaramerín, 49811 Beni, Bolivia"
    }
  ],
  "updated_at": "2025-10-19T03:33:07.957450+00:00",
  "_kind": "geo_samples"
}