{
  "country_code": "BO",
  "country": "Bolivia",
  "city": "Punata",
  "geonameid": 3907080,
  "target_addresses": 17,
  "samples": [
    {
      "lat": -17.58078776897879,
      "lon": -65.85445596814812,
      "geoinfo": {
        "display_name": "D4316, Belzu, Pujru, Punata, Cochabamba, Bolivia",
        "road": "D4316",
        "house_number": null,
        "neighbourhood": null,
        "suburb": null,
        "city_district": null,
        "city": "Punata",
        "state": "Cochabamba",
        "postcode": null,
        "country": "Bolivia",
        "country_code": "bo"
      },
      "address": "D4316, Punata, Cochabamba, Bolivia"
    },
    {
      "lat": -17.56623843405999,
      "lon": -65.82260237220034,
      "geoinfo": {
        "display_name": "Camacho Rancho, Rosal, Punata, Cochabamba, Bolivia",
        "road": null,
        "house_number": null,
        "neighbourhood": null,
        "suburb": null,
        "city_district": null,
        "city": "Punata",
        "state": "Cochabamba",
        "postcode": null,
        "country": "Bolivia",
        "country_code": "bo"
      },
      "address": "Punata, Cochabamba, Bolivia"
    },
    {
      "lat": -17.52910060684287,
      "lon": -65.87439859839219,
      "geoinfo": {
        "display_name": "Avenida Mayor Desiderio Rocha, Villa José Quintín Mendoza, Punata, Cochabamba, Bolivia",
        "road": "Avenida Mayor Desiderio Rocha",
        "house_number": null,
        "neighbourhood": null,
        "suburb": null,
        "city_district": null,
        "city": "Villa José Quintín Mendoza",
        "state": "Cochabamba",
        "postcode": null,
        "country": "Bolivia",
        "country_code": "bo"
      },
      "address": "Avenida Mayor Desiderio Rocha, Punata, Cochabamba, Bolivia"
    },
    {
      "lat": -17.559311607403657,
      "lon": -65.84228527151065,
      "geoinfo": {
        "display_name": "Camacho Rancho, Rosal, Punata, Cochabamba, Bolivia",
        "road": null,
        "house_number": null,
        "neighbourhood": null,
        "suburb": null,
        "city_district": null,
        "city": "Punata",
        "state": "Cochabamba",
        "postcode": null,
        "country": "Bolivia",
        "country_code": "bo"
      },
      "address": "Punata, 14655 Cochabamba, Bolivia"
    },
    {
      "lat": -17.52780484366472,
      "lon": -65.82007421077795,
      "geoinfo": {
        "display_name": "Chillcar Grande, Punata, Cochabamba, Bolivia",
        "road": null,
        "house_number": null,
        "neighbourhood": null,
        "suburb": null,
        "city_district": null,
        "city": "Punata",
        "state": "Cochabamba",
        "postcode": null,
        "country": "Bolivia",
        "country_code": "bo"
      },
      "address": "Punata, 05431 Cochabamba, Bolivia"
    },
    {
      "lat": -17.561351023702457,
      "lon": -65.82611060153762,
      "geoinfo": {
        "display_name": "Punata, Cochabamba, Bolivia",
        "road": null,
        "house_number": null,
        "neighbourhood": null,
        "suburb": null,
        "city_district": null,
        "city": "Punata",
        "state": "Cochabamba",
        "postcode": null,
        "country": "Bolivia",
        "country_code": "bo"
      },
      "address": "Punata, 99893 Cochabamba, Bolivia"
    },
    {
      "lat": -17.536403997809344,
      "lon": -65.79944433049293,
      "geoinfo": {
        "display_name": "Chaupisuyo Grande, Capilla, Punata, Cochabamba, Bolivia",
        "road": null,
        "house_number": null,
        "neighbourhood": null,
        "suburb": null,
        "city_district": null,
        "city": "Punata",
        "state": "Cochabamba",
        "postcode": null,
        "country": "Bolivia",
        "country_code": "bo"
      },
      "address": "830, Chaupisuyo Grande, Capilla, Punata, 51810 Cochabamba, Bolivia"
    },
    {
      "lat": -17.51217715384004,
      "lon": -65.83180705981123,
      "geoinfo": {
        "display_name": "Waña Kahua Chico, Paracaya Linde, Villa José Quintín Mendoza, Punata, Cochabamba, Bolivia",
        "road": null,
        "house_number": null,
        "neighbourhood": null,
        "suburb": null,
        "city_district": null,
        "city": "Villa José Quintín Mendoza",
        "state": "Cochabamba",
        "postcode": null,
        "country": "Bolivia",
        "country_code": "bo"
      },
      "address": "840, Punata, 16135 Cochabamba, Bolivia"
    },
    {
      "lat": -17.574860610130184,
      "lon": -65.85930834091155,
      "geoinfo": {
        "display_name": "Chirusi Kollu, Jusku Molle, Punata, Cochabamba, Bolivia",
        "road": null,
        "house_number": null,
        "neighbourhood": null,
        "suburb": null,
        "city_district": null,
        "city": "Punata",
        "state": "Cochabamba",
        "postcode": null,
        "country": "Bolivia",
        "country_code": "bo"
      },
      "address": "555, Chirusi Kollu, Jusku Molle, Punata, 82142 Cochabamba, Bolivia"
    },
    {
      "lat": -17.541930480023918,
      "lon": -65.87251693276329,
      "geoinfo": {
        "display_name": "Roman Calle, Punata, Cochabamba, Bolivia",
        "road": null,
        "house_number": null,
        "neighbourhood": null,
        "suburb": null,
        "city_district": null,
        "city": "Punata",
        "state": "Cochabamba",
        "postcode": null,
        "country": "Bolivia",
        "country_code": "bo"
      },
      "address": "146, Roman Calle, Punata, 71104 Cochabamba, Bolivia"
    },
    {
      "lat": -17.53153764346357,
      "lon": -65.84558441550324,
      "geoinfo": {
        "display_name": "Mayu Huyu, Rumi Rumi, Punata, Cochabamba, Bolivia",
        "road": null,
        "house_number": null,
        "neighbourhood": "Mayu Huyu",
        "suburb": null,
        "city_district": null,
        "city": "Punata",
        "state": "Cochabamba",
        "postcode": null,
        "country": "Bolivia",
        "country_code": "bo"
      },
      "address": "735, Mayu Huyu, Rumi Rumi, Punata, 76761 Cochabamba, Bolivia"
    },
    {
      "lat": -17.512093848414107,
      "lon": -65.82363930788786,
      "geoinfo": {
        "display_name": "Waña Kahua Chico, Villa José Quintín Mendoza, Punata, Cochabamba, Bolivia",
        "road": null,
        "house_number": null,
        "neighbourhood": null,
        "suburb": null,
        "city_district": null,
        "city": "Villa José Quintín Mendoza",
        "state": "Cochabamba",
        "postcode": null,
        "country": "Bolivia",
        "country_code": "bo"
      },
      "address": "877, Punata, 28682 Cochabamba, Bolivia"
    },
    {
      "lat": -17.563112849756443,
      "lon": -65.85042323919016,
      "geoinfo": {
        "display_name": "Belzu, Pujru, Punata, Cochabamba, Bolivia",
        "road": null,
        "house_number": null,
        "neighbourhood": null,
        "suburb": null,
        "city_district": null,
        "city": "Punata",
        "state": "Cochabamba",
        "postcode": null,
        "country": "Bolivia",
        "country_code": "bo"
      },
      "address": "948, Belzu, Pujru, Punata, 80628 Cochabamba, Bolivia"
    },
    {
      "lat": -17.535949648277892,
      "lon": -65.85205634762012,
      "geoinfo": {
        "display_name": "Mayu Huyu, Punata, Cochabamba, Bolivia",
        "road": null,
        "house_number": null,
        "neighbourhood": "Mayu Huyu",
        "suburb": null,
        "city_district": null,
        "city": "Punata",
        "state": "Cochabamba",
        "postcode": null,
        "country": "Bolivia",
        "country_code": "bo"
      },
      "address": "760, Mayu Huyu, Punata, 59963 Cochabamba, Bolivia"
    },
    {
      "lat": -17.552640696735214,
      "lon": -65.84655952834505,
      "geoinfo": {
        "display_name": "Rosal, Punata, Cochabamba, Bolivia",
        "road": null,
        "house_number": null,
        "neighbourhood": null,
        "suburb": null,
        "city_district": null,
        "city": "Punata",
        "state": "Cochabamba",
        "postcode": null,
        "country": "Bolivia",
        "country_code": "bo"
      },
      "address": "212, Rosal, Punata, 65662 Cochabamba, Bolivia"
    },
    {
      "lat": -17.51433662056939,
      "lon": -65.80532643419384,
      "geoinfo": {
        "display_name": "La Villa, Pucara, Punata, Cochabamba, Bolivia",
        "road": null,
        "house_number": null,
        "neighbourhood": null,
        "suburb": null,
        "city_district": null,
        "city": "Punata",
        "state": "Cochabamba",
        "postcode": null,
        "country": "Bolivia",
        "country_code": "bo"
      },
      "address": "741, La Villa, Pucara, Punata, 29317 Cochabamba, Bolivia"
    },
    {
      "lat": -17.544522612941503,
      "lon": -65.82930861059087,
      "geoinfo": {
        "display_name": "Rosal, Punata, Cochabamba, Bolivia",
        "road": null,
        "house_number": null,
        "neighbourhood": null,
        "suburb": null,
        "city_district": null,
        "city": "Punata",
        "state": "Cochabamba",
        "postcode": null,
        "country": "Bolivia",
        "country_code": "bo"
      },
      "address": "876, Rosal, Punata, 94760 Cochabamba, Bolivia"
    }
  ],
  "updated_at": "2025-10-19T03:32:40.988442+00:00",
  "_kind": "geo_samples"
}