{
  "country_code": "BO",
  "country": "Bolivia",
  "city": "Santa Cruz de la Sierra",
  "geonameid": 3904906,
  "target_addresses": 3,
  "samples": [
    {
      "lat": -17.787726530949563,
      "lon": -63.16042551113204,
      "geoinfo": {
        "display_name": "Terminal Bimodal Santa Cruz de la Sierra, Avenida Intermodal, COTECAR, Estación Argentina, Santa Cruz de la Sierra, Provincia Andrés Ibáñez, Santa Cruz, Bolivia",
        "road": "Avenida Intermodal",
        "house_number": null,
        "neighbourhood": "COTECAR",
        "suburb": "Estación Argentina",
        "city_district": null,
        "city": "Santa Cruz de la Sierra",
        "state": "Santa Cruz",
        "postcode": null,
        "country": "Bolivia",
        "country_code": "bo"
      },
      "address": "Avenida Intermodal, Santa Cruz de la Sierra, Santa Cruz, Bolivia"
    },
    {
      "lat": -17.79282617882285,
      "lon": -63.218233123742145,
      "geoinfo": {
        "display_name": "Calle 1, Los Mangales, Santa Cruz de la Sierra, Provincia Andrés Ibáñez, Santa Cruz, Bolivia",
        "road": "Calle 1",
        "house_number": null,
        "neighbourhood": "Los Mangales",
        "suburb": null,
        "city_district": null,
        "city": "Santa Cruz de la Sierra",
        "state": "Santa Cruz",
        "postcode": null,
        "country": "Bolivia",
        "country_code": "bo"
      },
      "address": "Calle 1, Santa Cruz de la Sierra, Santa Cruz, Bolivia"
    },
    {
      "lat": -17.800085302198244,
      "lon": -63.221936073620796,
      "geoinfo": {
        "display_name": "Avenida Piraí, Urb. La Floresta, Santa Cruz de la Sierra, Provincia Andrés Ibáñez, Santa Cruz, Bolivia",
        "road": "Avenida Piraí",
        "house_number": null,
        "neighbourhood": "Urb. La Floresta",
        "suburb": null,
        "city_district": null,
        "city": "Santa Cruz de la Sierra",
        "state": "Santa Cruz",
        "postcode": null,
        "country": "Bolivia",
        "country_code": "bo"
      },
      "address": "Avenida Piraí, Santa Cruz de la Sierra, Santa Cruz, Bolivia"
    },
    {
      "lat": -17.779541989091527,
      "lon": -63.20071981916767,
      "geoinfo": {
        "display_name": "Calle Enconada, Villa San Luis, Piraí, Santa Cruz de la Sierra, Provincia Andrés Ibáñez, Santa Cruz, Bolivia",
        "road": "Calle Enconada",
        "house_number": null,
        "neighbourhood": "Villa San Luis",
        "suburb": "Piraí",
        "city_district": null,
        "city": "Santa Cruz de la Sierra",
        "state": "Santa Cruz",
        "postcode": null,
        "country": "Bolivia",
        "country_code": "bo"
      },
      "address": "101, Calle Enconada, Villa San Luis, Piraí, Santa Cruz de la Sierra, Provincia Andrés Ibáñez, 75714 Santa Cruz, Bolivia"
    },
    {
      "lat": -17.77343846413928,
      "lon": -63.18791592376298,
      "geoinfo": {
        "display_name": "148, Calle Fortín Toledo, Bartos, Centro, Santa Cruz de la Sierra, Provincia Andrés Ibáñez, Santa Cruz, Bolivia",
        "road": "Calle Fortín Toledo",
        "house_number": "148",
        "neighbourhood": "Bartos",
        "suburb": "Centro",
        "city_district": null,
        "city": "Santa Cruz de la Sierra",
        "state": "Santa Cruz",
        "postcode": null,
        "country": "Bolivia",
        "country_code": "bo"
      },
      "address": "148, Calle Fortín Toledo, Bartos, Centro, Santa Cruz de la Sierra, Provincia Andrés Ibáñez, 33294 Santa Cruz, Bolivia"
    },
    {
      "lat": -17.809669483397254,
      "lon": -63.16786604676257,
      "geoinfo": {
        "display_name": "Calle Nueva Asunción, CONAVI Sur, Estación Argentina, Santa Cruz de la Sierra, Provincia Andrés Ibáñez, Santa Cruz, Bolivia",
        "road": "Calle Nueva Asunción",
        "house_number": null,
        "neighbourhood": "CONAVI Sur",
        "suburb": "Estación Argentina",
        "city_district": null,
        "city": "Santa Cruz de la Sierra",
        "state": "Santa Cruz",
        "postcode": null,
        "country": "Bolivia",
        "country_code": "bo"
      },
      "address": "133, Calle Nueva Asunción, CONAVI Sur, Estación Argentina, Santa Cruz de la Sierra, Provincia Andrés Ibáñez, 91455 Santa Cruz, Bolivia"
    }
  ],
  "updated_at": "2025-10-19T02:49:17.771011+00:00",
  "_kind": "geo_samples"
}