{
  "country_code": "BO",
  "country": "Bolivia",
  "city": "Tarija",
  "geonameid": 3903320,
  "target_addresses": 17,
  "samples": [
    {
      "lat": -21.518576081031494,
      "lon": -64.7158872285918,
      "geoinfo": {
        "display_name": "Avenida La Paz, Municipio Tarija, Provincia Cercado, Tarija, Bolivia",
        "road": "Avenida La Paz",
        "house_number": null,
        "neighbourhood": null,
        "suburb": null,
        "city_district": null,
        "city": "Municipio Tarija",
        "state": "Tarija",
        "postcode": null,
        "country": "Bolivia",
        "country_code": "bo"
      },
      "address": "Avenida La Paz, Tarija, Tarija, Bolivia"
    },
    {
      "lat": -21.52077466656806,
      "lon": -64.70767724281822,
      "geoinfo": {
        "display_name": "Municipio Tarija, Provincia Cercado, Tarija, Bolivia",
        "road": null,
        "house_number": null,
        "neighbourhood": null,
        "suburb": null,
        "city_district": null,
        "city": "Municipio Tarija",
        "state": "Tarija",
        "postcode": null,
        "country": "Bolivia",
        "country_code": "bo"
      },
      "address": "Tarija, Tarija, Bolivia"
    },
    {
      "lat": -21.508710156573482,
      "lon": -64.74188842489681,
      "geoinfo": {
        "display_name": "Calle Tomatitas, Municipio Tarija, Provincia Cercado, Tarija, Bolivia",
        "road": "Calle Tomatitas",
        "house_number": null,
        "neighbourhood": null,
        "suburb": null,
        "city_district": null,
        "city": "Municipio Tarija",
        "state": "Tarija",
        "postcode": null,
        "country": "Bolivia",
        "country_code": "bo"
      },
      "address": "Calle Tomatitas, Tarija, Tarija, Bolivia"
    },
    {
      "lat": -21.558895788325465,
      "lon": -64.69560521737127,
      "geoinfo": {
        "display_name": "Av. Ricardo Paita, Municipio Tarija, Provincia Cercado, Tarija, Bolivia",
        "road": "Av. Ricardo Paita",
        "house_number": null,
        "neighbourhood": null,
        "suburb": null,
        "city_district": null,
        "city": "Municipio Tarija",
        "state": "Tarija",
        "postcode": null,
        "country": "Bolivia",
        "country_code": "bo"
      },
      "address": "Av. Ricardo Paita, Tarija, 18719 Tarija, Bolivia"
    },
    {
      "lat": -21.536493650195233,
      "lon": -64.76697493870356,
      "geoinfo": {
        "display_name": "Calle El Churqui, Municipio Tarija, Provincia Cercado, Tarija, Bolivia",
        "road": "Calle El Churqui",
        "house_number": null,
        "neighbourhood": null,
        "suburb": null,
        "city_district": null,
        "city": "Municipio Tarija",
        "state": "Tarija",
        "postcode": null,
        "country": "Bolivia",
        "country_code": "bo"
      },
      "address": "Calle El Churqui, Tarija, 38897 Tarija, Bolivia"
    },
    {
      "lat": -21.555082267099564,
      "lon": -64.69638102173246,
      "geoinfo": {
        "display_name": "Calle Alberto Zanchez Rossel, Municipio Tarija, Provincia Cercado, Tarija, Bolivia",
        "road": "Calle Alberto Zanchez Rossel",
        "house_number": null,
        "neighbourhood": null,
        "suburb": null,
        "city_district": null,
        "city": "Municipio Tarija",
        "state": "Tarija",
        "postcode": null,
        "country": "Bolivia",
        "country_code": "bo"
      },
      "address": "Calle Alberto Zanchez Rossel, Municipio Tarija, Provincia Cercado, 67114 Tarija, Bolivia"
    },
    {
      "lat": -21.571426950436663,
      "lon": -64.70993356341495,
      "geoinfo": {
        "display_name": "Municipio Tarija, Provincia Cercado, Tarija, Bolivia",
        "road": null,
        "house_number": null,
        "neighbourhood": null,
        "suburb": null,
        "city_district": null,
        "city": "Municipio Tarija",
        "state": "Tarija",
        "postcode": null,
        "country": "Bolivia",
        "country_code": "bo"
      },
      "address": "768, Municipio Tarija, Provincia Cercado, 79134 Tarija, Bolivia"
    },
    {
      "lat": -21.508980620448344,
      "lon": -64.76717073113707,
      "geoinfo": {
        "display_name": "La Casona de Obrajes, Avenida El Paraiso, Barrio Los Olivos, Obrajes, Municipio Tarija, Provincia Cercado, Tarija, Bolivia",
        "road": "Avenida El Paraiso",
        "house_number": null,
        "neighbourhood": "Barrio Los Olivos",
        "suburb": null,
        "city_district": null,
        "city": "Municipio Tarija",
        "state": "Tarija",
        "postcode": null,
        "country": "Bolivia",
        "country_code": "bo"
      },
      "address": "234, Avenida El Paraiso, Tarija, 03748 Tarija, Bolivia"
    },
    {
      "lat": -21.51299715455623,
      "lon": -64.69910659012987,
      "geoinfo": {
        "display_name": "Municipio Tarija, Provincia Cercado, Tarija, Bolivia",
        "road": null,
        "house_number": null,
        "neighbourhood": null,
        "suburb": null,
        "city_district": null,
        "city": "Municipio Tarija",
        "state": "Tarija",
        "postcode": null,
        "country": "Bolivia",
        "country_code": "bo"
      },
      "address": "772, Municipio Tarija, Provincia Cercado, 67960 Tarija, Bolivia"
    },
    {
      "lat": -21.578554046434235,
      "lon": -64.73503840217226,
      "geoinfo": {
        "display_name": "Municipio Tarija, Provincia Cercado, Tarija, Bolivia",
        "road": null,
        "house_number": null,
        "neighbourhood": null,
        "suburb": null,
        "city_district": null,
        "city": "Municipio Tarija",
        "state": "Tarija",
        "postcode": null,
        "country": "Bolivia",
        "country_code": "bo"
      },
      "address": "265, Municipio Tarija, Provincia Cercado, 52311 Tarija, Bolivia"
    },
    {
      "lat": -21.530975036132833,
      "lon": -64.77694088514288,
      "geoinfo": {
        "display_name": "Municipio Tarija, Provincia Cercado, Tarija, Bolivia",
        "road": null,
        "house_number": null,
        "neighbourhood": null,
        "suburb": null,
        "city_district": null,
        "city": "Municipio Tarija",
        "state": "Tarija",
        "postcode": null,
        "country": "Bolivia",
        "country_code": "bo"
      },
      "address": "331, Municipio Tarija, Provincia Cercado, 67073 Tarija, Bolivia"
    },
    {
      "lat": -21.556262218192987,
      "lon": -64.7254732409278,
      "geoinfo": {
        "display_name": "Avenida San Juan Bautista de La Salle, Municipio Tarija, Provincia Cercado, Tarija, Bolivia",
        "road": "Avenida San Juan Bautista de La Salle",
        "house_number": null,
        "neighbourhood": null,
        "suburb": null,
        "city_district": null,
        "city": "Municipio Tarija",
        "state": "Tarija",
        "postcode": null,
        "country": "Bolivia",
        "country_code": "bo"
      },
      "address": "615, Avenida San Juan Bautista de La Salle, Municipio Tarija, Provincia Cercado, 31277 Tarija, Bolivia"
    },
    {
      "lat": -21.522650620608346,
      "lon": -64.75010343056606,
      "geoinfo": {
        "display_name": "Avenida Angel Baldiviezo, Barrio El Molino, Municipio Tarija, Provincia Cercado, Tarija, Bolivia",
        "road": "Avenida Angel Baldiviezo",
        "house_number": null,
        "neighbourhood": "Barrio El Molino",
        "suburb": null,
        "city_district": null,
        "city": "Municipio Tarija",
        "state": "Tarija",
        "postcode": null,
        "country": "Bolivia",
        "country_code": "bo"
      },
      "address": "876, Avenida Angel Baldiviezo, Barrio El Molino, Municipio Tarija, Provincia Cercado, 33732 Tarija, Bolivia"
    },
    {
      "lat": -21.508392213916125,
      "lon": -64.69160589364681,
      "geoinfo": {
        "display_name": "Avenida Gran Chaco, Municipio Tarija, Provincia Cercado, Tarija, Bolivia",
        "road": "Avenida Gran Chaco",
        "house_number": null,
        "neighbourhood": null,
        "suburb": null,
        "city_district": null,
        "city": "Municipio Tarija",
        "state": "Tarija",
        "postcode": null,
        "country": "Bolivia",
        "country_code": "bo"
      },
      "address": "746, Avenida Gran Chaco, Municipio Tarija, Provincia Cercado, 97855 Tarija, Bolivia"
    },
    {
      "lat": -21.569024016640277,
      "lon": -64.7185702317409,
      "geoinfo": {
        "display_name": "Municipio Tarija, Provincia Cercado, Tarija, Bolivia",
        "road": null,
        "house_number": null,
        "neighbourhood": null,
        "suburb": null,
        "city_district": null,
        "city": "Municipio Tarija",
        "state": "Tarija",
        "postcode": null,
        "country": "Bolivia",
        "country_code": "bo"
      },
      "address": "233, Municipio Tarija, Provincia Cercado, 20573 Tarija, Bolivia"
    },
    {
      "lat": -21.543118326462913,
      "lon": -64.76141637455461,
      "geoinfo": {
        "display_name": "Municipio Tarija, Provincia Cercado, Tarija, Bolivia",
        "road": null,
        "house_number": null,
        "neighbourhood": null,
        "suburb": null,
        "city_district": null,
        "city": "Municipio Tarija",
        "state": "Tarija",
        "postcode": null,
        "country": "Bolivia",
        "country_code": "bo"
      },
      "address": "446, Municipio Tarija, Provincia Cercado, 76730 Tarija, Bolivia"
    },
    {
      "lat": -21.540068745145373,
      "lon": -64.69910930824453,
      "geoinfo": {
        "display_name": "Calle Hector Pino, Municipio Tarija, Provincia Cercado, Tarija, Bolivia",
        "road": "Calle Hector Pino",
        "house_number": null,
        "neighbourhood": null,
        "suburb": null,
        "city_district": null,
        "city": "Municipio Tarija",
        "state": "Tarija",
        "postcode": null,
        "country": "Bolivia",
        "country_code": "bo"
      },
      "address": "506, Calle Hector Pino, Municipio Tarija, Provincia Cercado, 55232 Tarija, Bolivia"
    }
  ],
  "updated_at": "2025-10-19T03:32:16.116880+00:00",
  "_kind": "geo_samples"
}