{
  "country_code": "BO",
  "country": "Bolivia",
  "city": "Trinidad",
  "geonameid": 3902377,
  "target_addresses": 3,
  "samples": [
    {
      "lat": -14.862858264041263,
      "lon": -64.90697907258429,
      "geoinfo": {
        "display_name": "Trinidad Disperso, Santísima Trinidad, Cercado, Beni, Bolivia",
        "road": null,
        "house_number": null,
        "neighbourhood": null,
        "suburb": null,
        "city_district": null,
        "city": "Santísima Trinidad",
        "state": "Beni",
        "postcode": null,
        "country": "Bolivia",
        "country_code": "bo"
      },
      "address": "Trinidad, Beni, Bolivia"
    },
    {
      "lat": -14.859720501874303,
      "lon": -64.89969848194771,
      "geoinfo": {
        "display_name": "Anillo Protector Sur, Santísima Trinidad, Cercado, Beni, Bolivia",
        "road": "Anillo Protector Sur",
        "house_number": null,
        "neighbourhood": null,
        "suburb": null,
        "city_district": null,
        "city": "Santísima Trinidad",
        "state": "Beni",
        "postcode": null,
        "country": "Bolivia",
        "country_code": "bo"
      },
      "address": "Anillo Protector Sur, Trinidad, Beni, Bolivia"
    },
    {
      "lat": -14.83845217201555,
      "lon": -64.8863039074432,
      "geoinfo": {
        "display_name": "Avenida 3, Nueva Trinidad, Santísima Trinidad, Cercado, Beni, Bolivia",
        "road": "Avenida 3",
        "house_number": null,
        "neighbourhood": "Nueva Trinidad",
        "suburb": null,
        "city_district": null,
        "city": "Santísima Trinidad",
        "state": "Beni",
        "postcode": null,
        "country": "Bolivia",
        "country_code": "bo"
      },
      "address": "Avenida 3, Trinidad, Beni, Bolivia"
    },
    {
      "lat": -14.847011003647134,
      "lon": -64.92260115133693,
      "geoinfo": {
        "display_name": "Santísima Trinidad, Cercado, Beni, Bolivia",
        "road": null,
        "house_number": null,
        "neighbourhood": null,
        "suburb": null,
        "city_district": null,
        "city": "Santísima Trinidad",
        "state": "Beni",
        "postcode": null,
        "country": "Bolivia",
        "country_code": "bo"
      },
      "address": "712, Santísima Trinidad, Cercado, 91428 Beni, Bolivia"
    },
    {
      "lat": -14.815817347523272,
      "lon": -64.88883907802106,
      "geoinfo": {
        "display_name": "Calle San Ignacio de Moxos, Santísima Trinidad, Cercado, Beni, Bolivia",
        "road": "Calle San Ignacio de Moxos",
        "house_number": null,
        "neighbourhood": null,
        "suburb": null,
        "city_district": null,
        "city": "Santísima Trinidad",
        "state": "Beni",
        "postcode": null,
        "country": "Bolivia",
        "country_code": "bo"
      },
      "address": "445, Calle San Ignacio de Moxos, Santísima Trinidad, Cercado, 69935 Beni, Bolivia"
    },
    {
      "lat": -14.823102631247629,
      "lon": -64.91313468585028,
      "geoinfo": {
        "display_name": "Acceso al Aeropuerto, Santísima Trinidad, Cercado, Beni, Bolivia",
        "road": "Acceso al Aeropuerto",
        "house_number": null,
        "neighbourhood": null,
        "suburb": null,
        "city_district": null,
        "city": "Santísima Trinidad",
        "state": "Beni",
        "postcode": null,
        "country": "Bolivia",
        "country_code": "bo"
      },
      "address": "777, Acceso al Aeropuerto, Santísima Trinidad, Cercado, 26982 Beni, Bolivia"
    }
  ],
  "updated_at": "2025-10-19T02:52:32.605082+00:00",
  "_kind": "geo_samples"
}