{
  "country_code": "BO",
  "country": "Bolivia",
  "city": "Yacuiba",
  "geonameid": 3901178,
  "target_addresses": 3,
  "samples": [
    {
      "lat": -21.99886224507114,
      "lon": -63.66188940631698,
      "geoinfo": {
        "display_name": "Yacuiba, Yacuíba, Gran Chaco, Tarija, Bolivia",
        "road": null,
        "house_number": null,
        "neighbourhood": null,
        "suburb": null,
        "city_district": null,
        "city": "Yacuiba",
        "state": "Tarija",
        "postcode": null,
        "country": "Bolivia",
        "country_code": "bo"
      },
      "address": "Yacuiba, Tarija, Bolivia"
    },
    {
      "lat": -21.985239787100557,
      "lon": -63.671212983196696,
      "geoinfo": {
        "display_name": "RN9: Villamontes-Yacuiba, Yacuiba, Yacuíba, Gran Chaco, Tarija, Bolivia",
        "road": "RN9: Villamontes-Yacuiba",
        "house_number": null,
        "neighbourhood": null,
        "suburb": null,
        "city_district": null,
        "city": "Yacuiba",
        "state": "Tarija",
        "postcode": null,
        "country": "Bolivia",
        "country_code": "bo"
      },
      "address": "RN9: Villamontes-Yacuiba, Yacuiba, Tarija, Bolivia"
    },
    {
      "lat": -22.02623279761381,
      "lon": -63.672121141452955,
      "geoinfo": {
        "display_name": "Barrio Fray Quebracho, Yacuiba, Yacuíba, Gran Chaco, Tarija, Bolivia",
        "road": null,
        "house_number": null,
        "neighbourhood": "Barrio Fray Quebracho",
        "suburb": null,
        "city_district": null,
        "city": "Yacuiba",
        "state": "Tarija",
        "postcode": null,
        "country": "Bolivia",
        "country_code": "bo"
      },
      "address": "Barrio Fray Quebracho, Yacuiba, Tarija, Bolivia"
    },
    {
      "lat": -21.997161377084357,
      "lon": -63.705032103374435,
      "geoinfo": {
        "display_name": "Yacuíba, Gran Chaco, Tarija, Bolivia",
        "road": null,
        "house_number": null,
        "neighbourhood": null,
        "suburb": null,
        "city_district": null,
        "city": "Yacuíba",
        "state": "Tarija",
        "postcode": null,
        "country": "Bolivia",
        "country_code": "bo"
      },
      "address": "790, Yacuíba, Gran Chaco, 42637 Tarija, Bolivia"
    },
    {
      "lat": -21.99958347131564,
      "lon": -63.70412883003731,
      "geoinfo": {
        "display_name": "Yacuíba, Gran Chaco, Tarija, Bolivia",
        "road": null,
        "house_number": null,
        "neighbourhood": null,
        "suburb": null,
        "city_district": null,
        "city": "Yacuíba",
        "state": "Tarija",
        "postcode": null,
        "country": "Bolivia",
        "country_code": "bo"
      },
      "address": "953, Yacuíba, Gran Chaco, 59105 Tarija, Bolivia"
    },
    {
      "lat": -21.98525199958666,
      "lon": -63.69229093990164,
      "geoinfo": {
        "display_name": "Yacuiba, Yacuíba, Gran Chaco, Tarija, Bolivia",
        "road": null,
        "house_number": null,
        "neighbourhood": null,
        "suburb": null,
        "city_district": null,
        "city": "Yacuiba",
        "state": "Tarija",
        "postcode": null,
        "country": "Bolivia",
        "country_code": "bo"
      },
      "address": "909, Yacuiba, Yacuíba, Gran Chaco, 96572 Tarija, Bolivia"
    }
  ],
  "updated_at": "2025-10-19T02:43:12.401915+00:00",
  "_kind": "geo_samples"
}