{
  "country_code": "MK",
  "country": "North Macedonia",
  "city": "Bitola",
  "geonameid": 792578,
  "target_addresses": 3,
  "samples": [
    {
      "lat": 41.06403715011917,
      "lon": 21.32018867204154,
      "geoinfo": {
        "display_name": "Krklino, Municipality of Bitola, 7000, North Macedonia",
        "road": null,
        "house_number": null,
        "neighbourhood": null,
        "suburb": null,
        "city_district": null,
        "city": "Krklino",
        "state": null,
        "postcode": "7000",
        "country": "North Macedonia",
        "country_code": "mk"
      },
      "address": "Bitola, North Macedonia"
    },
    {
      "lat": 41.03993663041304,
      "lon": 21.340953839890673,
      "geoinfo": {
        "display_name": "Shiroka, Ushici, Novo Strezhevo, Bitola, Municipality of Bitola, 7000, North Macedonia",
        "road": "Shiroka",
        "house_number": null,
        "neighbourhood": "Ushici",
        "suburb": "Novo Strezhevo",
        "city_district": null,
        "city": "Bitola",
        "state": null,
        "postcode": "7000",
        "country": "North Macedonia",
        "country_code": "mk"
      },
      "address": "Shiroka, Bitola, North Macedonia"
    },
    {
      "lat": 41.0137839484912,
      "lon": 21.344132437500203,
      "geoinfo": {
        "display_name": "Bukovska, Borimechka, Bitola, Municipality of Bitola, 7000, North Macedonia",
        "road": "Bukovska",
        "house_number": null,
        "neighbourhood": null,
        "suburb": "Borimechka",
        "city_district": null,
        "city": "Bitola",
        "state": null,
        "postcode": "7000",
        "country": "North Macedonia",
        "country_code": "mk"
      },
      "address": "Bukovska, Bitola, North Macedonia"
    },
    {
      "lat": 41.03064935266234,
      "lon": 21.354292210696446,
      "geoinfo": {
        "display_name": "1 Maj, Borimechka, Bitola, Municipality of Bitola, 7000, North Macedonia",
        "road": "1 Maj",
        "house_number": null,
        "neighbourhood": null,
        "suburb": "Borimechka",
        "city_district": null,
        "city": "Bitola",
        "state": null,
        "postcode": "7000",
        "country": "North Macedonia",
        "country_code": "mk"
      },
      "address": "1 Maj, Borimechka, Bitola, Municipality of Bitola, 7000, North Macedonia"
    },
    {
      "lat": 41.012341513424865,
      "lon": 21.366982665277238,
      "geoinfo": {
        "display_name": "Bitola, Municipality of Bitola, 7000, North Macedonia",
        "road": null,
        "house_number": null,
        "neighbourhood": null,
        "suburb": null,
        "city_district": null,
        "city": "Bitola",
        "state": null,
        "postcode": "7000",
        "country": "North Macedonia",
        "country_code": "mk"
      },
      "address": "520, Bitola, Municipality of Bitola, 7000, North Macedonia"
    },
    {
      "lat": 41.0474768116047,
      "lon": 21.357757577892784,
      "geoinfo": {
        "display_name": "St. Alexander of Salonica, Dimitar Robev, Gorno Orizari, Bitola, Municipality of Bitola, 7000, North Macedonia",
        "road": "Dimitar Robev",
        "house_number": null,
        "neighbourhood": null,
        "suburb": "Gorno Orizari",
        "city_district": null,
        "city": "Bitola",
        "state": null,
        "postcode": "7000",
        "country": "North Macedonia",
        "country_code": "mk"
      },
      "address": "121, Dimitar Robev, 7000 Bitola, North Macedonia"
    }
  ],
  "updated_at": "2025-10-19T05:37:06.995109+00:00",
  "_kind": "geo_samples"
}