{
  "country_code": "MK",
  "country": "North Macedonia",
  "city": "Centar Župa",
  "geonameid": 7886881,
  "target_addresses": 3,
  "samples": [
    {
      "lat": 41.47262351493584,
      "lon": 20.612568446106895,
      "geoinfo": {
        "display_name": "Kochoshta, Municipality of Centar Zhupa, North Macedonia",
        "road": null,
        "house_number": null,
        "neighbourhood": null,
        "suburb": null,
        "city_district": null,
        "city": "Kochoshta",
        "state": null,
        "postcode": null,
        "country": "North Macedonia",
        "country_code": "mk"
      },
      "address": "Centar Župa, North Macedonia"
    },
    {
      "lat": 41.486319017821,
      "lon": 20.512094032841844,
      "geoinfo": {
        "display_name": "R1201, Otishani, Municipality of Debar, 1258, North Macedonia",
        "road": "R1201",
        "house_number": null,
        "neighbourhood": null,
        "suburb": null,
        "city_district": null,
        "city": "Otishani",
        "state": null,
        "postcode": "1258",
        "country": "North Macedonia",
        "country_code": "mk"
      },
      "address": "R1201, Centar Župa, North Macedonia"
    },
    {
      "lat": 41.48708873102002,
      "lon": 20.58844383384808,
      "geoinfo": {
        "display_name": "St. Demetrius of Salonica, R2249, Gorenci, Municipality of Centar Zhupa, 1258, North Macedonia",
        "road": "R2249",
        "house_number": null,
        "neighbourhood": null,
        "suburb": null,
        "city_district": null,
        "city": "Gorenci",
        "state": null,
        "postcode": "1258",
        "country": "North Macedonia",
        "country_code": "mk"
      },
      "address": "R2249, Centar Župa, North Macedonia"
    }
  ],
  "updated_at": "2025-10-16T19:33:21.447018+00:00",
  "_kind": "geo_samples"
}