{
  "country_code": "MK",
  "country": "North Macedonia",
  "city": "Gostivar",
  "geonameid": 790295,
  "target_addresses": 3,
  "samples": [
    {
      "lat": 41.82394563104057,
      "lon": 20.900280497750913,
      "geoinfo": {
        "display_name": "Zubovce, Municipality of Vrapchishte, 1238, North Macedonia",
        "road": null,
        "house_number": null,
        "neighbourhood": null,
        "suburb": null,
        "city_district": null,
        "city": "Zubovce",
        "state": null,
        "postcode": "1238",
        "country": "North Macedonia",
        "country_code": "mk"
      },
      "address": "Gostivar, North Macedonia"
    },
    {
      "lat": 41.820055591806536,
      "lon": 20.948578266622338,
      "geoinfo": {
        "display_name": "R2233, Forino, Municipality of Gostivar, 1237, North Macedonia",
        "road": "R2233",
        "house_number": null,
        "neighbourhood": null,
        "suburb": null,
        "city_district": null,
        "city": "Forino",
        "state": null,
        "postcode": "1237",
        "country": "North Macedonia",
        "country_code": "mk"
      },
      "address": "R2233, Gostivar, North Macedonia"
    },
    {
      "lat": 41.795770321400425,
      "lon": 20.887339445773954,
      "geoinfo": {
        "display_name": "A2, Zdunje, Municipality of Gostivar, 1230, North Macedonia",
        "road": "A2",
        "house_number": null,
        "neighbourhood": null,
        "suburb": null,
        "city_district": null,
        "city": "Zdunje",
        "state": null,
        "postcode": "1230",
        "country": "North Macedonia",
        "country_code": "mk"
      },
      "address": "A2, Gostivar, North Macedonia"
    },
    {
      "lat": 41.806703636548974,
      "lon": 20.920755622322876,
      "geoinfo": {
        "display_name": "Gostivar, Municipality of Gostivar, 1230, North Macedonia",
        "road": null,
        "house_number": null,
        "neighbourhood": null,
        "suburb": null,
        "city_district": null,
        "city": "Gostivar",
        "state": null,
        "postcode": "1230",
        "country": "North Macedonia",
        "country_code": "mk"
      },
      "address": "689, Gostivar, Municipality of Gostivar, 1230, North Macedonia"
    },
    {
      "lat": 41.78509179827245,
      "lon": 20.88212125812031,
      "geoinfo": {
        "display_name": "Dolna Banjica, Municipality of Gostivar, 1230, North Macedonia",
        "road": null,
        "house_number": null,
        "neighbourhood": null,
        "suburb": null,
        "city_district": null,
        "city": "Dolna Banjica",
        "state": null,
        "postcode": "1230",
        "country": "North Macedonia",
        "country_code": "mk"
      },
      "address": "896, Dolna Banjica, Municipality of Gostivar, 1230, North Macedonia"
    },
    {
      "lat": 41.78914461146683,
      "lon": 20.850727570566857,
      "geoinfo": {
        "display_name": "Raven, Municipality of Gostivar, North Macedonia",
        "road": null,
        "house_number": null,
        "neighbourhood": null,
        "suburb": null,
        "city_district": null,
        "city": "Raven",
        "state": null,
        "postcode": null,
        "country": "North Macedonia",
        "country_code": "mk"
      },
      "address": "744, Raven, 25234 Municipality of Gostivar, North Macedonia"
    }
  ],
  "updated_at": "2025-10-19T05:57:39.946829+00:00",
  "_kind": "geo_samples"
}