{
  "country_code": "MK",
  "country": "North Macedonia",
  "city": "Ilinden",
  "geonameid": 833357,
  "target_addresses": 3,
  "samples": [
    {
      "lat": 42.01731985377181,
      "lon": 21.5582459738096,
      "geoinfo": {
        "display_name": "Улица 6, Arachinovo, Municipality of Arachinovo, 1041, North Macedonia",
        "road": "Улица 6",
        "house_number": null,
        "neighbourhood": null,
        "suburb": null,
        "city_district": null,
        "city": "Arachinovo",
        "state": null,
        "postcode": "1041",
        "country": "North Macedonia",
        "country_code": "mk"
      },
      "address": "Улица 6, Ilinden, North Macedonia"
    },
    {
      "lat": 41.98730805089662,
      "lon": 21.567096642014977,
      "geoinfo": {
        "display_name": "R104, Ilinden, Municipality of Ilinden, City of Skopje, 1041, North Macedonia",
        "road": "R104",
        "house_number": null,
        "neighbourhood": null,
        "suburb": null,
        "city_district": null,
        "city": "Ilinden",
        "state": null,
        "postcode": "1041",
        "country": "North Macedonia",
        "country_code": "mk"
      },
      "address": "R104, Ilinden, North Macedonia"
    },
    {
      "lat": 41.956780807760836,
      "lon": 21.603566151048515,
      "geoinfo": {
        "display_name": "Mralino, Municipality of Ilinden, 1043, North Macedonia",
        "road": null,
        "house_number": null,
        "neighbourhood": null,
        "suburb": null,
        "city_district": null,
        "city": "Mralino",
        "state": null,
        "postcode": "1043",
        "country": "North Macedonia",
        "country_code": "mk"
      },
      "address": "Ilinden, North Macedonia"
    },
    {
      "lat": 41.99914844576605,
      "lon": 21.601428294901797,
      "geoinfo": {
        "display_name": "Ilinden, Municipality of Ilinden, 1041, North Macedonia",
        "road": null,
        "house_number": null,
        "neighbourhood": null,
        "suburb": null,
        "city_district": null,
        "city": "Ilinden",
        "state": null,
        "postcode": "1041",
        "country": "North Macedonia",
        "country_code": "mk"
      },
      "address": "983, Ilinden, Municipality of Ilinden, 1041, North Macedonia"
    },
    {
      "lat": 41.973495788847224,
      "lon": 21.555680514228957,
      "geoinfo": {
        "display_name": "R104, Jurumleri, Municipality of Gazi Baba, City of Skopje, 1041, North Macedonia",
        "road": "R104",
        "house_number": null,
        "neighbourhood": null,
        "suburb": null,
        "city_district": null,
        "city": "Jurumleri",
        "state": null,
        "postcode": "1041",
        "country": "North Macedonia",
        "country_code": "mk"
      },
      "address": "R104, Jurumleri, Municipality of Gazi Baba, City of Skopje, 1041, North Macedonia"
    },
    {
      "lat": 41.984422326321834,
      "lon": 21.568519184807595,
      "geoinfo": {
        "display_name": "R104, Ilinden, Municipality of Ilinden, City of Skopje, 1041, North Macedonia",
        "road": "R104",
        "house_number": null,
        "neighbourhood": null,
        "suburb": null,
        "city_district": null,
        "city": "Ilinden",
        "state": null,
        "postcode": "1041",
        "country": "North Macedonia",
        "country_code": "mk"
      },
      "address": "R104, Ilinden, Municipality of Ilinden, City of Skopje, 1041, North Macedonia"
    }
  ],
  "updated_at": "2025-10-19T08:12:11.630925+00:00",
  "_kind": "geo_samples"
}