{
  "country_code": "MK",
  "country": "North Macedonia",
  "city": "Kisela Voda",
  "geonameid": 863675,
  "target_addresses": 3,
  "samples": [
    {
      "lat": 41.93683520349043,
      "lon": 21.520878754170496,
      "geoinfo": {
        "display_name": "Мишевска, Долно Маало, Kisela Voda, Skopje, Municipality of Kisela Voda, City of Skopje, 1050, North Macedonia",
        "road": "Мишевска",
        "house_number": null,
        "neighbourhood": "Долно Маало",
        "suburb": "Kisela Voda",
        "city_district": null,
        "city": "Skopje",
        "state": null,
        "postcode": "1050",
        "country": "North Macedonia",
        "country_code": "mk"
      },
      "address": "Мишевска, Kisela Voda, North Macedonia"
    },
    {
      "lat": 41.967514625178424,
      "lon": 21.450264947972514,
      "geoinfo": {
        "display_name": "Христо Татарчев 15, Pripor, Kisela Voda, Skopje, Municipality of Kisela Voda, City of Skopje, 1054, North Macedonia",
        "road": "Христо Татарчев 15",
        "house_number": null,
        "neighbourhood": null,
        "suburb": "Pripor",
        "city_district": null,
        "city": "Skopje",
        "state": null,
        "postcode": "1054",
        "country": "North Macedonia",
        "country_code": "mk"
      },
      "address": "Христо Татарчев 15, Kisela Voda, North Macedonia"
    },
    {
      "lat": 41.94074104716825,
      "lon": 21.4518681552819,
      "geoinfo": {
        "display_name": "Sopishte, Municipality of Sopishte, 1054, North Macedonia",
        "road": null,
        "house_number": null,
        "neighbourhood": null,
        "suburb": null,
        "city_district": null,
        "city": "Sopishte",
        "state": null,
        "postcode": "1054",
        "country": "North Macedonia",
        "country_code": "mk"
      },
      "address": "Kisela Voda, North Macedonia"
    },
    {
      "lat": 41.94510701569217,
      "lon": 21.460795176501477,
      "geoinfo": {
        "display_name": "Куртрова Страна, Usje, Municipality of Kisela Voda, City of Skopje, 1054, North Macedonia",
        "road": null,
        "house_number": null,
        "neighbourhood": null,
        "suburb": null,
        "city_district": null,
        "city": "Usje",
        "state": null,
        "postcode": "1054",
        "country": "North Macedonia",
        "country_code": "mk"
      },
      "address": "829, Куртрова Страна, Usje, Municipality of Kisela Voda, City of Skopje, 1054, North Macedonia"
    },
    {
      "lat": 41.963820238009774,
      "lon": 21.448058226740567,
      "geoinfo": {
        "display_name": "Pripor, Kisela Voda, Skopje, Municipality of Kisela Voda, City of Skopje, 1054, North Macedonia",
        "road": null,
        "house_number": null,
        "neighbourhood": null,
        "suburb": "Pripor",
        "city_district": null,
        "city": "Skopje",
        "state": null,
        "postcode": "1054",
        "country": "North Macedonia",
        "country_code": "mk"
      },
      "address": "345, Pripor, Kisela Voda, Skopje, Municipality of Kisela Voda, City of Skopje, 1054, North Macedonia"
    },
    {
      "lat": 41.97635769853333,
      "lon": 21.547578438558737,
      "geoinfo": {
        "display_name": "A4, Gazi Baba, Goce Delchev, Municipality of Gazi Baba, City of Skopje, 1040, North Macedonia",
        "road": "A4",
        "house_number": null,
        "neighbourhood": null,
        "suburb": "Gazi Baba",
        "city_district": null,
        "city": "Goce Delchev",
        "state": null,
        "postcode": "1040",
        "country": "North Macedonia",
        "country_code": "mk"
      },
      "address": "A4, Gazi Baba, Goce Delchev, Municipality of Gazi Baba, City of Skopje, 1040, North Macedonia"
    }
  ],
  "updated_at": "2025-10-19T05:58:00.187894+00:00",
  "_kind": "geo_samples"
}