{
  "country_code": "MK",
  "country": "North Macedonia",
  "city": "Kriva Palanka",
  "geonameid": 789045,
  "target_addresses": 3,
  "samples": [
    {
      "lat": 42.18177749817743,
      "lon": 22.31106504408565,
      "geoinfo": {
        "display_name": "Konopnica, Municipality of Kriva Palanka, 1330, North Macedonia",
        "road": null,
        "house_number": null,
        "neighbourhood": null,
        "suburb": null,
        "city_district": null,
        "city": "Konopnica",
        "state": null,
        "postcode": "1330",
        "country": "North Macedonia",
        "country_code": "mk"
      },
      "address": "Kriva Palanka, North Macedonia"
    },
    {
      "lat": 42.1940220902328,
      "lon": 22.32565398042138,
      "geoinfo": {
        "display_name": "17ta Makedonska Udarna Brigada, Kriva Palanka, Municipality of Kriva Palanka, 1330, North Macedonia",
        "road": "17ta Makedonska Udarna Brigada",
        "house_number": null,
        "neighbourhood": null,
        "suburb": null,
        "city_district": null,
        "city": "Kriva Palanka",
        "state": null,
        "postcode": "1330",
        "country": "North Macedonia",
        "country_code": "mk"
      },
      "address": "17ta Makedonska Udarna Brigada, Kriva Palanka, North Macedonia"
    },
    {
      "lat": 42.24397695884925,
      "lon": 22.32438223966691,
      "geoinfo": {
        "display_name": "R2245, Drenje, Osiche, Municipality of Kriva Palanka, North Macedonia",
        "road": "R2245",
        "house_number": null,
        "neighbourhood": null,
        "suburb": null,
        "city_district": null,
        "city": "Osiche",
        "state": null,
        "postcode": null,
        "country": "North Macedonia",
        "country_code": "mk"
      },
      "address": "R2245, Kriva Palanka, North Macedonia"
    },
    {
      "lat": 42.228833407613514,
      "lon": 22.36473495335274,
      "geoinfo": {
        "display_name": "A2, Krklja, Municipality of Kriva Palanka, 1330, North Macedonia",
        "road": "A2",
        "house_number": null,
        "neighbourhood": null,
        "suburb": null,
        "city_district": null,
        "city": "Krklja",
        "state": null,
        "postcode": "1330",
        "country": "North Macedonia",
        "country_code": "mk"
      },
      "address": "A2, Krklja, Municipality of Kriva Palanka, 1330, North Macedonia"
    },
    {
      "lat": 42.22728453253938,
      "lon": 22.344551432603378,
      "geoinfo": {
        "display_name": "Drenje, Kriva Palanka, Municipality of Kriva Palanka, 1330, North Macedonia",
        "road": null,
        "house_number": null,
        "neighbourhood": null,
        "suburb": null,
        "city_district": null,
        "city": "Kriva Palanka",
        "state": null,
        "postcode": "1330",
        "country": "North Macedonia",
        "country_code": "mk"
      },
      "address": "918, Drenje, Kriva Palanka, Municipality of Kriva Palanka, 1330, North Macedonia"
    },
    {
      "lat": 42.188176027480424,
      "lon": 22.351991380944348,
      "geoinfo": {
        "display_name": "Martinica, Durachka Reka, Municipality of Kriva Palanka, 1330, North Macedonia",
        "road": null,
        "house_number": null,
        "neighbourhood": null,
        "suburb": null,
        "city_district": null,
        "city": "Durachka Reka",
        "state": null,
        "postcode": "1330",
        "country": "North Macedonia",
        "country_code": "mk"
      },
      "address": "012, Martinica, Durachka Reka, Municipality of Kriva Palanka, 1330, North Macedonia"
    }
  ],
  "updated_at": "2025-10-19T05:57:29.541712+00:00",
  "_kind": "geo_samples"
}