{
  "country_code": "MK",
  "country": "North Macedonia",
  "city": "Ohrid",
  "geonameid": 787487,
  "target_addresses": 3,
  "samples": [
    {
      "lat": 41.080719464123476,
      "lon": 20.78163127437456,
      "geoinfo": {
        "display_name": "Ohrid, Municipality of Ohrid, 6000, North Macedonia",
        "road": null,
        "house_number": null,
        "neighbourhood": null,
        "suburb": null,
        "city_district": null,
        "city": "Ohrid",
        "state": null,
        "postcode": "6000",
        "country": "North Macedonia",
        "country_code": "mk"
      },
      "address": "Ohrid, North Macedonia"
    },
    {
      "lat": 41.12003471600888,
      "lon": 20.825117187956245,
      "geoinfo": {
        "display_name": "Видобишта, Ohrid, Municipality of Ohrid, 6000, North Macedonia",
        "road": null,
        "house_number": null,
        "neighbourhood": null,
        "suburb": "Видобишта",
        "city_district": null,
        "city": "Ohrid",
        "state": null,
        "postcode": "6000",
        "country": "North Macedonia",
        "country_code": "mk"
      },
      "address": "Видобишта, Ohrid, North Macedonia"
    },
    {
      "lat": 41.08186824685456,
      "lon": 20.83068421008229,
      "geoinfo": {
        "display_name": "P-21, Велестово - Два Јавора, Racha, Velestovo, Municipality of Ohrid, 6000, North Macedonia",
        "road": "Велестово - Два Јавора",
        "house_number": null,
        "neighbourhood": null,
        "suburb": null,
        "city_district": null,
        "city": "Racha",
        "state": null,
        "postcode": "6000",
        "country": "North Macedonia",
        "country_code": "mk"
      },
      "address": "Велестово - Два Јавора, Ohrid, North Macedonia"
    },
    {
      "lat": 41.116515675509454,
      "lon": 20.789071297816736,
      "geoinfo": {
        "display_name": "Крум Точков, Воска, Ohrid, Municipality of Ohrid, 6000, North Macedonia",
        "road": "Крум Точков",
        "house_number": null,
        "neighbourhood": null,
        "suburb": "Воска",
        "city_district": null,
        "city": "Ohrid",
        "state": null,
        "postcode": "6000",
        "country": "North Macedonia",
        "country_code": "mk"
      },
      "address": "435, Крум Точков, Воска, Ohrid, Municipality of Ohrid, 6000, North Macedonia"
    },
    {
      "lat": 41.151396123143904,
      "lon": 20.83758970329316,
      "geoinfo": {
        "display_name": "Leskoec, Municipality of Ohrid, North Macedonia",
        "road": null,
        "house_number": null,
        "neighbourhood": null,
        "suburb": null,
        "city_district": null,
        "city": "Leskoec",
        "state": null,
        "postcode": null,
        "country": "North Macedonia",
        "country_code": "mk"
      },
      "address": "418, Leskoec, 01645 Municipality of Ohrid, North Macedonia"
    },
    {
      "lat": 41.141727769915384,
      "lon": 20.754971597166406,
      "geoinfo": {
        "display_name": "Free camping, R1208, Ohrid, Municipality of Ohrid, North Macedonia",
        "road": "R1208",
        "house_number": null,
        "neighbourhood": null,
        "suburb": null,
        "city_district": null,
        "city": "Ohrid",
        "state": null,
        "postcode": null,
        "country": "North Macedonia",
        "country_code": "mk"
      },
      "address": "R1208, 00170 Ohrid, North Macedonia"
    }
  ],
  "updated_at": "2025-10-19T08:11:09.344655+00:00",
  "_kind": "geo_samples"
}