{
  "country_code": "MK",
  "country": "North Macedonia",
  "city": "Prilep",
  "geonameid": 786735,
  "target_addresses": 3,
  "samples": [
    {
      "lat": 41.31501094575788,
      "lon": 21.520570993955722,
      "geoinfo": {
        "display_name": "Aleksandar III Makedonski, Prilep, Municipality of Prilep, 7515, North Macedonia",
        "road": "Aleksandar III Makedonski",
        "house_number": null,
        "neighbourhood": null,
        "suburb": null,
        "city_district": null,
        "city": "Prilep",
        "state": null,
        "postcode": "7515",
        "country": "North Macedonia",
        "country_code": "mk"
      },
      "address": "Aleksandar III Makedonski, Prilep, North Macedonia"
    },
    {
      "lat": 41.355828922029424,
      "lon": 21.607791816165648,
      "geoinfo": {
        "display_name": "Lenishki Most, Lenishta, Lenishte, Municipality of Prilep, 7510, North Macedonia",
        "road": null,
        "house_number": null,
        "neighbourhood": null,
        "suburb": null,
        "city_district": null,
        "city": "Lenishte",
        "state": null,
        "postcode": "7510",
        "country": "North Macedonia",
        "country_code": "mk"
      },
      "address": "Prilep, North Macedonia"
    },
    {
      "lat": 41.33744245745141,
      "lon": 21.54094655883846,
      "geoinfo": {
        "display_name": "9 Septemvri, Stochen Pazar, Charshija, Prilep, Municipality of Prilep, 7503, North Macedonia",
        "road": "9 Septemvri",
        "house_number": null,
        "neighbourhood": null,
        "suburb": "Charshija",
        "city_district": null,
        "city": "Prilep",
        "state": null,
        "postcode": "7503",
        "country": "North Macedonia",
        "country_code": "mk"
      },
      "address": "9 Septemvri, Prilep, North Macedonia"
    },
    {
      "lat": 41.33216687052143,
      "lon": 21.607564711777233,
      "geoinfo": {
        "display_name": "Selce, Municipality of Prilep, North Macedonia",
        "road": null,
        "house_number": null,
        "neighbourhood": null,
        "suburb": null,
        "city_district": null,
        "city": "Selce",
        "state": null,
        "postcode": null,
        "country": "North Macedonia",
        "country_code": "mk"
      },
      "address": "018, Selce, 98881 Municipality of Prilep, North Macedonia"
    },
    {
      "lat": 41.33656688349101,
      "lon": 21.60374412121104,
      "geoinfo": {
        "display_name": "Selce, Municipality of Prilep, North Macedonia",
        "road": null,
        "house_number": null,
        "neighbourhood": null,
        "suburb": null,
        "city_district": null,
        "city": "Selce",
        "state": null,
        "postcode": null,
        "country": "North Macedonia",
        "country_code": "mk"
      },
      "address": "308, Selce, 44271 Municipality of Prilep, North Macedonia"
    },
    {
      "lat": 41.38838723429038,
      "lon": 21.559585354062445,
      "geoinfo": {
        "display_name": "Dabnica, Municipality of Prilep, North Macedonia",
        "road": null,
        "house_number": null,
        "neighbourhood": null,
        "suburb": null,
        "city_district": null,
        "city": "Dabnica",
        "state": null,
        "postcode": null,
        "country": "North Macedonia",
        "country_code": "mk"
      },
      "address": "183, Dabnica, 22911 Municipality of Prilep, North Macedonia"
    }
  ],
  "updated_at": "2025-10-19T05:56:29.421008+00:00",
  "_kind": "geo_samples"
}