{
  "country_code": "MK",
  "country": "North Macedonia",
  "city": "Radovis",
  "geonameid": 786565,
  "target_addresses": 3,
  "samples": [
    {
      "lat": 41.63655358176951,
      "lon": 22.414963990184695,
      "geoinfo": {
        "display_name": "Prnalija, Municipality of Radovish, North Macedonia",
        "road": null,
        "house_number": null,
        "neighbourhood": null,
        "suburb": null,
        "city_district": null,
        "city": "Prnalija",
        "state": null,
        "postcode": null,
        "country": "North Macedonia",
        "country_code": "mk"
      },
      "address": "Radovis, North Macedonia"
    },
    {
      "lat": 41.63349957982674,
      "lon": 22.448735714115028,
      "geoinfo": {
        "display_name": "Св. Спасо Радовишки, Radovish, Municipality of Radovish, 2420, North Macedonia",
        "road": "Св. Спасо Радовишки",
        "house_number": null,
        "neighbourhood": null,
        "suburb": null,
        "city_district": null,
        "city": "Radovish",
        "state": null,
        "postcode": "2420",
        "country": "North Macedonia",
        "country_code": "mk"
      },
      "address": "Св. Спасо Радовишки, Radovis, North Macedonia"
    },
    {
      "lat": 41.62190757302978,
      "lon": 22.455365069660832,
      "geoinfo": {
        "display_name": "A4, Radovish, Municipality of Radovish, 2420, North Macedonia",
        "road": "A4",
        "house_number": null,
        "neighbourhood": null,
        "suburb": null,
        "city_district": null,
        "city": "Radovish",
        "state": null,
        "postcode": "2420",
        "country": "North Macedonia",
        "country_code": "mk"
      },
      "address": "A4, Radovis, North Macedonia"
    },
    {
      "lat": 41.64083745234028,
      "lon": 22.470587766970944,
      "geoinfo": {
        "display_name": "Браќа Миладинови, Radovish, Municipality of Radovish, 2420, North Macedonia",
        "road": "Браќа Миладинови",
        "house_number": null,
        "neighbourhood": null,
        "suburb": null,
        "city_district": null,
        "city": "Radovish",
        "state": null,
        "postcode": "2420",
        "country": "North Macedonia",
        "country_code": "mk"
      },
      "address": "279, Браќа Миладинови, 2420 Radovis, North Macedonia"
    },
    {
      "lat": 41.60488965814672,
      "lon": 22.426996283096123,
      "geoinfo": {
        "display_name": "R2433, Injevo, Municipality of Radovish, North Macedonia",
        "road": "R2433",
        "house_number": null,
        "neighbourhood": null,
        "suburb": null,
        "city_district": null,
        "city": "Injevo",
        "state": null,
        "postcode": null,
        "country": "North Macedonia",
        "country_code": "mk"
      },
      "address": "R2433, 35437 Radovis, North Macedonia"
    },
    {
      "lat": 41.66795180854851,
      "lon": 22.471515212376413,
      "geoinfo": {
        "display_name": "R2431, Shturovo, Municipality of Radovish, North Macedonia",
        "road": "R2431",
        "house_number": null,
        "neighbourhood": null,
        "suburb": null,
        "city_district": null,
        "city": "Shturovo",
        "state": null,
        "postcode": null,
        "country": "North Macedonia",
        "country_code": "mk"
      },
      "address": "R2431, 75300 Radovis, North Macedonia"
    }
  ],
  "updated_at": "2025-10-19T05:56:18.905876+00:00",
  "_kind": "geo_samples"
}