{
  "country_code": "MK",
  "country": "North Macedonia",
  "city": "Struga",
  "geonameid": 785387,
  "target_addresses": 3,
  "samples": [
    {
      "lat": 41.194597601290674,
      "lon": 20.625526844825227,
      "geoinfo": {
        "display_name": "Zagrachani, Municipality of Struga, North Macedonia",
        "road": null,
        "house_number": null,
        "neighbourhood": null,
        "suburb": null,
        "city_district": null,
        "city": "Zagrachani",
        "state": null,
        "postcode": null,
        "country": "North Macedonia",
        "country_code": "mk"
      },
      "address": "Struga, North Macedonia"
    },
    {
      "lat": 41.16808528217405,
      "lon": 20.695942217969268,
      "geoinfo": {
        "display_name": "Партизанска, Struga III, Struga, Municipality of Struga, 6330, North Macedonia",
        "road": "Партизанска",
        "house_number": null,
        "neighbourhood": null,
        "suburb": "Struga III",
        "city_district": null,
        "city": "Struga",
        "state": null,
        "postcode": "6330",
        "country": "North Macedonia",
        "country_code": "mk"
      },
      "address": "Партизанска, Struga, North Macedonia"
    },
    {
      "lat": 41.13790082839478,
      "lon": 20.67361583923683,
      "geoinfo": {
        "display_name": "Struga I, Struga, Municipality of Struga, 6330, North Macedonia",
        "road": null,
        "house_number": null,
        "neighbourhood": null,
        "suburb": "Struga I",
        "city_district": null,
        "city": "Struga",
        "state": null,
        "postcode": "6330",
        "country": "North Macedonia",
        "country_code": "mk"
      },
      "address": "Struga I, Struga, North Macedonia"
    },
    {
      "lat": 41.19603485964709,
      "lon": 20.650825422256144,
      "geoinfo": {
        "display_name": "Dolna Belica, Municipality of Struga, North Macedonia",
        "road": null,
        "house_number": null,
        "neighbourhood": null,
        "suburb": null,
        "city_district": null,
        "city": "Dolna Belica",
        "state": null,
        "postcode": null,
        "country": "North Macedonia",
        "country_code": "mk"
      },
      "address": "655, Dolna Belica, 95637 Municipality of Struga, North Macedonia"
    },
    {
      "lat": 41.14858966160319,
      "lon": 20.667641537432928,
      "geoinfo": {
        "display_name": "Struga I, Struga, Municipality of Struga, 6330, North Macedonia",
        "road": null,
        "house_number": null,
        "neighbourhood": null,
        "suburb": "Struga I",
        "city_district": null,
        "city": "Struga",
        "state": null,
        "postcode": "6330",
        "country": "North Macedonia",
        "country_code": "mk"
      },
      "address": "187, Struga I, Struga, Municipality of Struga, 6330, North Macedonia"
    },
    {
      "lat": 41.19178730188538,
      "lon": 20.697769487519338,
      "geoinfo": {
        "display_name": "Misleshevo, Municipality of Struga, 6330, North Macedonia",
        "road": null,
        "house_number": null,
        "neighbourhood": null,
        "suburb": null,
        "city_district": null,
        "city": "Misleshevo",
        "state": null,
        "postcode": "6330",
        "country": "North Macedonia",
        "country_code": "mk"
      },
      "address": "745, Misleshevo, Municipality of Struga, 6330, North Macedonia"
    }
  ],
  "updated_at": "2025-10-19T08:10:49.317966+00:00",
  "_kind": "geo_samples"
}