{
  "country_code": "MK",
  "country": "North Macedonia",
  "city": "Studeničani",
  "geonameid": 785345,
  "target_addresses": 3,
  "samples": [
    {
      "lat": 41.90912899989827,
      "lon": 21.549170268080132,
      "geoinfo": {
        "display_name": "Morani, Municipality of Studenichani, 1050, North Macedonia",
        "road": null,
        "house_number": null,
        "neighbourhood": null,
        "suburb": null,
        "city_district": null,
        "city": "Morani",
        "state": null,
        "postcode": "1050",
        "country": "North Macedonia",
        "country_code": "mk"
      },
      "address": "Studeničani, North Macedonia"
    },
    {
      "lat": 41.93634330611058,
      "lon": 21.487250957021676,
      "geoinfo": {
        "display_name": "Широка Рупа, Љубаш, Drachevo, Municipality of Kisela Voda, City of Skopje, 1050, North Macedonia",
        "road": null,
        "house_number": null,
        "neighbourhood": "Љубаш",
        "suburb": null,
        "city_district": null,
        "city": "Drachevo",
        "state": null,
        "postcode": "1050",
        "country": "North Macedonia",
        "country_code": "mk"
      },
      "address": "Љубаш, Studeničani, North Macedonia"
    },
    {
      "lat": 41.946350750221846,
      "lon": 21.558033296368837,
      "geoinfo": {
        "display_name": "Idrizovo, Municipality of Gazi Baba, City of Skopje, 1050, North Macedonia",
        "road": null,
        "house_number": null,
        "neighbourhood": null,
        "suburb": null,
        "city_district": null,
        "city": "Idrizovo",
        "state": null,
        "postcode": "1050",
        "country": "North Macedonia",
        "country_code": "mk"
      },
      "address": "272, Idrizovo, Municipality of Gazi Baba, City of Skopje, 1050, North Macedonia"
    },
    {
      "lat": 41.95688345725558,
      "lon": 21.540449691394425,
      "geoinfo": {
        "display_name": "Dolno Lisiche, Municipality of Aerodrom, City of Skopje, 1050, North Macedonia",
        "road": null,
        "house_number": null,
        "neighbourhood": null,
        "suburb": null,
        "city_district": null,
        "city": "Dolno Lisiche",
        "state": null,
        "postcode": "1050",
        "country": "North Macedonia",
        "country_code": "mk"
      },
      "address": "024, Dolno Lisiche, Municipality of Aerodrom, City of Skopje, 1050, North Macedonia"
    },
    {
      "lat": 41.94517295311122,
      "lon": 21.54281130147711,
      "geoinfo": {
        "display_name": "Сердарот, Подстаница, Drachevo, Municipality of Kisela Voda, City of Skopje, 1050, North Macedonia",
        "road": "Сердарот",
        "house_number": null,
        "neighbourhood": "Подстаница",
        "suburb": null,
        "city_district": null,
        "city": "Drachevo",
        "state": null,
        "postcode": "1050",
        "country": "North Macedonia",
        "country_code": "mk"
      },
      "address": "420, Сердарот, Подстаница, Drachevo, Municipality of Kisela Voda, City of Skopje, 1050, North Macedonia"
    }
  ],
  "updated_at": "2025-10-19T05:56:03.849047+00:00",
  "_kind": "geo_samples"
}