{
  "country_code": "MK",
  "country": "North Macedonia",
  "city": "Veles",
  "geonameid": 785058,
  "target_addresses": 3,
  "samples": [
    {
      "lat": 41.710143495907595,
      "lon": 21.782246855818208,
      "geoinfo": {
        "display_name": "Максим Горки, Бузаана, Veles, Municipality of Veles, 1400, North Macedonia",
        "road": "Максим Горки",
        "house_number": null,
        "neighbourhood": "Бузаана",
        "suburb": null,
        "city_district": null,
        "city": "Veles",
        "state": null,
        "postcode": "1400",
        "country": "North Macedonia",
        "country_code": "mk"
      },
      "address": "Максим Горки, Veles, North Macedonia"
    },
    {
      "lat": 41.74210973622857,
      "lon": 21.737898681439358,
      "geoinfo": {
        "display_name": "Veles, Municipality of Veles, North Macedonia",
        "road": null,
        "house_number": null,
        "neighbourhood": null,
        "suburb": null,
        "city_district": null,
        "city": "Veles",
        "state": null,
        "postcode": null,
        "country": "North Macedonia",
        "country_code": "mk"
      },
      "address": "Veles, North Macedonia"
    },
    {
      "lat": 41.68301673098506,
      "lon": 21.790190894991365,
      "geoinfo": {
        "display_name": "R1102, Babuna, Veles, Municipality of Veles, 1400, North Macedonia",
        "road": "R1102",
        "house_number": null,
        "neighbourhood": "Babuna",
        "suburb": null,
        "city_district": null,
        "city": "Veles",
        "state": null,
        "postcode": "1400",
        "country": "North Macedonia",
        "country_code": "mk"
      },
      "address": "R1102, Veles, North Macedonia"
    },
    {
      "lat": 41.702982465282815,
      "lon": 21.807690916403093,
      "geoinfo": {
        "display_name": "Рамина, Veles, Municipality of Veles, 1400, North Macedonia",
        "road": null,
        "house_number": null,
        "neighbourhood": "Рамина",
        "suburb": null,
        "city_district": null,
        "city": "Veles",
        "state": null,
        "postcode": "1400",
        "country": "North Macedonia",
        "country_code": "mk"
      },
      "address": "571, Рамина, Veles, Municipality of Veles, 1400, North Macedonia"
    },
    {
      "lat": 41.69741636906116,
      "lon": 21.732631824427905,
      "geoinfo": {
        "display_name": "Klukovec, Gorno Orizari, Municipality of Veles, North Macedonia",
        "road": null,
        "house_number": null,
        "neighbourhood": null,
        "suburb": null,
        "city_district": null,
        "city": "Klukovec",
        "state": null,
        "postcode": null,
        "country": "North Macedonia",
        "country_code": "mk"
      },
      "address": "922, Klukovec, Gorno Orizari, 68384 Municipality of Veles, North Macedonia"
    },
    {
      "lat": 41.7292461908592,
      "lon": 21.763081568090392,
      "geoinfo": {
        "display_name": "Алексо Демниевски Бауман, Шорка, Veles, Municipality of Veles, 1400, North Macedonia",
        "road": "Алексо Демниевски Бауман",
        "house_number": null,
        "neighbourhood": "Шорка",
        "suburb": null,
        "city_district": null,
        "city": "Veles",
        "state": null,
        "postcode": "1400",
        "country": "North Macedonia",
        "country_code": "mk"
      },
      "address": "299, Алексо Демниевски Бауман, 1400 Veles, North Macedonia"
    }
  ],
  "updated_at": "2025-10-19T05:36:54.055645+00:00",
  "_kind": "geo_samples"
}