{
  "country_code": "MK",
  "country": "North Macedonia",
  "city": "Vinica",
  "geonameid": 784424,
  "target_addresses": 3,
  "samples": [
    {
      "lat": 41.85989804906671,
      "lon": 22.535998563206416,
      "geoinfo": {
        "display_name": "Lipec, Municipality of Vinica, North Macedonia",
        "road": null,
        "house_number": null,
        "neighbourhood": null,
        "suburb": null,
        "city_district": null,
        "city": "Lipec",
        "state": null,
        "postcode": null,
        "country": "North Macedonia",
        "country_code": "mk"
      },
      "address": "Vinica, North Macedonia"
    },
    {
      "lat": 41.876002325036914,
      "lon": 22.48068953411176,
      "geoinfo": {
        "display_name": "R2334, Leski, Municipality of Vinica, 2310, North Macedonia",
        "road": "R2334",
        "house_number": null,
        "neighbourhood": null,
        "suburb": null,
        "city_district": null,
        "city": "Leski",
        "state": null,
        "postcode": "2310",
        "country": "North Macedonia",
        "country_code": "mk"
      },
      "address": "R2334, Vinica, North Macedonia"
    },
    {
      "lat": 41.90095116954268,
      "lon": 22.544375490986504,
      "geoinfo": {
        "display_name": "Мечкарска Маала, Vinchka Krshla, Municipality of Vinica, 2310, North Macedonia",
        "road": null,
        "house_number": null,
        "neighbourhood": "Мечкарска Маала",
        "suburb": null,
        "city_district": null,
        "city": "Vinchka Krshla",
        "state": null,
        "postcode": "2310",
        "country": "North Macedonia",
        "country_code": "mk"
      },
      "address": "Мечкарска Маала, Vinica, North Macedonia"
    },
    {
      "lat": 41.869696055179304,
      "lon": 22.48985653937068,
      "geoinfo": {
        "display_name": "Gradec, Municipality of Vinica, North Macedonia",
        "road": null,
        "house_number": null,
        "neighbourhood": null,
        "suburb": null,
        "city_district": null,
        "city": "Gradec",
        "state": null,
        "postcode": null,
        "country": "North Macedonia",
        "country_code": "mk"
      },
      "address": "213, Gradec, 91540 Municipality of Vinica, North Macedonia"
    },
    {
      "lat": 41.903273448120956,
      "lon": 22.48805783724863,
      "geoinfo": {
        "display_name": "R1304, Vinica, Municipality of Vinica, 2310, North Macedonia",
        "road": "R1304",
        "house_number": null,
        "neighbourhood": null,
        "suburb": null,
        "city_district": null,
        "city": "Vinica",
        "state": null,
        "postcode": "2310",
        "country": "North Macedonia",
        "country_code": "mk"
      },
      "address": "R1304, Vinica, Municipality of Vinica, 2310, North Macedonia"
    },
    {
      "lat": 41.91885215496309,
      "lon": 22.523799592099433,
      "geoinfo": {
        "display_name": "Crn Kamen, Municipality of Vinica, North Macedonia",
        "road": null,
        "house_number": null,
        "neighbourhood": null,
        "suburb": null,
        "city_district": null,
        "city": "Crn Kamen",
        "state": null,
        "postcode": null,
        "country": "North Macedonia",
        "country_code": "mk"
      },
      "address": "581, Crn Kamen, 94282 Municipality of Vinica, North Macedonia"
    }
  ],
  "updated_at": "2025-10-19T04:17:06.498594+00:00",
  "_kind": "geo_samples"
}