{
  "country_code": "CR",
  "country": "Costa Rica",
  "city": "Alajuela",
  "geonameid": 3624955,
  "target_addresses": 3,
  "samples": [
    {
      "lat": 10.000607211844716,
      "lon": -84.20501579446548,
      "geoinfo": {
        "display_name": "Autopista Bernardo Soto, Bajo Las Cañas, Río Segundo, Alajuela, Alajuela Province, 20109, Costa Rica",
        "road": "Autopista Bernardo Soto",
        "house_number": null,
        "neighbourhood": "Bajo Las Cañas",
        "suburb": null,
        "city_district": null,
        "city": "Río Segundo",
        "state": "Alajuela Province",
        "postcode": "20109",
        "country": "Costa Rica",
        "country_code": "cr"
      },
      "address": "Autopista Bernardo Soto, Alajuela, Alajuela Province, Costa Rica"
    },
    {
      "lat": 9.980487927869444,
      "lon": -84.23866254015594,
      "geoinfo": {
        "display_name": "Calle de los Héroes, Rincón Herrera, La Guácima, Alajuela, Alajuela Province, 20105, Costa Rica",
        "road": "Calle de los Héroes",
        "house_number": null,
        "neighbourhood": "Rincón Herrera",
        "suburb": null,
        "city_district": null,
        "city": "La Guácima",
        "state": "Alajuela Province",
        "postcode": "20105",
        "country": "Costa Rica",
        "country_code": "cr"
      },
      "address": "Calle de los Héroes, Alajuela, Alajuela Province, Costa Rica"
    },
    {
      "lat": 10.007680180159623,
      "lon": -84.18340087329433,
      "geoinfo": {
        "display_name": "Calle Los Ángeles, Los Ángeles (IMAS), Río Segundo, Alajuela, Alajuela Province, 20109, Costa Rica",
        "road": "Calle Los Ángeles",
        "house_number": null,
        "neighbourhood": "Los Ángeles (IMAS)",
        "suburb": null,
        "city_district": null,
        "city": "Río Segundo",
        "state": "Alajuela Province",
        "postcode": "20109",
        "country": "Costa Rica",
        "country_code": "cr"
      },
      "address": "Calle Los Ángeles, Alajuela, Alajuela Province, Costa Rica"
    },
    {
      "lat": 10.024298824511083,
      "lon": -84.23798282753965,
      "geoinfo": {
        "display_name": "Calle Balbina, Urbanización Trópico 1, San José, Alajuela, Alajuela Province, 20102, Costa Rica",
        "road": "Calle Balbina",
        "house_number": null,
        "neighbourhood": null,
        "suburb": null,
        "city_district": null,
        "city": "San José",
        "state": "Alajuela Province",
        "postcode": "20102",
        "country": "Costa Rica",
        "country_code": "cr"
      },
      "address": "Calle Balbina, Urbanización Trópico 1, San José, Alajuela, Alajuela Province, 20102, Costa Rica"
    },
    {
      "lat": 10.040974696711874,
      "lon": -84.17689453433047,
      "geoinfo": {
        "display_name": "Residencial Altos de Alicante, Rosales, Desamparados, Alajuela, Alajuela Province, 20110, Costa Rica",
        "road": null,
        "house_number": null,
        "neighbourhood": null,
        "suburb": null,
        "city_district": null,
        "city": "Desamparados",
        "state": "Alajuela Province",
        "postcode": "20110",
        "country": "Costa Rica",
        "country_code": "cr"
      },
      "address": "416, Residencial Altos de Alicante, Rosales, Desamparados, Alajuela, Alajuela Province, 20110, Costa Rica"
    },
    {
      "lat": 10.05215882283971,
      "lon": -84.18702917719746,
      "geoinfo": {
        "display_name": "Vía 125, Guadalupe, Alajuela, Alajuela Province, 20101, Costa Rica",
        "road": "Vía 125",
        "house_number": null,
        "neighbourhood": "Guadalupe",
        "suburb": null,
        "city_district": null,
        "city": "Alajuela",
        "state": "Alajuela Province",
        "postcode": "20101",
        "country": "Costa Rica",
        "country_code": "cr"
      },
      "address": "Vía 125, Guadalupe, Alajuela, Alajuela Province, 20101, Costa Rica"
    }
  ],
  "updated_at": "2025-10-19T03:37:05.483412+00:00",
  "_kind": "geo_samples"
}