{
  "country_code": "CR",
  "country": "Costa Rica",
  "city": "Aserrí",
  "geonameid": 3624848,
  "target_addresses": 3,
  "samples": [
    {
      "lat": 9.863305183144456,
      "lon": -84.06943382961673,
      "geoinfo": {
        "display_name": "Calle Santa Lucía, Ciudad de San José, Aserrí, San Jose Province, 10607, Costa Rica",
        "road": "Calle Santa Lucía",
        "house_number": null,
        "neighbourhood": null,
        "suburb": null,
        "city_district": null,
        "city": "Ciudad de San José",
        "state": null,
        "postcode": "10607",
        "country": "Costa Rica",
        "country_code": "cr"
      },
      "address": "Calle Santa Lucía, Aserrí, Costa Rica"
    },
    {
      "lat": 9.851420381945118,
      "lon": -84.08778761774643,
      "geoinfo": {
        "display_name": "Calle La Palma, Ciudad de San José, Aserrí, San Jose Province, 10607, Costa Rica",
        "road": "Calle La Palma",
        "house_number": null,
        "neighbourhood": null,
        "suburb": null,
        "city_district": null,
        "city": "Ciudad de San José",
        "state": null,
        "postcode": "10607",
        "country": "Costa Rica",
        "country_code": "cr"
      },
      "address": "Calle La Palma, Aserrí, Costa Rica"
    },
    {
      "lat": 9.890302142444211,
      "lon": -84.10433345701838,
      "geoinfo": {
        "display_name": "Urb. Once de Abril, Ciudad de San José, Alajuelita, San Jose Province, 11002, Costa Rica",
        "road": null,
        "house_number": null,
        "neighbourhood": null,
        "suburb": null,
        "city_district": null,
        "city": "Ciudad de San José",
        "state": null,
        "postcode": "11002",
        "country": "Costa Rica",
        "country_code": "cr"
      },
      "address": "Aserrí, Costa Rica"
    },
    {
      "lat": 9.87512823086444,
      "lon": -84.10992564367419,
      "geoinfo": {
        "display_name": "Lámparas, Ciudad de San José, Alajuelita, San Jose Province, 11003, Costa Rica",
        "road": null,
        "house_number": null,
        "neighbourhood": "Lámparas",
        "suburb": null,
        "city_district": null,
        "city": "Ciudad de San José",
        "state": null,
        "postcode": "11003",
        "country": "Costa Rica",
        "country_code": "cr"
      },
      "address": "060, Lámparas, Ciudad de San José, Alajuelita, San Jose Province, 11003, Costa Rica"
    },
    {
      "lat": 9.864936374017175,
      "lon": -84.06534002389006,
      "geoinfo": {
        "display_name": "Calle Santa Lucía, Lajas, Ciudad de San José, Desamparados, San Jose Province, 10304, Costa Rica",
        "road": "Calle Santa Lucía",
        "house_number": null,
        "neighbourhood": "Lajas",
        "suburb": null,
        "city_district": null,
        "city": "Ciudad de San José",
        "state": null,
        "postcode": "10304",
        "country": "Costa Rica",
        "country_code": "cr"
      },
      "address": "597, Calle Santa Lucía, Lajas, Ciudad de San José, Desamparados, San Jose Province, 10304, Costa Rica"
    },
    {
      "lat": 9.824381567033114,
      "lon": -84.08120593022002,
      "geoinfo": {
        "display_name": "Calle Quebrada Honda, Ciudad de San José, Aserrí, San Jose Province, 10607, Costa Rica",
        "road": "Calle Quebrada Honda",
        "house_number": null,
        "neighbourhood": null,
        "suburb": null,
        "city_district": null,
        "city": "Ciudad de San José",
        "state": null,
        "postcode": "10607",
        "country": "Costa Rica",
        "country_code": "cr"
      },
      "address": "724, Calle Quebrada Honda, Ciudad de San José, Aserrí, San Jose Province, 10607, Costa Rica"
    }
  ],
  "updated_at": "2025-10-19T03:27:39.920578+00:00",
  "_kind": "geo_samples"
}