{
  "country_code": "CR",
  "country": "Costa Rica",
  "city": "Cartago",
  "geonameid": 3624370,
  "target_addresses": 14,
  "samples": [
    {
      "lat": 9.859639675658967,
      "lon": -83.88435870476223,
      "geoinfo": {
        "display_name": "Calle Mero, Llanos de Santa Lucía, Cartago Province, 30205, Costa Rica",
        "road": "Calle Mero",
        "house_number": null,
        "neighbourhood": null,
        "suburb": null,
        "city_district": null,
        "city": "Llanos de Santa Lucía",
        "state": null,
        "postcode": "30205",
        "country": "Costa Rica",
        "country_code": "cr"
      },
      "address": "Calle Mero, Cartago, Costa Rica"
    },
    {
      "lat": 9.891880773402722,
      "lon": -83.8999403253349,
      "geoinfo": {
        "display_name": "Calle Monge, Don Graciano, Tierra Blanca, Cartago, Cartago Province, 30108, Costa Rica",
        "road": "Calle Monge",
        "house_number": null,
        "neighbourhood": "Don Graciano",
        "suburb": null,
        "city_district": null,
        "city": "Tierra Blanca",
        "state": null,
        "postcode": "30108",
        "country": "Costa Rica",
        "country_code": "cr"
      },
      "address": "Calle Monge, Cartago, Costa Rica"
    },
    {
      "lat": 9.88623889347429,
      "lon": -83.9281283213986,
      "geoinfo": {
        "display_name": "Cond. Rivera del Irazú, Taras, San Nicolás, Cartago, Cartago Province, 30104, Costa Rica",
        "road": null,
        "house_number": null,
        "neighbourhood": null,
        "suburb": null,
        "city_district": null,
        "city": "San Nicolás",
        "state": null,
        "postcode": "30104",
        "country": "Costa Rica",
        "country_code": "cr"
      },
      "address": "Cartago, Costa Rica"
    },
    {
      "lat": 9.840967979484015,
      "lon": -83.90354748791995,
      "geoinfo": {
        "display_name": "Avenida 46C, Urbanización La Ilusión, Dulce Nombre, Cartago, Cartago Province, 30109, Costa Rica",
        "road": "Avenida 46C",
        "house_number": null,
        "neighbourhood": null,
        "suburb": null,
        "city_district": null,
        "city": "Dulce Nombre",
        "state": null,
        "postcode": "30109",
        "country": "Costa Rica",
        "country_code": "cr"
      },
      "address": "Avenida 46C, Cartago, Costa Rica"
    },
    {
      "lat": 9.866693249073911,
      "lon": -83.9593402385694,
      "geoinfo": {
        "display_name": "Acceso 3, Zona Franca La Lima, Guadalupe, Cartago, Cartago Province, 30106, Costa Rica",
        "road": "Acceso 3",
        "house_number": null,
        "neighbourhood": null,
        "suburb": null,
        "city_district": null,
        "city": "Guadalupe",
        "state": null,
        "postcode": "30106",
        "country": "Costa Rica",
        "country_code": "cr"
      },
      "address": "Acceso 3, Zona Franca La Lima, Guadalupe, Cartago, Cartago Province, 30106, Costa Rica"
    },
    {
      "lat": 9.830214743306934,
      "lon": -83.92457784113628,
      "geoinfo": {
        "display_name": "Ciudad de Los Niños, Calle Sexta, Cond. Senderos del Este, Aguacaliente, Cartago, Cartago Province, 30105, Costa Rica",
        "road": "Calle Sexta",
        "house_number": null,
        "neighbourhood": null,
        "suburb": null,
        "city_district": null,
        "city": "Aguacaliente",
        "state": null,
        "postcode": "30105",
        "country": "Costa Rica",
        "country_code": "cr"
      },
      "address": "391, Calle Sexta, 30105 Cartago, Costa Rica"
    },
    {
      "lat": 9.894457820465403,
      "lon": -83.91650806576882,
      "geoinfo": {
        "display_name": "Calle Banderilla, San Nicolás, Cartago, Cartago Province, 30110, Costa Rica",
        "road": "Calle Banderilla",
        "house_number": null,
        "neighbourhood": null,
        "suburb": null,
        "city_district": null,
        "city": "San Nicolás",
        "state": null,
        "postcode": "30110",
        "country": "Costa Rica",
        "country_code": "cr"
      },
      "address": "242, Calle Banderilla, San Nicolás, Cartago, Cartago Province, 30110, Costa Rica"
    },
    {
      "lat": 9.89106241462619,
      "lon": -83.90989878026362,
      "geoinfo": {
        "display_name": "Calle Las Torres, Alto de San Blas, Carmen, Cartago, Cartago Province, 30103, Costa Rica",
        "road": "Calle Las Torres",
        "house_number": null,
        "neighbourhood": "Alto de San Blas",
        "suburb": null,
        "city_district": null,
        "city": "Carmen",
        "state": null,
        "postcode": "30103",
        "country": "Costa Rica",
        "country_code": "cr"
      },
      "address": "430, Calle Las Torres, Alto de San Blas, Carmen, Cartago, Cartago Province, 30103, Costa Rica"
    },
    {
      "lat": 9.838525786282197,
      "lon": -83.88199123917684,
      "geoinfo": {
        "display_name": "Boulevard Mediterráneo, Curime, Llanos de Santa Lucía, Paraíso, Cartago Province, 30205, Costa Rica",
        "road": "Boulevard Mediterráneo",
        "house_number": null,
        "neighbourhood": "Curime",
        "suburb": null,
        "city_district": null,
        "city": "Llanos de Santa Lucía",
        "state": null,
        "postcode": "30205",
        "country": "Costa Rica",
        "country_code": "cr"
      },
      "address": "771, Boulevard Mediterráneo, Curime, Llanos de Santa Lucía, Paraíso, Cartago Province, 30205, Costa Rica"
    },
    {
      "lat": 9.842624674669427,
      "lon": -83.95540911295393,
      "geoinfo": {
        "display_name": "Calle Barrancas, Sabana Grande, El Tejar, El Guarco, Cartago Province, 30801, Costa Rica",
        "road": "Calle Barrancas",
        "house_number": null,
        "neighbourhood": "Sabana Grande",
        "suburb": null,
        "city_district": null,
        "city": "El Tejar",
        "state": null,
        "postcode": "30801",
        "country": "Costa Rica",
        "country_code": "cr"
      },
      "address": "020, Calle Barrancas, Sabana Grande, El Tejar, El Guarco, Cartago Province, 30801, Costa Rica"
    },
    {
      "lat": 9.861452343663887,
      "lon": -83.88447294530475,
      "geoinfo": {
        "display_name": "Calle Mero, Llanos de Santa Lucía, Paraíso, Cartago Province, 30205, Costa Rica",
        "road": "Calle Mero",
        "house_number": null,
        "neighbourhood": null,
        "suburb": null,
        "city_district": null,
        "city": "Llanos de Santa Lucía",
        "state": null,
        "postcode": "30205",
        "country": "Costa Rica",
        "country_code": "cr"
      },
      "address": "620, Calle Mero, Llanos de Santa Lucía, Paraíso, Cartago Province, 30205, Costa Rica"
    },
    {
      "lat": 9.881530366516474,
      "lon": -83.94476283410505,
      "geoinfo": {
        "display_name": "Avenida 29, Caracol, Taras, San Nicolás, Cartago, Cartago Province, 30104, Costa Rica",
        "road": "Avenida 29",
        "house_number": null,
        "neighbourhood": "Caracol",
        "suburb": null,
        "city_district": null,
        "city": "San Nicolás",
        "state": null,
        "postcode": "30104",
        "country": "Costa Rica",
        "country_code": "cr"
      },
      "address": "Avenida 29, Caracol, Taras, San Nicolás, Cartago, Cartago Province, 30104, Costa Rica"
    },
    {
      "lat": 9.872050791277388,
      "lon": -83.9460998163083,
      "geoinfo": {
        "display_name": "Pequeño Mundo, Autopista Florencio del Castillo, La Lima, Taras, San Nicolás, Cartago, Cartago Province, 30104, Costa Rica",
        "road": "Autopista Florencio del Castillo",
        "house_number": null,
        "neighbourhood": "La Lima",
        "suburb": null,
        "city_district": null,
        "city": "San Nicolás",
        "state": null,
        "postcode": "30104",
        "country": "Costa Rica",
        "country_code": "cr"
      },
      "address": "859, Autopista Florencio del Castillo, 30104 Cartago, Costa Rica"
    },
    {
      "lat": 9.845221627487962,
      "lon": -83.8999240751501,
      "geoinfo": {
        "display_name": "Avenida Uno, Cond. Valles del Sur, Dulce Nombre, Cartago, Cartago Province, 30109, Costa Rica",
        "road": "Avenida Uno",
        "house_number": null,
        "neighbourhood": null,
        "suburb": null,
        "city_district": null,
        "city": "Dulce Nombre",
        "state": null,
        "postcode": "30109",
        "country": "Costa Rica",
        "country_code": "cr"
      },
      "address": "843, Avenida Uno, Cond. Valles del Sur, Dulce Nombre, Cartago, Cartago Province, 30109, Costa Rica"
    }
  ],
  "updated_at": "2025-10-19T03:51:44.345459+00:00",
  "_kind": "geo_samples"
}