{
  "country_code": "CR",
  "country": "Costa Rica",
  "city": "Cañas",
  "geonameid": 3624468,
  "target_addresses": 3,
  "samples": [
    {
      "lat": 10.4366773017662,
      "lon": -85.06728562189436,
      "geoinfo": {
        "display_name": "Calle Camino Viejo, Barrio Pedregal, Vergel, Cañas, Guanacaste, 50601, Costa Rica",
        "road": "Calle Camino Viejo",
        "house_number": null,
        "neighbourhood": "Barrio Pedregal",
        "suburb": null,
        "city_district": null,
        "city": "Cañas",
        "state": null,
        "postcode": "50601",
        "country": "Costa Rica",
        "country_code": "cr"
      },
      "address": "Calle Camino Viejo, Cañas, Costa Rica"
    },
    {
      "lat": 10.453062487507543,
      "lon": -85.06406647485343,
      "geoinfo": {
        "display_name": "Cañas, Guanacaste, 50601, Costa Rica",
        "road": null,
        "house_number": null,
        "neighbourhood": null,
        "suburb": null,
        "city_district": null,
        "city": "Cañas",
        "state": null,
        "postcode": "50601",
        "country": "Costa Rica",
        "country_code": "cr"
      },
      "address": "Cañas, Costa Rica"
    },
    {
      "lat": 10.467514445235194,
      "lon": -85.085386666374,
      "geoinfo": {
        "display_name": "Calle Embalse Corobicí Norte, Cañas, Guanacaste, 50601, Costa Rica",
        "road": "Calle Embalse Corobicí Norte",
        "house_number": null,
        "neighbourhood": null,
        "suburb": null,
        "city_district": null,
        "city": "Cañas",
        "state": null,
        "postcode": "50601",
        "country": "Costa Rica",
        "country_code": "cr"
      },
      "address": "Calle Embalse Corobicí Norte, Cañas, Costa Rica"
    },
    {
      "lat": 10.458014354416543,
      "lon": -85.06468612201347,
      "geoinfo": {
        "display_name": "Montes de Oro, Cañas, Guanacaste, 50601, Costa Rica",
        "road": null,
        "house_number": null,
        "neighbourhood": "Montes de Oro",
        "suburb": null,
        "city_district": null,
        "city": "Cañas",
        "state": null,
        "postcode": "50601",
        "country": "Costa Rica",
        "country_code": "cr"
      },
      "address": "678, Montes de Oro, Cañas, Guanacaste, 50601, Costa Rica"
    },
    {
      "lat": 10.457292119331894,
      "lon": -85.10019070811506,
      "geoinfo": {
        "display_name": "Calle Embalse Corobicí Sur, Sandillal, Cañas, Guanacaste, 50601, Costa Rica",
        "road": "Calle Embalse Corobicí Sur",
        "house_number": null,
        "neighbourhood": null,
        "suburb": null,
        "city_district": null,
        "city": "Cañas",
        "state": null,
        "postcode": "50601",
        "country": "Costa Rica",
        "country_code": "cr"
      },
      "address": "108, Calle Embalse Corobicí Sur, Sandillal, Cañas, Guanacaste, 50601, Costa Rica"
    },
    {
      "lat": 10.41275883223275,
      "lon": -85.06912842898969,
      "geoinfo": {
        "display_name": "Calle Cuesta El Diablo, Los Malinches, Concepción, Cañas, Guanacaste, 50601, Costa Rica",
        "road": "Calle Cuesta El Diablo",
        "house_number": null,
        "neighbourhood": "Los Malinches",
        "suburb": null,
        "city_district": null,
        "city": "Cañas",
        "state": null,
        "postcode": "50601",
        "country": "Costa Rica",
        "country_code": "cr"
      },
      "address": "325, Calle Cuesta El Diablo, Los Malinches, Concepción, Cañas, Guanacaste, 50601, Costa Rica"
    }
  ],
  "updated_at": "2025-10-19T03:27:28.901727+00:00",
  "_kind": "geo_samples"
}