{
  "country_code": "CR",
  "country": "Costa Rica",
  "city": "Colima",
  "geonameid": 3624174,
  "target_addresses": 3,
  "samples": [
    {
      "lat": 9.94185981261062,
      "lon": -84.04349189555852,
      "geoinfo": {
        "display_name": "Supermercado Unicasa, Vía 202, Instalaciones Deportivas, Sabanilla, Montes de Oca, San Jose Province, 11503, Costa Rica",
        "road": "Vía 202",
        "house_number": null,
        "neighbourhood": null,
        "suburb": "Instalaciones Deportivas",
        "city_district": null,
        "city": "Sabanilla",
        "state": null,
        "postcode": "11503",
        "country": "Costa Rica",
        "country_code": "cr"
      },
      "address": "Vía 202, Colima, Costa Rica"
    },
    {
      "lat": 9.939526047827643,
      "lon": -84.10706765167117,
      "geoinfo": {
        "display_name": "Avenida 7, Américas, Ciudad de San José, San José, San Jose Province, 10108, Costa Rica",
        "road": "Avenida 7",
        "house_number": null,
        "neighbourhood": "Américas",
        "suburb": null,
        "city_district": null,
        "city": "Ciudad de San José",
        "state": null,
        "postcode": "10108",
        "country": "Costa Rica",
        "country_code": "cr"
      },
      "address": "Avenida 7, Colima, Costa Rica"
    },
    {
      "lat": 9.959821207544085,
      "lon": -84.0991077039759,
      "geoinfo": {
        "display_name": "Avenida 53, Doña Fabiola, Ciudad de San José, Tibás, San Jose Province, 11304, Costa Rica",
        "road": "Avenida 53",
        "house_number": null,
        "neighbourhood": "Doña Fabiola",
        "suburb": null,
        "city_district": null,
        "city": "Ciudad de San José",
        "state": null,
        "postcode": "11304",
        "country": "Costa Rica",
        "country_code": "cr"
      },
      "address": "Avenida 53, Colima, Costa Rica"
    },
    {
      "lat": 9.933337884074767,
      "lon": -84.11485457120264,
      "geoinfo": {
        "display_name": "Calle 80A, Balcón Verde, Ciudad de San José, San José, San Jose Province, 10108, Costa Rica",
        "road": "Calle 80A",
        "house_number": null,
        "neighbourhood": "Balcón Verde",
        "suburb": null,
        "city_district": null,
        "city": "Ciudad de San José",
        "state": null,
        "postcode": "10108",
        "country": "Costa Rica",
        "country_code": "cr"
      },
      "address": "Calle 80A, Balcón Verde, Ciudad de San José, San José, San Jose Province, 10108, Costa Rica"
    },
    {
      "lat": 9.984094893747324,
      "lon": -84.07873866817582,
      "geoinfo": {
        "display_name": "Urb. Alvicia, Santo Tomás, Santo Domingo, Heredia Province, 40305, Costa Rica",
        "road": null,
        "house_number": null,
        "neighbourhood": null,
        "suburb": null,
        "city_district": null,
        "city": "Santo Tomás",
        "state": null,
        "postcode": "40305",
        "country": "Costa Rica",
        "country_code": "cr"
      },
      "address": "842, Urb. Alvicia, Santo Tomás, Santo Domingo, Heredia Province, 40305, Costa Rica"
    },
    {
      "lat": 9.971418180414203,
      "lon": -84.08195214517549,
      "geoinfo": {
        "display_name": "Acceso 1, Cond. Hacienda Lincoln, San Miguel, Santo Domingo, Heredia Province, 40303, Costa Rica",
        "road": "Acceso 1",
        "house_number": null,
        "neighbourhood": null,
        "suburb": null,
        "city_district": null,
        "city": "San Miguel",
        "state": null,
        "postcode": "40303",
        "country": "Costa Rica",
        "country_code": "cr"
      },
      "address": "Acceso 1, Cond. Hacienda Lincoln, San Miguel, Santo Domingo, Heredia Province, 40303, Costa Rica"
    }
  ],
  "updated_at": "2025-10-19T02:04:02.815586+00:00",
  "_kind": "geo_samples"
}