{
  "country_code": "CR",
  "country": "Costa Rica",
  "city": "Curridabat",
  "geonameid": 3623977,
  "target_addresses": 3,
  "samples": [
    {
      "lat": 9.892097736822786,
      "lon": -84.06252553415672,
      "geoinfo": {
        "display_name": "Calle María Auxiliadora, La Raya, Ciudad de San José, Desamparados, San Jose Province, 10312, Costa Rica",
        "road": "Calle María Auxiliadora",
        "house_number": null,
        "neighbourhood": "La Raya",
        "suburb": null,
        "city_district": null,
        "city": "Ciudad de San José",
        "state": null,
        "postcode": "10312",
        "country": "Costa Rica",
        "country_code": "cr"
      },
      "address": "Calle María Auxiliadora, Curridabat, Costa Rica"
    },
    {
      "lat": 9.918890279763788,
      "lon": -84.02349636274498,
      "geoinfo": {
        "display_name": "Universidad Autónoma de Centroamérica, Diagonal 32A, Cipreses, Curridabat, San Jose Province, 11801, Costa Rica",
        "road": "Diagonal 32A",
        "house_number": null,
        "neighbourhood": "Cipreses",
        "suburb": null,
        "city_district": null,
        "city": "Curridabat",
        "state": null,
        "postcode": "11801",
        "country": "Costa Rica",
        "country_code": "cr"
      },
      "address": "Diagonal 32A, Curridabat, Costa Rica"
    },
    {
      "lat": 9.92084948800482,
      "lon": -84.00416197896013,
      "geoinfo": {
        "display_name": "Acceso 6, Cond. Hacienda Sacramento, San Juan, La Unión, Cartago Province, 30303, Costa Rica",
        "road": "Acceso 6",
        "house_number": null,
        "neighbourhood": null,
        "suburb": null,
        "city_district": null,
        "city": "San Juan",
        "state": null,
        "postcode": "30303",
        "country": "Costa Rica",
        "country_code": "cr"
      },
      "address": "Acceso 6, Curridabat, Costa Rica"
    },
    {
      "lat": 9.924208483405677,
      "lon": -84.07963887122429,
      "geoinfo": {
        "display_name": "Quimifarma, 0111, Calle Central Alfredo Volio, Pacífico, San José, Ciudad de San José, San José, San Jose Province, 10104, Costa Rica",
        "road": "Calle Central Alfredo Volio",
        "house_number": "0111",
        "neighbourhood": "Pacífico",
        "suburb": null,
        "city_district": null,
        "city": "San José",
        "state": null,
        "postcode": "10104",
        "country": "Costa Rica",
        "country_code": "cr"
      },
      "address": "Quimifarma, 0111, Calle Central Alfredo Volio, Pacífico, San José, Ciudad de San José, San José, San Jose Province, 10104, Costa Rica"
    },
    {
      "lat": 9.903409738428131,
      "lon": -84.0078352568704,
      "geoinfo": {
        "display_name": "Calle Séptima, Urb. Florencio del Castillo, San Diego, La Unión, Cartago Province, 30302, Costa Rica",
        "road": "Calle Séptima",
        "house_number": null,
        "neighbourhood": null,
        "suburb": null,
        "city_district": null,
        "city": "San Diego",
        "state": null,
        "postcode": "30302",
        "country": "Costa Rica",
        "country_code": "cr"
      },
      "address": "054, Calle Séptima, Urb. Florencio del Castillo, San Diego, La Unión, Cartago Province, 30302, Costa Rica"
    },
    {
      "lat": 9.903211552044022,
      "lon": -84.00225803315288,
      "geoinfo": {
        "display_name": "Calle Florencio del Castillo, Resid. Omega, San Diego, La Unión, Cartago Province, 30302, Costa Rica",
        "road": "Calle Florencio del Castillo",
        "house_number": null,
        "neighbourhood": null,
        "suburb": null,
        "city_district": null,
        "city": "San Diego",
        "state": null,
        "postcode": "30302",
        "country": "Costa Rica",
        "country_code": "cr"
      },
      "address": "908, Calle Florencio del Castillo, Resid. Omega, San Diego, La Unión, Cartago Province, 30302, Costa Rica"
    }
  ],
  "updated_at": "2025-10-19T04:01:23.842010+00:00",
  "_kind": "geo_samples"
}