{
  "country_code": "CR",
  "country": "Costa Rica",
  "city": "Guadalupe",
  "geonameid": 3623593,
  "target_addresses": 3,
  "samples": [
    {
      "lat": 9.981380966145712,
      "lon": -84.07998591769622,
      "geoinfo": {
        "display_name": "Hotel Bougainvillea, Calle Escuela, Santo Tomás, Santo Domingo, Heredia Province, 40305, Costa Rica",
        "road": "Calle Escuela",
        "house_number": null,
        "neighbourhood": null,
        "suburb": null,
        "city_district": null,
        "city": "Santo Tomás",
        "state": null,
        "postcode": "40305",
        "country": "Costa Rica",
        "country_code": "cr"
      },
      "address": "Calle Escuela, Guadalupe, Costa Rica"
    },
    {
      "lat": 9.92420015131403,
      "lon": -84.03255122317148,
      "geoinfo": {
        "display_name": "Plaza Vía Guayabos, Vía 221, Eucalipto, Ciudad de San José, Curridabat, San Jose Province, 11802, Costa Rica",
        "road": "Vía 221",
        "house_number": null,
        "neighbourhood": "Eucalipto",
        "suburb": null,
        "city_district": null,
        "city": "Ciudad de San José",
        "state": null,
        "postcode": "11802",
        "country": "Costa Rica",
        "country_code": "cr"
      },
      "address": "Vía 221, Guadalupe, Costa Rica"
    },
    {
      "lat": 9.911218281816316,
      "lon": -84.03160212817647,
      "geoinfo": {
        "display_name": "2789 278A 278B 278C ICE, Calle 105, La Lía, Ciudad de San José, Curridabat, San Jose Province, 11801, Costa Rica",
        "road": "Calle 105",
        "house_number": null,
        "neighbourhood": "La Lía",
        "suburb": null,
        "city_district": null,
        "city": "Ciudad de San José",
        "state": null,
        "postcode": "11801",
        "country": "Costa Rica",
        "country_code": "cr"
      },
      "address": "Calle 105, Guadalupe, Costa Rica"
    },
    {
      "lat": 9.9388385040173,
      "lon": -84.02284885435563,
      "geoinfo": {
        "display_name": "Acceso Principal, Cond. Génesis, Ciudad de San José, Montes de Oca, San Jose Province, 11504, Costa Rica",
        "road": "Acceso Principal",
        "house_number": null,
        "neighbourhood": null,
        "suburb": null,
        "city_district": null,
        "city": "Ciudad de San José",
        "state": null,
        "postcode": "11504",
        "country": "Costa Rica",
        "country_code": "cr"
      },
      "address": "738, Acceso Principal, Cond. Génesis, Ciudad de San José, Montes de Oca, San Jose Province, 11504, Costa Rica"
    },
    {
      "lat": 9.953780431435936,
      "lon": -84.05563579249954,
      "geoinfo": {
        "display_name": "Academia de Danza, Calle 55, Resid. Santa Mónica, Ciudad de San José, Goicoechea, San Jose Province, 10801, Costa Rica",
        "road": "Calle 55",
        "house_number": null,
        "neighbourhood": null,
        "suburb": null,
        "city_district": null,
        "city": "Ciudad de San José",
        "state": null,
        "postcode": "10801",
        "country": "Costa Rica",
        "country_code": "cr"
      },
      "address": "Academia de Danza, Calle 55, Resid. Santa Mónica, Ciudad de San José, Goicoechea, San Jose Province, 10801, Costa Rica"
    },
    {
      "lat": 9.928849979261992,
      "lon": -84.0970985443648,
      "geoinfo": {
        "display_name": "Calle 38 José María Zeledón, Colón, San José, Hospital, San José, San Jose Province, 10108, Costa Rica",
        "road": "Calle 38 José María Zeledón",
        "house_number": null,
        "neighbourhood": "Colón",
        "suburb": null,
        "city_district": null,
        "city": "San José",
        "state": null,
        "postcode": "10108",
        "country": "Costa Rica",
        "country_code": "cr"
      },
      "address": "Calle 38 José María Zeledón, Colón, San José, Hospital, San José, San Jose Province, 10108, Costa Rica"
    }
  ],
  "updated_at": "2025-10-19T01:46:40.276191+00:00",
  "_kind": "geo_samples"
}