{
  "country_code": "CR",
  "country": "Costa Rica",
  "city": "Guápiles",
  "geonameid": 3623580,
  "target_addresses": 14,
  "samples": [
    {
      "lat": 10.240303240633164,
      "lon": -83.8217359015774,
      "geoinfo": {
        "display_name": "Calle Los Lagos, Guápiles, Pococí, Limón Province, 70201, Costa Rica",
        "road": "Calle Los Lagos",
        "house_number": null,
        "neighbourhood": null,
        "suburb": null,
        "city_district": null,
        "city": "Guápiles",
        "state": null,
        "postcode": "70201",
        "country": "Costa Rica",
        "country_code": "cr"
      },
      "address": "Calle Los Lagos, Guápiles, Costa Rica"
    },
    {
      "lat": 10.193940743360168,
      "lon": -83.81673164531001,
      "geoinfo": {
        "display_name": "Calle Santa Fe, Los Bovinos, Guápiles, Pococí, Limón Province, 70201, Costa Rica",
        "road": "Calle Santa Fe",
        "house_number": null,
        "neighbourhood": "Los Bovinos",
        "suburb": null,
        "city_district": null,
        "city": "Guápiles",
        "state": null,
        "postcode": "70201",
        "country": "Costa Rica",
        "country_code": "cr"
      },
      "address": "Calle Santa Fe, Guápiles, Costa Rica"
    },
    {
      "lat": 10.188348368415047,
      "lon": -83.76782039955425,
      "geoinfo": {
        "display_name": "Calle Uno, Calle Uno Pista, Jiménez, Pococí, Limón Province, 70201, Costa Rica",
        "road": "Calle Uno",
        "house_number": null,
        "neighbourhood": "Calle Uno Pista",
        "suburb": null,
        "city_district": null,
        "city": "Jiménez",
        "state": null,
        "postcode": "70201",
        "country": "Costa Rica",
        "country_code": "cr"
      },
      "address": "Calle Uno, Guápiles, Costa Rica"
    },
    {
      "lat": 10.2065771226174,
      "lon": -83.81095373564025,
      "geoinfo": {
        "display_name": "Avenida 16, Brisas, Guápiles, Pococí, Limón Province, 70201, Costa Rica",
        "road": "Avenida 16",
        "house_number": null,
        "neighbourhood": "Brisas",
        "suburb": null,
        "city_district": null,
        "city": "Guápiles",
        "state": null,
        "postcode": "70201",
        "country": "Costa Rica",
        "country_code": "cr"
      },
      "address": "Avenida 16, Guápiles, Costa Rica"
    },
    {
      "lat": 10.188868775424579,
      "lon": -83.78288500057884,
      "geoinfo": {
        "display_name": "Calle Buenos Aires, Condado del Río, Jiménez, Pococí, Limón Province, 70202, Costa Rica",
        "road": "Calle Buenos Aires",
        "house_number": null,
        "neighbourhood": null,
        "suburb": null,
        "city_district": null,
        "city": "Jiménez",
        "state": null,
        "postcode": "70202",
        "country": "Costa Rica",
        "country_code": "cr"
      },
      "address": "Calle Buenos Aires, Condado del Río, Jiménez, Pococí, Limón Province, 70202, Costa Rica"
    },
    {
      "lat": 10.204146160683585,
      "lon": -83.7646219566868,
      "geoinfo": {
        "display_name": "Calle Marginal Norte, Calle Uno Pista, Jiménez, Pococí, Limón Province, 70201, Costa Rica",
        "road": "Calle Marginal Norte",
        "house_number": null,
        "neighbourhood": "Calle Uno Pista",
        "suburb": null,
        "city_district": null,
        "city": "Jiménez",
        "state": null,
        "postcode": "70201",
        "country": "Costa Rica",
        "country_code": "cr"
      },
      "address": "080, Calle Marginal Norte, Calle Uno Pista, Jiménez, Pococí, Limón Province, 70201, Costa Rica"
    },
    {
      "lat": 10.189888627353124,
      "lon": -83.77748389256547,
      "geoinfo": {
        "display_name": "Calle Los Almendros, Condado del Río, Jiménez, Pococí, Limón Province, 70202, Costa Rica",
        "road": "Calle Los Almendros",
        "house_number": null,
        "neighbourhood": null,
        "suburb": null,
        "city_district": null,
        "city": "Jiménez",
        "state": null,
        "postcode": "70202",
        "country": "Costa Rica",
        "country_code": "cr"
      },
      "address": "642, Calle Los Almendros, Condado del Río, Jiménez, Pococí, Limón Province, 70202, Costa Rica"
    },
    {
      "lat": 10.254526523368872,
      "lon": -83.78619882475772,
      "geoinfo": {
        "display_name": "Calle Bandeco, María Isabel, San Rafael, La Colonia, Pococí, Limón Province, 70207, Costa Rica",
        "road": "Calle Bandeco",
        "house_number": null,
        "neighbourhood": "María Isabel",
        "suburb": null,
        "city_district": null,
        "city": "La Colonia",
        "state": null,
        "postcode": "70207",
        "country": "Costa Rica",
        "country_code": "cr"
      },
      "address": "331, Calle Bandeco, María Isabel, San Rafael, La Colonia, Pococí, Limón Province, 70207, Costa Rica"
    },
    {
      "lat": 10.22691138291639,
      "lon": -83.79446571883672,
      "geoinfo": {
        "display_name": "Avenida 27A, Caracol, Guápiles, Pococí, Limón Province, 70201, Costa Rica",
        "road": "Avenida 27A",
        "house_number": null,
        "neighbourhood": "Caracol",
        "suburb": null,
        "city_district": null,
        "city": "Guápiles",
        "state": null,
        "postcode": "70201",
        "country": "Costa Rica",
        "country_code": "cr"
      },
      "address": "Avenida 27A, Caracol, Guápiles, Pococí, Limón Province, 70201, Costa Rica"
    },
    {
      "lat": 10.191115516124439,
      "lon": -83.76941757702106,
      "geoinfo": {
        "display_name": "Calle Uno, Calle Uno Pista, Jiménez, Pococí, Limón Province, 70201, Costa Rica",
        "road": "Calle Uno",
        "house_number": null,
        "neighbourhood": "Calle Uno Pista",
        "suburb": null,
        "city_district": null,
        "city": "Jiménez",
        "state": null,
        "postcode": "70201",
        "country": "Costa Rica",
        "country_code": "cr"
      },
      "address": "731, Calle Uno, Calle Uno Pista, Jiménez, Pococí, Limón Province, 70201, Costa Rica"
    },
    {
      "lat": 10.23565729113204,
      "lon": -83.80701768009112,
      "geoinfo": {
        "display_name": "Calle Colina, San Juan, San Rafael, La Colonia, Pococí, Limón Province, 70207, Costa Rica",
        "road": "Calle Colina",
        "house_number": null,
        "neighbourhood": "San Juan",
        "suburb": null,
        "city_district": null,
        "city": "La Colonia",
        "state": null,
        "postcode": "70207",
        "country": "Costa Rica",
        "country_code": "cr"
      },
      "address": "604, Calle Colina, San Juan, San Rafael, La Colonia, Pococí, Limón Province, 70207, Costa Rica"
    },
    {
      "lat": 10.209537043406256,
      "lon": -83.82342512618281,
      "geoinfo": {
        "display_name": "Autopista Braulio Carrillo, Brisas, Blanco, Guápiles, Pococí, Limón Province, 70201, Costa Rica",
        "road": "Autopista Braulio Carrillo",
        "house_number": null,
        "neighbourhood": "Brisas",
        "suburb": null,
        "city_district": null,
        "city": "Guápiles",
        "state": null,
        "postcode": "70201",
        "country": "Costa Rica",
        "country_code": "cr"
      },
      "address": "147, Autopista Braulio Carrillo, Brisas, Blanco, Guápiles, Pococí, Limón Province, 70201, Costa Rica"
    },
    {
      "lat": 10.210226364834016,
      "lon": -83.74879725600981,
      "geoinfo": {
        "display_name": "Avenida 1, Doña Luz, Jiménez, Pococí, Limón Province, 70202, Costa Rica",
        "road": "Avenida 1",
        "house_number": null,
        "neighbourhood": "Doña Luz",
        "suburb": null,
        "city_district": null,
        "city": "Jiménez",
        "state": null,
        "postcode": "70202",
        "country": "Costa Rica",
        "country_code": "cr"
      },
      "address": "Avenida 1, Doña Luz, Jiménez, Pococí, Limón Province, 70202, Costa Rica"
    },
    {
      "lat": 10.20719999883548,
      "lon": -83.75885018601602,
      "geoinfo": {
        "display_name": "Calle Tractor, El Molino, Jiménez, Pococí, Limón Province, 70202, Costa Rica",
        "road": "Calle Tractor",
        "house_number": null,
        "neighbourhood": "El Molino",
        "suburb": null,
        "city_district": null,
        "city": "Jiménez",
        "state": null,
        "postcode": "70202",
        "country": "Costa Rica",
        "country_code": "cr"
      },
      "address": "597, Calle Tractor, El Molino, Jiménez, Pococí, Limón Province, 70202, Costa Rica"
    }
  ],
  "updated_at": "2025-10-19T03:51:17.627091+00:00",
  "_kind": "geo_samples"
}