{
  "country_code": "CR",
  "country": "Costa Rica",
  "city": "Liberia",
  "geonameid": 3623076,
  "target_addresses": 3,
  "samples": [
    {
      "lat": 10.639258607690344,
      "lon": -85.46835224712994,
      "geoinfo": {
        "display_name": "Calle La Cañada, Liberia, Guanacaste, 50101, Costa Rica",
        "road": "Calle La Cañada",
        "house_number": null,
        "neighbourhood": null,
        "suburb": null,
        "city_district": null,
        "city": "Liberia",
        "state": null,
        "postcode": "50101",
        "country": "Costa Rica",
        "country_code": "cr"
      },
      "address": "Calle La Cañada, Liberia, Costa Rica"
    },
    {
      "lat": 10.633919497273206,
      "lon": -85.43922959263975,
      "geoinfo": {
        "display_name": "Perfumerías Fraiche, Calle Central Rafael Iglesias, Los Cerros, Liberia, Guanacaste, 50101, Costa Rica",
        "road": "Calle Central Rafael Iglesias",
        "house_number": null,
        "neighbourhood": "Los Cerros",
        "suburb": null,
        "city_district": null,
        "city": "Liberia",
        "state": null,
        "postcode": "50101",
        "country": "Costa Rica",
        "country_code": "cr"
      },
      "address": "Calle Central Rafael Iglesias, Liberia, Costa Rica"
    },
    {
      "lat": 10.65148018534447,
      "lon": -85.47206571869233,
      "geoinfo": {
        "display_name": "Calle Los Invadidos, Resid. Nacume, Curubandé, Liberia, Guanacaste, 50105, Costa Rica",
        "road": "Calle Los Invadidos",
        "house_number": null,
        "neighbourhood": null,
        "suburb": null,
        "city_district": null,
        "city": "Curubandé",
        "state": null,
        "postcode": "50105",
        "country": "Costa Rica",
        "country_code": "cr"
      },
      "address": "Calle Los Invadidos, Liberia, Costa Rica"
    },
    {
      "lat": 10.669993742973599,
      "lon": -85.44428218899468,
      "geoinfo": {
        "display_name": "Calle El Escobio, Curubandé, Liberia, Guanacaste, 50105, Costa Rica",
        "road": "Calle El Escobio",
        "house_number": null,
        "neighbourhood": null,
        "suburb": null,
        "city_district": null,
        "city": "Curubandé",
        "state": null,
        "postcode": "50105",
        "country": "Costa Rica",
        "country_code": "cr"
      },
      "address": "059, Calle El Escobio, Curubandé, Liberia, Guanacaste, 50105, Costa Rica"
    },
    {
      "lat": 10.597081587022311,
      "lon": -85.44035127183933,
      "geoinfo": {
        "display_name": "Calle Mata de Caña, Llano La Cruz, Liberia, Guanacaste, 50101, Costa Rica",
        "road": "Calle Mata de Caña",
        "house_number": null,
        "neighbourhood": "Llano La Cruz",
        "suburb": null,
        "city_district": null,
        "city": "Liberia",
        "state": null,
        "postcode": "50101",
        "country": "Costa Rica",
        "country_code": "cr"
      },
      "address": "278, Calle Mata de Caña, Llano La Cruz, Liberia, Guanacaste, 50101, Costa Rica"
    },
    {
      "lat": 10.63630559303428,
      "lon": -85.48097423720804,
      "geoinfo": {
        "display_name": "Calle Rodeito, Barrio San Antonio, Liberia, Guanacaste, 50101, Costa Rica",
        "road": "Calle Rodeito",
        "house_number": null,
        "neighbourhood": "Barrio San Antonio",
        "suburb": null,
        "city_district": null,
        "city": "Liberia",
        "state": null,
        "postcode": "50101",
        "country": "Costa Rica",
        "country_code": "cr"
      },
      "address": "160, Calle Rodeito, Barrio San Antonio, Liberia, Guanacaste, 50101, Costa Rica"
    }
  ],
  "updated_at": "2025-10-19T03:33:54.316504+00:00",
  "_kind": "geo_samples"
}