{
  "country_code": "CR",
  "country": "Costa Rica",
  "city": "Limón",
  "geonameid": 3622247,
  "target_addresses": 3,
  "samples": [
    {
      "lat": 10.005059902716555,
      "lon": -83.00781910820179,
      "geoinfo": {
        "display_name": "Limón Province, Costa Rica",
        "road": null,
        "house_number": null,
        "neighbourhood": null,
        "suburb": null,
        "city_district": null,
        "city": null,
        "state": null,
        "postcode": null,
        "country": "Costa Rica",
        "country_code": "cr"
      },
      "address": "Limón, Costa Rica"
    },
    {
      "lat": 9.989675984439945,
      "lon": -83.04612307017182,
      "geoinfo": {
        "display_name": "Calle King Fish, Corales 1, Limón, Limón Province, 70101, Costa Rica",
        "road": "Calle King Fish",
        "house_number": null,
        "neighbourhood": "Corales 1",
        "suburb": null,
        "city_district": null,
        "city": "Limón",
        "state": null,
        "postcode": "70101",
        "country": "Costa Rica",
        "country_code": "cr"
      },
      "address": "Calle King Fish, Limón, Costa Rica"
    },
    {
      "lat": 9.977297874571873,
      "lon": -83.01298728109244,
      "geoinfo": {
        "display_name": "Cieneguita, Limón, Limón Province, 70101, Costa Rica",
        "road": null,
        "house_number": null,
        "neighbourhood": "Cieneguita",
        "suburb": null,
        "city_district": null,
        "city": "Limón",
        "state": null,
        "postcode": "70101",
        "country": "Costa Rica",
        "country_code": "cr"
      },
      "address": "Cieneguita, Limón, Costa Rica"
    },
    {
      "lat": 9.974242010022815,
      "lon": -83.0173439443816,
      "geoinfo": {
        "display_name": "Cieneguita, Limón, Limón Province, 70101, Costa Rica",
        "road": null,
        "house_number": null,
        "neighbourhood": "Cieneguita",
        "suburb": null,
        "city_district": null,
        "city": "Limón",
        "state": null,
        "postcode": "70101",
        "country": "Costa Rica",
        "country_code": "cr"
      },
      "address": "948, Cieneguita, Limón, Limón Province, 70101, Costa Rica"
    },
    {
      "lat": 9.968215327079385,
      "lon": -83.03792320898616,
      "geoinfo": {
        "display_name": "Los Lirios, Limón, Limón Province, 70101, Costa Rica",
        "road": null,
        "house_number": null,
        "neighbourhood": "Los Lirios",
        "suburb": null,
        "city_district": null,
        "city": "Limón",
        "state": null,
        "postcode": "70101",
        "country": "Costa Rica",
        "country_code": "cr"
      },
      "address": "164, Los Lirios, Limón, Limón Province, 70101, Costa Rica"
    },
    {
      "lat": 9.981058791809328,
      "lon": -83.05290106967914,
      "geoinfo": {
        "display_name": "La Colina (Sector 9), Limón, Limón Province, 70101, Costa Rica",
        "road": null,
        "house_number": null,
        "neighbourhood": "La Colina (Sector 9)",
        "suburb": null,
        "city_district": null,
        "city": "Limón",
        "state": null,
        "postcode": "70101",
        "country": "Costa Rica",
        "country_code": "cr"
      },
      "address": "La Colina (Sector 9), Limón, Limón Province, 70101, Costa Rica"
    }
  ],
  "updated_at": "2025-10-19T04:00:29.820755+00:00",
  "_kind": "geo_samples"
}