{
  "country_code": "CR",
  "country": "Costa Rica",
  "city": "Paraíso",
  "geonameid": 3622547,
  "target_addresses": 3,
  "samples": [
    {
      "lat": 9.83076135970997,
      "lon": -83.83511786802116,
      "geoinfo": {
        "display_name": "Vía 224, Ujarrás, Paraíso, Cartago Province, 30201, Costa Rica",
        "road": "Vía 224",
        "house_number": null,
        "neighbourhood": null,
        "suburb": null,
        "city_district": null,
        "city": "Paraíso",
        "state": null,
        "postcode": "30201",
        "country": "Costa Rica",
        "country_code": "cr"
      },
      "address": "Vía 224, Paraíso, Costa Rica"
    },
    {
      "lat": 9.824698674720596,
      "lon": -83.82712604547997,
      "geoinfo": {
        "display_name": "Calle Charrara, Ujarrás, Paraíso, Cartago Province, 30201, Costa Rica",
        "road": "Calle Charrara",
        "house_number": null,
        "neighbourhood": null,
        "suburb": null,
        "city_district": null,
        "city": "Paraíso",
        "state": null,
        "postcode": "30201",
        "country": "Costa Rica",
        "country_code": "cr"
      },
      "address": "Calle Charrara, Paraíso, Costa Rica"
    },
    {
      "lat": 9.83212101163186,
      "lon": -83.87589081521466,
      "geoinfo": {
        "display_name": "Avenida 28 de Diciembre, La Laguna, Paraíso, Cartago Province, 30201, Costa Rica",
        "road": "Avenida 28 de Diciembre",
        "house_number": null,
        "neighbourhood": "La Laguna",
        "suburb": null,
        "city_district": null,
        "city": "Paraíso",
        "state": null,
        "postcode": "30201",
        "country": "Costa Rica",
        "country_code": "cr"
      },
      "address": "Avenida 28 de Diciembre, Paraíso, Costa Rica"
    },
    {
      "lat": 9.818675854313136,
      "lon": -83.84431814595982,
      "geoinfo": {
        "display_name": "Vía 224, Los Coto, Orosi, Paraíso, Cartago Province, 30203, Costa Rica",
        "road": "Vía 224",
        "house_number": null,
        "neighbourhood": "Los Coto",
        "suburb": null,
        "city_district": null,
        "city": "Orosi",
        "state": null,
        "postcode": "30203",
        "country": "Costa Rica",
        "country_code": "cr"
      },
      "address": "Vía 224, Los Coto, Orosi, Paraíso, Cartago Province, 30203, Costa Rica"
    },
    {
      "lat": 9.87249331255357,
      "lon": -83.86828391718437,
      "geoinfo": {
        "display_name": "Calle Paso Ancho, Villa Marta, Cot, Oreamuno, Cartago Province, 30702, Costa Rica",
        "road": "Calle Paso Ancho",
        "house_number": null,
        "neighbourhood": "Villa Marta",
        "suburb": null,
        "city_district": null,
        "city": "Cot",
        "state": null,
        "postcode": "30702",
        "country": "Costa Rica",
        "country_code": "cr"
      },
      "address": "295, Calle Paso Ancho, Villa Marta, Cot, Oreamuno, Cartago Province, 30702, Costa Rica"
    },
    {
      "lat": 9.803506025042907,
      "lon": -83.84648975854658,
      "geoinfo": {
        "display_name": "Calle Altos de Araya, La Alegría, Orosi, Paraíso, Cartago Province, 30203, Costa Rica",
        "road": "Calle Altos de Araya",
        "house_number": null,
        "neighbourhood": "La Alegría",
        "suburb": null,
        "city_district": null,
        "city": "Orosi",
        "state": null,
        "postcode": "30203",
        "country": "Costa Rica",
        "country_code": "cr"
      },
      "address": "466, Calle Altos de Araya, La Alegría, Orosi, Paraíso, Cartago Province, 30203, Costa Rica"
    }
  ],
  "updated_at": "2025-10-19T04:01:05.832898+00:00",
  "_kind": "geo_samples"
}