{
  "country_code": "CR",
  "country": "Costa Rica",
  "city": "Quesada",
  "geonameid": 3622190,
  "target_addresses": 15,
  "samples": [
    {
      "lat": 10.312069786591787,
      "lon": -84.39868522827621,
      "geoinfo": {
        "display_name": "Cond. Loma Linda, Quesada, San Carlos, Alajuela Province, 21001, Costa Rica",
        "road": null,
        "house_number": null,
        "neighbourhood": null,
        "suburb": null,
        "city_district": null,
        "city": "Quesada",
        "state": "Alajuela Province",
        "postcode": "21001",
        "country": "Costa Rica",
        "country_code": "cr"
      },
      "address": "Quesada, Alajuela Province, Costa Rica"
    },
    {
      "lat": 10.349949655059161,
      "lon": -84.4119578464803,
      "geoinfo": {
        "display_name": "Calle Lapas, El Mirador, San Juan de Quebrada Palo, Quesada, San Carlos, Alajuela Province, 21001, Costa Rica",
        "road": "Calle Lapas",
        "house_number": null,
        "neighbourhood": "El Mirador",
        "suburb": null,
        "city_district": null,
        "city": "Quesada",
        "state": "Alajuela Province",
        "postcode": "21001",
        "country": "Costa Rica",
        "country_code": "cr"
      },
      "address": "Calle Lapas, Quesada, Alajuela Province, Costa Rica"
    },
    {
      "lat": 10.332224206706769,
      "lon": -84.47156621218012,
      "geoinfo": {
        "display_name": "Calle Pénjamo, Pénjamo, Florencia, San Carlos, Alajuela Province, 21002, Costa Rica",
        "road": "Calle Pénjamo",
        "house_number": null,
        "neighbourhood": null,
        "suburb": null,
        "city_district": null,
        "city": "Florencia",
        "state": "Alajuela Province",
        "postcode": "21002",
        "country": "Costa Rica",
        "country_code": "cr"
      },
      "address": "Calle Pénjamo, Quesada, Alajuela Province, Costa Rica"
    },
    {
      "lat": 10.324757316071551,
      "lon": -84.39153514122482,
      "geoinfo": {
        "display_name": "Calle Julio Avarado, Quesada, San Carlos, Alajuela Province, 21001, Costa Rica",
        "road": "Calle Julio Avarado",
        "house_number": null,
        "neighbourhood": null,
        "suburb": null,
        "city_district": null,
        "city": "Quesada",
        "state": "Alajuela Province",
        "postcode": "21001",
        "country": "Costa Rica",
        "country_code": "cr"
      },
      "address": "Calle Julio Avarado, Quesada, 05677 Alajuela Province, Costa Rica"
    },
    {
      "lat": 10.333196044770391,
      "lon": -84.394473555824,
      "geoinfo": {
        "display_name": "Calle Marcos Araya, Quesada, San Carlos, Alajuela Province, 21001, Costa Rica",
        "road": "Calle Marcos Araya",
        "house_number": null,
        "neighbourhood": null,
        "suburb": null,
        "city_district": null,
        "city": "Quesada",
        "state": "Alajuela Province",
        "postcode": "21001",
        "country": "Costa Rica",
        "country_code": "cr"
      },
      "address": "Calle Marcos Araya, Quesada, 12462 Alajuela Province, Costa Rica"
    },
    {
      "lat": 10.2846285633762,
      "lon": -84.43065592682277,
      "geoinfo": {
        "display_name": "Vía 141, Alto Solís, Sucre, Quesada, San Carlos, Alajuela Province, 21001, Costa Rica",
        "road": "Vía 141",
        "house_number": null,
        "neighbourhood": "Alto Solís",
        "suburb": null,
        "city_district": null,
        "city": "Quesada",
        "state": "Alajuela Province",
        "postcode": "21001",
        "country": "Costa Rica",
        "country_code": "cr"
      },
      "address": "Vía 141, Alto Solís, Sucre, Quesada, San Carlos, Alajuela Province, 21001, Costa Rica"
    },
    {
      "lat": 10.307948581668885,
      "lon": -84.44899168117371,
      "geoinfo": {
        "display_name": "Calle Pénjamo, Baltazar Quesada, Ron Ron Abajo, Quesada, San Carlos, Alajuela Province, 21001, Costa Rica",
        "road": "Calle Pénjamo",
        "house_number": null,
        "neighbourhood": "Baltazar Quesada",
        "suburb": null,
        "city_district": null,
        "city": "Quesada",
        "state": "Alajuela Province",
        "postcode": "21001",
        "country": "Costa Rica",
        "country_code": "cr"
      },
      "address": "126, Calle Pénjamo, Baltazar Quesada, Ron Ron Abajo, Quesada, San Carlos, Alajuela Province, 21001, Costa Rica"
    },
    {
      "lat": 10.324474224825531,
      "lon": -84.40423831637897,
      "geoinfo": {
        "display_name": "Calle Centro Diocesano, La Llanada, San Juan de Quebrada Palo, Quesada, San Carlos, Alajuela Province, 21001, Costa Rica",
        "road": "Calle Centro Diocesano",
        "house_number": null,
        "neighbourhood": "La Llanada",
        "suburb": null,
        "city_district": null,
        "city": "Quesada",
        "state": "Alajuela Province",
        "postcode": "21001",
        "country": "Costa Rica",
        "country_code": "cr"
      },
      "address": "304, Calle Centro Diocesano, La Llanada, San Juan de Quebrada Palo, Quesada, San Carlos, Alajuela Province, 21001, Costa Rica"
    },
    {
      "lat": 10.313363498227288,
      "lon": -84.42217586957243,
      "geoinfo": {
        "display_name": "Calle Gamonales, Urb. La Hacienda, Quesada, San Carlos, Alajuela Province, 21001, Costa Rica",
        "road": "Calle Gamonales",
        "house_number": null,
        "neighbourhood": null,
        "suburb": null,
        "city_district": null,
        "city": "Quesada",
        "state": "Alajuela Province",
        "postcode": "21001",
        "country": "Costa Rica",
        "country_code": "cr"
      },
      "address": "049, Calle Gamonales, Urb. La Hacienda, Quesada, San Carlos, Alajuela Province, 21001, Costa Rica"
    },
    {
      "lat": 10.35479095311017,
      "lon": -84.43532005018783,
      "geoinfo": {
        "display_name": "Calle Central Neftalí Quesada, San Roque, Quesada, San Carlos, Alajuela Province, 21001, Costa Rica",
        "road": "Calle Central Neftalí Quesada",
        "house_number": null,
        "neighbourhood": "San Roque",
        "suburb": null,
        "city_district": null,
        "city": "Quesada",
        "state": "Alajuela Province",
        "postcode": "21001",
        "country": "Costa Rica",
        "country_code": "cr"
      },
      "address": "975, Calle Central Neftalí Quesada, San Roque, Quesada, San Carlos, Alajuela Province, 21001, Costa Rica"
    },
    {
      "lat": 10.328931458337351,
      "lon": -84.46834960662541,
      "geoinfo": {
        "display_name": "Las Malvinas, Quesada, San Carlos, Alajuela Province, 21001, Costa Rica",
        "road": null,
        "house_number": null,
        "neighbourhood": "Las Malvinas",
        "suburb": null,
        "city_district": null,
        "city": "Quesada",
        "state": "Alajuela Province",
        "postcode": "21001",
        "country": "Costa Rica",
        "country_code": "cr"
      },
      "address": "555, Las Malvinas, Quesada, San Carlos, Alajuela Province, 21001, Costa Rica"
    },
    {
      "lat": 10.296549149847102,
      "lon": -84.43403740772936,
      "geoinfo": {
        "display_name": "Calle Cuyeo, Ron Ron Arriba, Quesada, San Carlos, Alajuela Province, 21001, Costa Rica",
        "road": "Calle Cuyeo",
        "house_number": null,
        "neighbourhood": "Ron Ron Arriba",
        "suburb": null,
        "city_district": null,
        "city": "Quesada",
        "state": "Alajuela Province",
        "postcode": "21001",
        "country": "Costa Rica",
        "country_code": "cr"
      },
      "address": "978, Calle Cuyeo, Ron Ron Arriba, Quesada, San Carlos, Alajuela Province, 21001, Costa Rica"
    },
    {
      "lat": 10.36372560788925,
      "lon": -84.42102963236279,
      "geoinfo": {
        "display_name": "Calle San Luis, San Luis, Quesada, San Carlos, Alajuela Province, 21001, Costa Rica",
        "road": "Calle San Luis",
        "house_number": null,
        "neighbourhood": null,
        "suburb": null,
        "city_district": null,
        "city": "Quesada",
        "state": "Alajuela Province",
        "postcode": "21001",
        "country": "Costa Rica",
        "country_code": "cr"
      },
      "address": "890, Calle San Luis, San Luis, Quesada, San Carlos, Alajuela Province, 21001, Costa Rica"
    },
    {
      "lat": 10.316492260221509,
      "lon": -84.42654082168217,
      "geoinfo": {
        "display_name": "Avenida 16A, Lourdes, Quesada, San Carlos, Alajuela Province, 21001, Costa Rica",
        "road": "Avenida 16A",
        "house_number": null,
        "neighbourhood": "Lourdes",
        "suburb": null,
        "city_district": null,
        "city": "Quesada",
        "state": "Alajuela Province",
        "postcode": "21001",
        "country": "Costa Rica",
        "country_code": "cr"
      },
      "address": "Avenida 16A, Lourdes, Quesada, San Carlos, Alajuela Province, 21001, Costa Rica"
    },
    {
      "lat": 10.33939984963938,
      "lon": -84.46815888114492,
      "geoinfo": {
        "display_name": "Calle Pénjamo, Pénjamo, Florencia, San Carlos, Alajuela Province, 21002, Costa Rica",
        "road": "Calle Pénjamo",
        "house_number": null,
        "neighbourhood": null,
        "suburb": null,
        "city_district": null,
        "city": "Florencia",
        "state": "Alajuela Province",
        "postcode": "21002",
        "country": "Costa Rica",
        "country_code": "cr"
      },
      "address": "747, Calle Pénjamo, Pénjamo, Florencia, San Carlos, Alajuela Province, 21002, Costa Rica"
    }
  ],
  "updated_at": "2025-10-19T03:50:53.553964+00:00",
  "_kind": "geo_samples"
}