{
  "country_code": "CR",
  "country": "Costa Rica",
  "city": "San Pedro",
  "geonameid": 3621717,
  "target_addresses": 3,
  "samples": [
    {
      "lat": 9.958912727008155,
      "lon": -84.0503952444008,
      "geoinfo": {
        "display_name": "Calle 61, La Guaria, Ciudad de San José, Moravia, San Jose Province, 11401, Costa Rica",
        "road": "Calle 61",
        "house_number": null,
        "neighbourhood": "La Guaria",
        "suburb": null,
        "city_district": null,
        "city": "Ciudad de San José",
        "state": null,
        "postcode": "11401",
        "country": "Costa Rica",
        "country_code": "cr"
      },
      "address": "Calle 61, San Pedro, Costa Rica"
    },
    {
      "lat": 9.928189547387728,
      "lon": -84.05404773860418,
      "geoinfo": {
        "display_name": "Calle 55, Oriente, Ciudad de San José, Montes de Oca, San Jose Province, 11501, Costa Rica",
        "road": "Calle 55",
        "house_number": null,
        "neighbourhood": "Oriente",
        "suburb": null,
        "city_district": null,
        "city": "Ciudad de San José",
        "state": null,
        "postcode": "11501",
        "country": "Costa Rica",
        "country_code": "cr"
      },
      "address": "Calle 55, San Pedro, Costa Rica"
    },
    {
      "lat": 9.942805392615378,
      "lon": -84.02516680934082,
      "geoinfo": {
        "display_name": "Calle Cedros, La Maravilla, Ciudad de San José, Montes de Oca, San Jose Province, 11502, Costa Rica",
        "road": "Calle Cedros",
        "house_number": null,
        "neighbourhood": "La Maravilla",
        "suburb": null,
        "city_district": null,
        "city": "Ciudad de San José",
        "state": null,
        "postcode": "11502",
        "country": "Costa Rica",
        "country_code": "cr"
      },
      "address": "Calle Cedros, San Pedro, Costa Rica"
    },
    {
      "lat": 9.94112031708641,
      "lon": -84.01278187102032,
      "geoinfo": {
        "display_name": "Fresh Market, Avenida Primera, Cond. Altos de Sabanilla, Ciudad de San José, Montes de Oca, San Jose Province, 11504, Costa Rica",
        "road": "Avenida Primera",
        "house_number": null,
        "neighbourhood": null,
        "suburb": null,
        "city_district": null,
        "city": "Ciudad de San José",
        "state": null,
        "postcode": "11504",
        "country": "Costa Rica",
        "country_code": "cr"
      },
      "address": "080, Avenida Primera, 11504 San Pedro, Costa Rica"
    },
    {
      "lat": 9.908236574748347,
      "lon": -84.0413019896366,
      "geoinfo": {
        "display_name": "Ropa Americana, Vía 210, La Colina, Ciudad de San José, Curridabat, San Jose Province, 11804, Costa Rica",
        "road": "Vía 210",
        "house_number": null,
        "neighbourhood": "La Colina",
        "suburb": null,
        "city_district": null,
        "city": "Ciudad de San José",
        "state": null,
        "postcode": "11804",
        "country": "Costa Rica",
        "country_code": "cr"
      },
      "address": "Ropa Americana, Vía 210, La Colina, Ciudad de San José, Curridabat, San Jose Province, 11804, Costa Rica"
    },
    {
      "lat": 9.88564231034766,
      "lon": -84.03795349802225,
      "geoinfo": {
        "display_name": "Vía 212, El Dorado, Fátima, Ciudad de San José, Desamparados, San Jose Province, 10310, Costa Rica",
        "road": "Vía 212",
        "house_number": null,
        "neighbourhood": "El Dorado",
        "suburb": null,
        "city_district": null,
        "city": "Ciudad de San José",
        "state": null,
        "postcode": "10310",
        "country": "Costa Rica",
        "country_code": "cr"
      },
      "address": "Vía 212, El Dorado, Fátima, Ciudad de San José, Desamparados, San Jose Province, 10310, Costa Rica"
    }
  ],
  "updated_at": "2025-10-19T03:59:45.897355+00:00",
  "_kind": "geo_samples"
}