{
  "country_code": "CR",
  "country": "Costa Rica",
  "city": "San José",
  "geonameid": 3621849,
  "target_addresses": 3,
  "samples": [
    {
      "lat": 9.897329745279597,
      "lon": -84.1009463550002,
      "geoinfo": {
        "display_name": "Calle Tejar, Bella Vista, Ciudad de San José, Alajuelita, San Jose Province, 11001, Costa Rica",
        "road": "Calle Tejar",
        "house_number": null,
        "neighbourhood": "Bella Vista",
        "suburb": null,
        "city_district": null,
        "city": "Ciudad de San José",
        "state": null,
        "postcode": "11001",
        "country": "Costa Rica",
        "country_code": "cr"
      },
      "address": "Calle Tejar, San José, Costa Rica"
    },
    {
      "lat": 9.931011993392316,
      "lon": -84.09077704858703,
      "geoinfo": {
        "display_name": "Repuestos y Taller de Mecánica, Avenida 10 San Martín, Bolívar, San José, Ciudad de San José, San José, San Jose Province, 10103, Costa Rica",
        "road": "Avenida 10 San Martín",
        "house_number": null,
        "neighbourhood": "Bolívar",
        "suburb": null,
        "city_district": null,
        "city": "San José",
        "state": null,
        "postcode": "10103",
        "country": "Costa Rica",
        "country_code": "cr"
      },
      "address": "Avenida 10 San Martín, San José, Costa Rica"
    },
    {
      "lat": 9.931232262066787,
      "lon": -84.06941405065677,
      "geoinfo": {
        "display_name": "Torre Judicial, 0027, Avenida 6 Castro Madriz, González Lahmann, Ciudad de San José, San José, San Jose Province, 10104, Costa Rica",
        "road": "Avenida 6 Castro Madriz",
        "house_number": "0027",
        "neighbourhood": "González Lahmann",
        "suburb": null,
        "city_district": null,
        "city": "Ciudad de San José",
        "state": null,
        "postcode": "10104",
        "country": "Costa Rica",
        "country_code": "cr"
      },
      "address": "0027 Avenida 6 Castro Madriz, San José, Costa Rica"
    },
    {
      "lat": 9.934101930453934,
      "lon": -84.07707236582566,
      "geoinfo": {
        "display_name": "Edificio 5 de Diciembre, 0003, Avenida Central Rogelio Fernández Güell, Centro Hospital, San José, Ciudad de San José, San José, San Jose Province, 10103, Costa Rica",
        "road": "Avenida Central Rogelio Fernández Güell",
        "house_number": "0003",
        "neighbourhood": null,
        "suburb": "Centro Hospital",
        "city_district": null,
        "city": "San José",
        "state": null,
        "postcode": "10103",
        "country": "Costa Rica",
        "country_code": "cr"
      },
      "address": "Edificio 5 de Diciembre, 0003, Avenida Central Rogelio Fernández Güell, Centro Hospital, San José, Ciudad de San José, San José, San Jose Province, 10103, Costa Rica"
    },
    {
      "lat": 9.90485215496784,
      "lon": -84.05447680961662,
      "geoinfo": {
        "display_name": "Avenida 64A, La Pacífica, Ciudad de San José, San José, San Jose Province, 10106, Costa Rica",
        "road": "Avenida 64A",
        "house_number": null,
        "neighbourhood": "La Pacífica",
        "suburb": null,
        "city_district": null,
        "city": "Ciudad de San José",
        "state": null,
        "postcode": "10106",
        "country": "Costa Rica",
        "country_code": "cr"
      },
      "address": "Avenida 64A, La Pacífica, Ciudad de San José, San José, San Jose Province, 10106, Costa Rica"
    },
    {
      "lat": 9.904168341229973,
      "lon": -84.1083773152771,
      "geoinfo": {
        "display_name": "Alameda 10, Joaquín García Monge, Ciudad de San José, Alajuelita, San Jose Province, 11005, Costa Rica",
        "road": "Alameda 10",
        "house_number": null,
        "neighbourhood": "Joaquín García Monge",
        "suburb": null,
        "city_district": null,
        "city": "Ciudad de San José",
        "state": null,
        "postcode": "11005",
        "country": "Costa Rica",
        "country_code": "cr"
      },
      "address": "Alameda 10, Joaquín García Monge, Ciudad de San José, Alajuelita, San Jose Province, 11005, Costa Rica"
    }
  ],
  "updated_at": "2025-10-19T03:44:15.026632+00:00",
  "_kind": "geo_samples"
}