{
  "country_code": "CR",
  "country": "Costa Rica",
  "city": "San Rafael",
  "geonameid": 3621689,
  "target_addresses": 3,
  "samples": [
    {
      "lat": 9.92492887970825,
      "lon": -84.14391730628968,
      "geoinfo": {
        "display_name": "Avenida 20, Itabas, Ciudad de San José, Escazú, San Jose Province, 10201, Costa Rica",
        "road": "Avenida 20",
        "house_number": null,
        "neighbourhood": "Itabas",
        "suburb": null,
        "city_district": null,
        "city": "Ciudad de San José",
        "state": null,
        "postcode": "10201",
        "country": "Costa Rica",
        "country_code": "cr"
      },
      "address": "Avenida 20, San Rafael, Costa Rica"
    },
    {
      "lat": 9.901057076106085,
      "lon": -84.09915034886839,
      "geoinfo": {
        "display_name": "Megasuper, Calle 44, Tiribí, Alajuelita, San José, San Jose Province, 10110, Costa Rica",
        "road": "Calle 44",
        "house_number": null,
        "neighbourhood": "Tiribí",
        "suburb": null,
        "city_district": null,
        "city": "Alajuelita",
        "state": null,
        "postcode": "10110",
        "country": "Costa Rica",
        "country_code": "cr"
      },
      "address": "Calle 44, San Rafael, Costa Rica"
    },
    {
      "lat": 9.905574508993068,
      "lon": -84.16493785953357,
      "geoinfo": {
        "display_name": "Salitral, Santa Ana, San Jose Province, 10902, Costa Rica",
        "road": null,
        "house_number": null,
        "neighbourhood": null,
        "suburb": null,
        "city_district": null,
        "city": "Salitral",
        "state": null,
        "postcode": "10902",
        "country": "Costa Rica",
        "country_code": "cr"
      },
      "address": "San Rafael, Costa Rica"
    },
    {
      "lat": 9.885336859546669,
      "lon": -84.14244295549265,
      "geoinfo": {
        "display_name": "Calle Lajas, El Carmen, Ciudad de San José, Escazú, San Jose Province, 10202, Costa Rica",
        "road": "Calle Lajas",
        "house_number": null,
        "neighbourhood": "El Carmen",
        "suburb": null,
        "city_district": null,
        "city": "Ciudad de San José",
        "state": null,
        "postcode": "10202",
        "country": "Costa Rica",
        "country_code": "cr"
      },
      "address": "702, Calle Lajas, El Carmen, Ciudad de San José, Escazú, San Jose Province, 10202, Costa Rica"
    },
    {
      "lat": 9.964573515901593,
      "lon": -84.16098269730354,
      "geoinfo": {
        "display_name": "Avenida 63, Ciudad de San José, San José, San Jose Province, 10107, Costa Rica",
        "road": "Avenida 63",
        "house_number": null,
        "neighbourhood": null,
        "suburb": null,
        "city_district": null,
        "city": "Ciudad de San José",
        "state": null,
        "postcode": "10107",
        "country": "Costa Rica",
        "country_code": "cr"
      },
      "address": "Avenida 63, Ciudad de San José, San José, San Jose Province, 10107, Costa Rica"
    },
    {
      "lat": 9.9127782702614,
      "lon": -84.12181157282781,
      "geoinfo": {
        "display_name": "Calle Central, Urb. Boulevard de La Guardia, Ciudad de San José, Alajuelita, San Jose Province, 11005, Costa Rica",
        "road": "Calle Central",
        "house_number": null,
        "neighbourhood": null,
        "suburb": null,
        "city_district": null,
        "city": "Ciudad de San José",
        "state": null,
        "postcode": "11005",
        "country": "Costa Rica",
        "country_code": "cr"
      },
      "address": "702, Calle Central, Urb. Boulevard de La Guardia, Ciudad de San José, Alajuelita, San Jose Province, 11005, Costa Rica"
    }
  ],
  "updated_at": "2025-10-19T03:43:42.243951+00:00",
  "_kind": "geo_samples"
}