{
  "country_code": "CR",
  "country": "Costa Rica",
  "city": "San Diego",
  "geonameid": 3621926,
  "target_addresses": 3,
  "samples": [
    {
      "lat": 9.887162003509282,
      "lon": -84.01613654447596,
      "geoinfo": {
        "display_name": "Río Azul, La Unión, Cartago Province, 30308, Costa Rica",
        "road": null,
        "house_number": null,
        "neighbourhood": null,
        "suburb": null,
        "city_district": null,
        "city": "Río Azul",
        "state": null,
        "postcode": "30308",
        "country": "Costa Rica",
        "country_code": "cr"
      },
      "address": "San Diego, Costa Rica"
    },
    {
      "lat": 9.908723899929589,
      "lon": -83.97618027684548,
      "geoinfo": {
        "display_name": "Calle Uno, Residencial Sierras de La Unión, San Rafael, La Unión, Cartago Province, 30304, Costa Rica",
        "road": "Calle Uno",
        "house_number": null,
        "neighbourhood": null,
        "suburb": null,
        "city_district": null,
        "city": "San Rafael",
        "state": null,
        "postcode": "30304",
        "country": "Costa Rica",
        "country_code": "cr"
      },
      "address": "Calle Uno, San Diego, Costa Rica"
    },
    {
      "lat": 9.893558669664676,
      "lon": -84.02825783327191,
      "geoinfo": {
        "display_name": "Calle 113, 15 de Agosto, Ciudad de San José, Curridabat, San Jose Province, 11804, Costa Rica",
        "road": "Calle 113",
        "house_number": null,
        "neighbourhood": "15 de Agosto",
        "suburb": null,
        "city_district": null,
        "city": "Ciudad de San José",
        "state": null,
        "postcode": "11804",
        "country": "Costa Rica",
        "country_code": "cr"
      },
      "address": "Calle 113, San Diego, Costa Rica"
    },
    {
      "lat": 9.910758342857378,
      "lon": -83.99596258832251,
      "geoinfo": {
        "display_name": "Calle Bonilla, San Juan, La Unión, Cartago Province, 30303, Costa Rica",
        "road": "Calle Bonilla",
        "house_number": null,
        "neighbourhood": null,
        "suburb": null,
        "city_district": null,
        "city": "San Juan",
        "state": null,
        "postcode": "30303",
        "country": "Costa Rica",
        "country_code": "cr"
      },
      "address": "061, Calle Bonilla, San Juan, La Unión, Cartago Province, 30303, Costa Rica"
    },
    {
      "lat": 9.857934204226341,
      "lon": -84.00513701899558,
      "geoinfo": {
        "display_name": "Calle Alto Lajas, Alto Quebradilla, Quebradilla, Cartago, Cartago Province, 30111, Costa Rica",
        "road": "Calle Alto Lajas",
        "house_number": null,
        "neighbourhood": "Alto Quebradilla",
        "suburb": null,
        "city_district": null,
        "city": "Quebradilla",
        "state": null,
        "postcode": "30111",
        "country": "Costa Rica",
        "country_code": "cr"
      },
      "address": "365, Calle Alto Lajas, Alto Quebradilla, Quebradilla, Cartago, Cartago Province, 30111, Costa Rica"
    },
    {
      "lat": 9.906201082471357,
      "lon": -83.99031506986216,
      "geoinfo": {
        "display_name": "Avenida 6, Urb. La Carpintera, Tres Ríos, La Unión, Cartago Province, 30301, Costa Rica",
        "road": "Avenida 6",
        "house_number": null,
        "neighbourhood": null,
        "suburb": null,
        "city_district": null,
        "city": "Tres Ríos",
        "state": null,
        "postcode": "30301",
        "country": "Costa Rica",
        "country_code": "cr"
      },
      "address": "Avenida 6, Urb. La Carpintera, Tres Ríos, La Unión, Cartago Province, 30301, Costa Rica"
    }
  ],
  "updated_at": "2025-10-19T03:33:29.603867+00:00",
  "_kind": "geo_samples"
}