{
  "country_code": "CR",
  "country": "Costa Rica",
  "city": "Siquirres",
  "geonameid": 3621440,
  "target_addresses": 14,
  "samples": [
    {
      "lat": 10.126513504609047,
      "lon": -83.54115443959697,
      "geoinfo": {
        "display_name": "Francia, El Cairo, Siquirres, Limón Province, 70305, Costa Rica",
        "road": null,
        "house_number": null,
        "neighbourhood": "Francia",
        "suburb": null,
        "city_district": null,
        "city": "El Cairo",
        "state": null,
        "postcode": "70305",
        "country": "Costa Rica",
        "country_code": "cr"
      },
      "address": "Francia, Siquirres, Costa Rica"
    },
    {
      "lat": 10.10257296235176,
      "lon": -83.5476373813553,
      "geoinfo": {
        "display_name": "Calle Fuentes, El Cairo, Siquirres, Limón Province, 70305, Costa Rica",
        "road": "Calle Fuentes",
        "house_number": null,
        "neighbourhood": null,
        "suburb": null,
        "city_district": null,
        "city": "El Cairo",
        "state": null,
        "postcode": "70305",
        "country": "Costa Rica",
        "country_code": "cr"
      },
      "address": "Calle Fuentes, Siquirres, Costa Rica"
    },
    {
      "lat": 10.121199994801017,
      "lon": -83.505135026803,
      "geoinfo": {
        "display_name": "Calle Chanchos, Cocal, Siquirres, Limón Province, 70301, Costa Rica",
        "road": "Calle Chanchos",
        "house_number": null,
        "neighbourhood": null,
        "suburb": null,
        "city_district": null,
        "city": "Siquirres",
        "state": null,
        "postcode": "70301",
        "country": "Costa Rica",
        "country_code": "cr"
      },
      "address": "Calle Chanchos, Siquirres, Costa Rica"
    },
    {
      "lat": 10.111523743188624,
      "lon": -83.51058012037686,
      "geoinfo": {
        "display_name": "Avenida 21, Los Trabajadores, Livingston, Siquirres, Limón Province, 70301, Costa Rica",
        "road": "Avenida 21",
        "house_number": null,
        "neighbourhood": "Los Trabajadores",
        "suburb": null,
        "city_district": null,
        "city": "Siquirres",
        "state": null,
        "postcode": "70301",
        "country": "Costa Rica",
        "country_code": "cr"
      },
      "address": "Avenida 21, Siquirres, Costa Rica"
    },
    {
      "lat": 10.090886205593762,
      "lon": -83.50886196819727,
      "geoinfo": {
        "display_name": "Colegio Técnico Profesional Roberto Evans, Calle Marginal Norte, El Triunfo, Siquirres, Limón Province, 70301, Costa Rica",
        "road": "Calle Marginal Norte",
        "house_number": null,
        "neighbourhood": "El Triunfo",
        "suburb": null,
        "city_district": null,
        "city": "Siquirres",
        "state": null,
        "postcode": "70301",
        "country": "Costa Rica",
        "country_code": "cr"
      },
      "address": "Colegio Técnico Profesional Roberto Evans, Calle Marginal Norte, El Triunfo, Siquirres, Limón Province, 70301, Costa Rica"
    },
    {
      "lat": 10.122945648155998,
      "lon": -83.51096339756114,
      "geoinfo": {
        "display_name": "Vía 806, El Quebrador, Livingston, Siquirres, Limón Province, 70301, Costa Rica",
        "road": "Vía 806",
        "house_number": null,
        "neighbourhood": "El Quebrador",
        "suburb": null,
        "city_district": null,
        "city": "Siquirres",
        "state": null,
        "postcode": "70301",
        "country": "Costa Rica",
        "country_code": "cr"
      },
      "address": "Vía 806, El Quebrador, Livingston, Siquirres, Limón Province, 70301, Costa Rica"
    },
    {
      "lat": 10.128349973327104,
      "lon": -83.53269516489898,
      "geoinfo": {
        "display_name": "Calle Ramal Cairo, El Cairo, Siquirres, Limón Province, 70305, Costa Rica",
        "road": "Calle Ramal Cairo",
        "house_number": null,
        "neighbourhood": null,
        "suburb": null,
        "city_district": null,
        "city": "El Cairo",
        "state": null,
        "postcode": "70305",
        "country": "Costa Rica",
        "country_code": "cr"
      },
      "address": "844, Calle Ramal Cairo, El Cairo, Siquirres, Limón Province, 70305, Costa Rica"
    },
    {
      "lat": 10.10130460688572,
      "lon": -83.51298233286522,
      "geoinfo": {
        "display_name": "Calle 14A, El INVU, Siquirres, Limón Province, 70301, Costa Rica",
        "road": "Calle 14A",
        "house_number": null,
        "neighbourhood": "El INVU",
        "suburb": null,
        "city_district": null,
        "city": "Siquirres",
        "state": null,
        "postcode": "70301",
        "country": "Costa Rica",
        "country_code": "cr"
      },
      "address": "Calle 14A, El INVU, Siquirres, Limón Province, 70301, Costa Rica"
    },
    {
      "lat": 10.08356237433578,
      "lon": -83.53931902095488,
      "geoinfo": {
        "display_name": "Moravia, Siquirres, Limón Province, 70301, Costa Rica",
        "road": null,
        "house_number": null,
        "neighbourhood": null,
        "suburb": null,
        "city_district": null,
        "city": "Siquirres",
        "state": null,
        "postcode": "70301",
        "country": "Costa Rica",
        "country_code": "cr"
      },
      "address": "729, Moravia, Siquirres, Limón Province, 70301, Costa Rica"
    },
    {
      "lat": 10.095597649104997,
      "lon": -83.49508120055407,
      "geoinfo": {
        "display_name": "Barrio Nuevo, Siquirres, Limón Province, 70301, Costa Rica",
        "road": null,
        "house_number": null,
        "neighbourhood": "Barrio Nuevo",
        "suburb": null,
        "city_district": null,
        "city": "Siquirres",
        "state": null,
        "postcode": "70301",
        "country": "Costa Rica",
        "country_code": "cr"
      },
      "address": "120, Barrio Nuevo, Siquirres, Limón Province, 70301, Costa Rica"
    },
    {
      "lat": 10.122684589115666,
      "lon": -83.49637999360286,
      "geoinfo": {
        "display_name": "Calle Central, Siquirres, Limón Province, 70301, Costa Rica",
        "road": "Calle Central",
        "house_number": null,
        "neighbourhood": null,
        "suburb": null,
        "city_district": null,
        "city": "Siquirres",
        "state": null,
        "postcode": "70301",
        "country": "Costa Rica",
        "country_code": "cr"
      },
      "address": "901, Calle Central, Siquirres, Limón Province, 70301, Costa Rica"
    },
    {
      "lat": 10.122695450250118,
      "lon": -83.50858356330168,
      "geoinfo": {
        "display_name": "Calle Cocal, Cocal, Siquirres, Limón Province, 70301, Costa Rica",
        "road": "Calle Cocal",
        "house_number": null,
        "neighbourhood": null,
        "suburb": null,
        "city_district": null,
        "city": "Siquirres",
        "state": null,
        "postcode": "70301",
        "country": "Costa Rica",
        "country_code": "cr"
      },
      "address": "973, Calle Cocal, Cocal, Siquirres, Limón Province, 70301, Costa Rica"
    },
    {
      "lat": 10.13427930726848,
      "lon": -83.51018780654204,
      "geoinfo": {
        "display_name": "Calle Louisiana, 3 Millas, El Cairo, Siquirres, Limón Province, 70305, Costa Rica",
        "road": "Calle Louisiana",
        "house_number": null,
        "neighbourhood": null,
        "suburb": null,
        "city_district": null,
        "city": "El Cairo",
        "state": null,
        "postcode": "70305",
        "country": "Costa Rica",
        "country_code": "cr"
      },
      "address": "Calle Louisiana, 3 Millas, El Cairo, Siquirres, Limón Province, 70305, Costa Rica"
    },
    {
      "lat": 10.10126046931829,
      "lon": -83.51706593694293,
      "geoinfo": {
        "display_name": "Carretera Braulio Carrillo, La Mucap, Siquirres, Limón Province, 70301, Costa Rica",
        "road": "Carretera Braulio Carrillo",
        "house_number": null,
        "neighbourhood": "La Mucap",
        "suburb": null,
        "city_district": null,
        "city": "Siquirres",
        "state": null,
        "postcode": "70301",
        "country": "Costa Rica",
        "country_code": "cr"
      },
      "address": "122, Carretera Braulio Carrillo, La Mucap, Siquirres, Limón Province, 70301, Costa Rica"
    }
  ],
  "updated_at": "2025-10-19T03:50:30.547901+00:00",
  "_kind": "geo_samples"
}