{
  "country_code": "CR",
  "country": "Costa Rica",
  "city": "Turrialba",
  "geonameid": 3621184,
  "target_addresses": 3,
  "samples": [
    {
      "lat": 9.868832754693148,
      "lon": -83.67777714331629,
      "geoinfo": {
        "display_name": "Vía 411, Corazón de Jesús, San Juan Sur, Turrialba, Cartago Province, 30501, Costa Rica",
        "road": "Vía 411",
        "house_number": null,
        "neighbourhood": "Corazón de Jesús",
        "suburb": null,
        "city_district": null,
        "city": "Turrialba",
        "state": null,
        "postcode": "30501",
        "country": "Costa Rica",
        "country_code": "cr"
      },
      "address": "Vía 411, Turrialba, Costa Rica"
    },
    {
      "lat": 9.890022001731461,
      "lon": -83.68235169744115,
      "geoinfo": {
        "display_name": "Calle Escuela Vieja, Noche Buena, Turrialba, Cartago Province, 30501, Costa Rica",
        "road": "Calle Escuela Vieja",
        "house_number": null,
        "neighbourhood": "Noche Buena",
        "suburb": null,
        "city_district": null,
        "city": "Turrialba",
        "state": null,
        "postcode": "30501",
        "country": "Costa Rica",
        "country_code": "cr"
      },
      "address": "Calle Escuela Vieja, Turrialba, Costa Rica"
    },
    {
      "lat": 9.882865842430375,
      "lon": -83.64698328684953,
      "geoinfo": {
        "display_name": "Vía 10, La Angustura, Eslabón, Pavones, Turrialba, Cartago Province, 30506, Costa Rica",
        "road": "Vía 10",
        "house_number": null,
        "neighbourhood": "La Angustura",
        "suburb": null,
        "city_district": null,
        "city": "Pavones",
        "state": null,
        "postcode": "30506",
        "country": "Costa Rica",
        "country_code": "cr"
      },
      "address": "Vía 10, Turrialba, Costa Rica"
    },
    {
      "lat": 9.896318222492496,
      "lon": -83.70300055091303,
      "geoinfo": {
        "display_name": "Calle San Juan, San Juan Norte, Turrialba, Cartago Province, 30501, Costa Rica",
        "road": "Calle San Juan",
        "house_number": null,
        "neighbourhood": null,
        "suburb": null,
        "city_district": null,
        "city": "Turrialba",
        "state": null,
        "postcode": "30501",
        "country": "Costa Rica",
        "country_code": "cr"
      },
      "address": "658, Calle San Juan, San Juan Norte, Turrialba, Cartago Province, 30501, Costa Rica"
    },
    {
      "lat": 9.876636539057024,
      "lon": -83.71004183373864,
      "geoinfo": {
        "display_name": "Calle Bautista Pérez, Chiz, Turrialba, Cartago Province, 30501, Costa Rica",
        "road": "Calle Bautista Pérez",
        "house_number": null,
        "neighbourhood": null,
        "suburb": null,
        "city_district": null,
        "city": "Turrialba",
        "state": null,
        "postcode": "30501",
        "country": "Costa Rica",
        "country_code": "cr"
      },
      "address": "997, Calle Bautista Pérez, Chiz, Turrialba, Cartago Province, 30501, Costa Rica"
    },
    {
      "lat": 9.913077380792803,
      "lon": -83.69986552109229,
      "geoinfo": {
        "display_name": "Calle Colorado, Pastor, Colorado, Turrialba, Cartago Province, 30501, Costa Rica",
        "road": "Calle Colorado",
        "house_number": null,
        "neighbourhood": "Pastor",
        "suburb": null,
        "city_district": null,
        "city": "Turrialba",
        "state": null,
        "postcode": "30501",
        "country": "Costa Rica",
        "country_code": "cr"
      },
      "address": "769, Calle Colorado, Pastor, Colorado, Turrialba, Cartago Province, 30501, Costa Rica"
    }
  ],
  "updated_at": "2025-10-19T02:03:26.191877+00:00",
  "_kind": "geo_samples"
}