{
  "country_code": "TM",
  "country": "Turkmenistan",
  "city": "Gökdepe",
  "geonameid": 161950,
  "target_addresses": 12,
  "samples": [
    {
      "lat": 38.16466295287806,
      "lon": 57.94685688640557,
      "geoinfo": {
        "display_name": "Magtymguly şaýoly, Gokdepe, Gökdepe District, 745190, Turkmenistan",
        "road": "Magtymguly şaýoly",
        "house_number": null,
        "neighbourhood": null,
        "suburb": null,
        "city_district": null,
        "city": "Gokdepe",
        "state": null,
        "postcode": "745190",
        "country": "Turkmenistan",
        "country_code": "tm"
      },
      "address": "Magtymguly şaýoly, Gökdepe, Turkmenistan"
    },
    {
      "lat": 38.122560968373186,
      "lon": 57.9313029170301,
      "geoinfo": {
        "display_name": "Ýaňgala, Gökdepe District, 745190, Turkmenistan",
        "road": null,
        "house_number": null,
        "neighbourhood": null,
        "suburb": null,
        "city_district": null,
        "city": "Ýaňgala",
        "state": null,
        "postcode": "745190",
        "country": "Turkmenistan",
        "country_code": "tm"
      },
      "address": "Gökdepe, Turkmenistan"
    },
    {
      "lat": 38.12973830258793,
      "lon": 57.93306563092287,
      "geoinfo": {
        "display_name": "Myrathan köçesi, Ýaňgala, Gökdepe District, 745190, Turkmenistan",
        "road": "Myrathan köçesi",
        "house_number": null,
        "neighbourhood": null,
        "suburb": null,
        "city_district": null,
        "city": "Ýaňgala",
        "state": null,
        "postcode": "745190",
        "country": "Turkmenistan",
        "country_code": "tm"
      },
      "address": "Myrathan köçesi, Gökdepe, Turkmenistan"
    },
    {
      "lat": 38.1769047941709,
      "lon": 57.985786345394104,
      "geoinfo": {
        "display_name": "Gökdepe District, Ahal Region, 745190, Turkmenistan",
        "road": null,
        "house_number": null,
        "neighbourhood": null,
        "suburb": null,
        "city_district": null,
        "city": null,
        "state": "Ahal Region",
        "postcode": "745190",
        "country": "Turkmenistan",
        "country_code": "tm"
      },
      "address": "Gökdepe, Ahal Region, Turkmenistan"
    },
    {
      "lat": 38.14654771725436,
      "lon": 57.94495034003117,
      "geoinfo": {
        "display_name": "Dul oba, Gokdepe, Gökdepe District, Ahal Region, 745190, Turkmenistan",
        "road": null,
        "house_number": null,
        "neighbourhood": "Dul oba",
        "suburb": null,
        "city_district": null,
        "city": "Gokdepe",
        "state": "Ahal Region",
        "postcode": "745190",
        "country": "Turkmenistan",
        "country_code": "tm"
      },
      "address": "163, Dul oba, Gokdepe, Gökdepe District, Ahal Region, 745190, Turkmenistan"
    },
    {
      "lat": 38.18147627273035,
      "lon": 57.98059413478115,
      "geoinfo": {
        "display_name": "Ahal obasy, Gökdepe District, Ahal Region, Turkmenistan",
        "road": null,
        "house_number": null,
        "neighbourhood": null,
        "suburb": null,
        "city_district": null,
        "city": "Ahal obasy",
        "state": "Ahal Region",
        "postcode": null,
        "country": "Turkmenistan",
        "country_code": "tm"
      },
      "address": "574, Ahal obasy, Gökdepe District, 34584 Ahal Region, Turkmenistan"
    },
    {
      "lat": 38.172667019868804,
      "lon": 57.90769095131259,
      "geoinfo": {
        "display_name": "M37, Gokdepe, Gökdepe District, Turkmenistan",
        "road": "M37",
        "house_number": null,
        "neighbourhood": null,
        "suburb": null,
        "city_district": null,
        "city": "Gokdepe",
        "state": null,
        "postcode": null,
        "country": "Turkmenistan",
        "country_code": "tm"
      },
      "address": "M37, Gokdepe, 75480 Gökdepe District, Turkmenistan"
    },
    {
      "lat": 38.122214878562,
      "lon": 57.93876433949465,
      "geoinfo": {
        "display_name": "Hojamyradow köçesi, Ýaňgala, Gökdepe District, 745190, Turkmenistan",
        "road": "Hojamyradow köçesi",
        "house_number": null,
        "neighbourhood": null,
        "suburb": null,
        "city_district": null,
        "city": "Ýaňgala",
        "state": null,
        "postcode": "745190",
        "country": "Turkmenistan",
        "country_code": "tm"
      },
      "address": "746, Hojamyradow köçesi, Ýaňgala, Gökdepe District, 745190, Turkmenistan"
    },
    {
      "lat": 38.11917156066189,
      "lon": 57.94068697244002,
      "geoinfo": {
        "display_name": "Ýaňgala, Gökdepe District, 745190, Turkmenistan",
        "road": null,
        "house_number": null,
        "neighbourhood": null,
        "suburb": null,
        "city_district": null,
        "city": "Ýaňgala",
        "state": null,
        "postcode": "745190",
        "country": "Turkmenistan",
        "country_code": "tm"
      },
      "address": "467, Ýaňgala, Gökdepe District, 745190, Turkmenistan"
    },
    {
      "lat": 38.18102877256715,
      "lon": 58.00713155447834,
      "geoinfo": {
        "display_name": "Gökdepe District, Ahal Region, 745190, Turkmenistan",
        "road": null,
        "house_number": null,
        "neighbourhood": null,
        "suburb": null,
        "city_district": null,
        "city": null,
        "state": "Ahal Region",
        "postcode": "745190",
        "country": "Turkmenistan",
        "country_code": "tm"
      },
      "address": "004, Gökdepe District, Ahal Region, 745190, Turkmenistan"
    },
    {
      "lat": 38.189160422854144,
      "lon": 57.93933857069272,
      "geoinfo": {
        "display_name": "Türkmenistan obasy, Gökdepe District, Ahal Region, 745190, Turkmenistan",
        "road": null,
        "house_number": null,
        "neighbourhood": null,
        "suburb": null,
        "city_district": null,
        "city": "Türkmenistan obasy",
        "state": "Ahal Region",
        "postcode": "745190",
        "country": "Turkmenistan",
        "country_code": "tm"
      },
      "address": "971, Türkmenistan obasy, Gökdepe District, Ahal Region, 745190, Turkmenistan"
    },
    {
      "lat": 38.154344816952005,
      "lon": 58.017477782671925,
      "geoinfo": {
        "display_name": "Köpetdag geňeşligi, Gökdepe District, Ahal Region, 745190, Turkmenistan",
        "road": null,
        "house_number": null,
        "neighbourhood": null,
        "suburb": null,
        "city_district": null,
        "city": "Köpetdag geňeşligi",
        "state": "Ahal Region",
        "postcode": "745190",
        "country": "Turkmenistan",
        "country_code": "tm"
      },
      "address": "772, Köpetdag geňeşligi, Gökdepe District, Ahal Region, 745190, Turkmenistan"
    }
  ],
  "updated_at": "2025-10-19T06:29:11.427553+00:00",
  "_kind": "geo_samples"
}