{
  "country_code": "TM",
  "country": "Turkmenistan",
  "city": "Türkmenabat",
  "geonameid": 1219649,
  "target_addresses": 4,
  "samples": [
    {
      "lat": 39.068495288191144,
      "lon": 63.625919635110904,
      "geoinfo": {
        "display_name": "Miras Köçesi, Chardjuy District, Lebap Region, 345000, Turkmenistan",
        "road": "Miras Köçesi",
        "house_number": null,
        "neighbourhood": null,
        "suburb": null,
        "city_district": null,
        "city": null,
        "state": null,
        "postcode": "345000",
        "country": "Turkmenistan",
        "country_code": "tm"
      },
      "address": "Miras Köçesi, Türkmenabat, Turkmenistan"
    },
    {
      "lat": 39.03678791299999,
      "lon": 63.60265068309125,
      "geoinfo": {
        "display_name": "Turkmenabat City, Lebap Region, 746100, Turkmenistan",
        "road": null,
        "house_number": null,
        "neighbourhood": null,
        "suburb": null,
        "city_district": null,
        "city": "Turkmenabat City",
        "state": null,
        "postcode": "746100",
        "country": "Turkmenistan",
        "country_code": "tm"
      },
      "address": "Türkmenabat, Turkmenistan"
    },
    {
      "lat": 39.114262133880665,
      "lon": 63.579725586519,
      "geoinfo": {
        "display_name": "Derýaçy Etrapçasy, Turkmenabat City, Lebap Region, 746100, Turkmenistan",
        "road": null,
        "house_number": null,
        "neighbourhood": null,
        "suburb": "Derýaçy Etrapçasy",
        "city_district": null,
        "city": "Turkmenabat City",
        "state": null,
        "postcode": "746100",
        "country": "Turkmenistan",
        "country_code": "tm"
      },
      "address": "Derýaçy Etrapçasy, Türkmenabat, Turkmenistan"
    },
    {
      "lat": 39.09401309550175,
      "lon": 63.60442168763077,
      "geoinfo": {
        "display_name": "Magtymguly Pyragy köçesi, Gagarin Etrapçasy, Turkmenabat City, Lebap Region, 746100, Turkmenistan",
        "road": "Magtymguly Pyragy köçesi",
        "house_number": null,
        "neighbourhood": null,
        "suburb": "Gagarin Etrapçasy",
        "city_district": null,
        "city": "Turkmenabat City",
        "state": null,
        "postcode": "746100",
        "country": "Turkmenistan",
        "country_code": "tm"
      },
      "address": "Magtymguly Pyragy köçesi, Türkmenabat, Turkmenistan"
    },
    {
      "lat": 39.07878866600895,
      "lon": 63.57767471515804,
      "geoinfo": {
        "display_name": "1, Nowaýy köçesi, Awtostansiýa Etrapçasy, Turkmenabat City, Lebap Region, 746100, Turkmenistan",
        "road": "Nowaýy köçesi",
        "house_number": "1",
        "neighbourhood": null,
        "suburb": "Awtostansiýa Etrapçasy",
        "city_district": null,
        "city": "Turkmenabat City",
        "state": null,
        "postcode": "746100",
        "country": "Turkmenistan",
        "country_code": "tm"
      },
      "address": "1, Nowaýy köçesi, 746100 Türkmenabat, Turkmenistan"
    },
    {
      "lat": 39.100030351859616,
      "lon": 63.59165101283071,
      "geoinfo": {
        "display_name": "Gagarin etrapçasy, Gagarin Etrapçasy, Turkmenabat City, Lebap Region, 746100, Turkmenistan",
        "road": null,
        "house_number": null,
        "neighbourhood": null,
        "suburb": "Gagarin Etrapçasy",
        "city_district": null,
        "city": "Turkmenabat City",
        "state": null,
        "postcode": "746100",
        "country": "Turkmenistan",
        "country_code": "tm"
      },
      "address": "448, Gagarin Etrapçasy, 746100 Türkmenabat, Turkmenistan"
    },
    {
      "lat": 39.107254442532806,
      "lon": 63.560993928231504,
      "geoinfo": {
        "display_name": "Demiriýol etrapçasy, Uralka etrapçasy, Turkmenabat City, Lebap Region, 746100, Turkmenistan",
        "road": null,
        "house_number": null,
        "neighbourhood": null,
        "suburb": "Uralka etrapçasy",
        "city_district": null,
        "city": "Turkmenabat City",
        "state": null,
        "postcode": "746100",
        "country": "Turkmenistan",
        "country_code": "tm"
      },
      "address": "080, Uralka etrapçasy, 746100 Türkmenabat, Turkmenistan"
    },
    {
      "lat": 39.11398895200901,
      "lon": 63.56815809319451,
      "geoinfo": {
        "display_name": "Wodnikow köçesi, Uralka etrapçasy, Turkmenabat City, Lebap Region, 746100, Turkmenistan",
        "road": "Wodnikow köçesi",
        "house_number": null,
        "neighbourhood": null,
        "suburb": "Uralka etrapçasy",
        "city_district": null,
        "city": "Turkmenabat City",
        "state": null,
        "postcode": "746100",
        "country": "Turkmenistan",
        "country_code": "tm"
      },
      "address": "082, Wodnikow köçesi, 746100 Türkmenabat, Turkmenistan"
    }
  ],
  "updated_at": "2025-10-19T07:15:39.987580+00:00",
  "_kind": "geo_samples"
}