{
  "country_code": "KP",
  "country": "North Korea",
  "city": "Hamhŭng",
  "geonameid": 1877449,
  "target_addresses": 2,
  "samples": [
    {
      "lat": 39.94074539816654,
      "lon": 127.49872330984759,
      "geoinfo": {
        "display_name": "5, Tonghungsan District, Hamhung-si, Yonggwang County, South Hamgyong, North Korea",
        "road": "5",
        "house_number": null,
        "neighbourhood": null,
        "suburb": null,
        "city_district": "Tonghungsan District",
        "city": "Hamhung-si",
        "state": "South Hamgyong",
        "postcode": null,
        "country": "North Korea",
        "country_code": "kp"
      },
      "address": "5, Hamhŭng, South Hamgyong, North Korea"
    },
    {
      "lat": 39.92821724417835,
      "lon": 127.58429266897642,
      "geoinfo": {
        "display_name": "Hoesang District, Hamhung-si, South Hamgyong, North Korea",
        "road": null,
        "house_number": null,
        "neighbourhood": null,
        "suburb": null,
        "city_district": "Hoesang District",
        "city": "Hamhung-si",
        "state": "South Hamgyong",
        "postcode": null,
        "country": "North Korea",
        "country_code": "kp"
      },
      "address": "Hoesang District, Hamhŭng, South Hamgyong, North Korea"
    },
    {
      "lat": 39.87868912142005,
      "lon": 127.5271676531324,
      "geoinfo": {
        "display_name": "Hamju County, South Hamgyong, North Korea",
        "road": null,
        "house_number": null,
        "neighbourhood": null,
        "suburb": null,
        "city_district": null,
        "city": null,
        "state": "South Hamgyong",
        "postcode": null,
        "country": "North Korea",
        "country_code": "kp"
      },
      "address": "722, Hamhŭng, 72333 South Hamgyong, North Korea"
    },
    {
      "lat": 39.8975481606016,
      "lon": 127.56071888129821,
      "geoinfo": {
        "display_name": "Yeongdaegyo Bridge, Segeori 4-dong, Sapho District, Hamhung-si, South Hamgyong, North Korea",
        "road": "Yeongdaegyo Bridge",
        "house_number": null,
        "neighbourhood": "Segeori 4-dong",
        "suburb": null,
        "city_district": "Sapho District",
        "city": "Hamhung-si",
        "state": "South Hamgyong",
        "postcode": null,
        "country": "North Korea",
        "country_code": "kp"
      },
      "address": "025, Yeongdaegyo Bridge, Hamhŭng, 11051 South Hamgyong, North Korea"
    }
  ],
  "updated_at": "2025-10-19T05:39:59.943572+00:00",
  "_kind": "geo_samples"
}