{
  "country_code": "KP",
  "country": "North Korea",
  "city": "Hongwŏn",
  "geonameid": 2044050,
  "target_addresses": 7,
  "samples": [
    {
      "lat": 39.99264569307386,
      "lon": 127.98999070191167,
      "geoinfo": {
        "display_name": "전진로동자구, Hongwon County, South Hamgyong, North Korea",
        "road": null,
        "house_number": null,
        "neighbourhood": null,
        "suburb": null,
        "city_district": null,
        "city": "전진로동자구",
        "state": "South Hamgyong",
        "postcode": null,
        "country": "North Korea",
        "country_code": "kp"
      },
      "address": "Hongwŏn, South Hamgyong, North Korea"
    },
    {
      "lat": 40.04028164260042,
      "lon": 127.97876351591029,
      "geoinfo": {
        "display_name": "7;AH6, Hongwon-eup, Hongwon County, South Hamgyong, North Korea",
        "road": "7;AH6",
        "house_number": null,
        "neighbourhood": null,
        "suburb": null,
        "city_district": null,
        "city": "Hongwon-eup",
        "state": "South Hamgyong",
        "postcode": null,
        "country": "North Korea",
        "country_code": "kp"
      },
      "address": "7;AH6, Hongwŏn, South Hamgyong, North Korea"
    },
    {
      "lat": 40.045666468016556,
      "lon": 127.94396960133702,
      "geoinfo": {
        "display_name": "Goeup-ri, Hongwon County, South Hamgyong, North Korea",
        "road": null,
        "house_number": null,
        "neighbourhood": null,
        "suburb": null,
        "city_district": null,
        "city": "Goeup-ri",
        "state": "South Hamgyong",
        "postcode": null,
        "country": "North Korea",
        "country_code": "kp"
      },
      "address": "974, Hongwŏn, 12542 South Hamgyong, North Korea"
    },
    {
      "lat": 40.05125718055296,
      "lon": 127.95808257855909,
      "geoinfo": {
        "display_name": "Hongwon-eup, Hongwon County, South Hamgyong, North Korea",
        "road": null,
        "house_number": null,
        "neighbourhood": null,
        "suburb": null,
        "city_district": null,
        "city": "Hongwon-eup",
        "state": "South Hamgyong",
        "postcode": null,
        "country": "North Korea",
        "country_code": "kp"
      },
      "address": "390, Hongwŏn, 59921 South Hamgyong, North Korea"
    },
    {
      "lat": 39.99598507343121,
      "lon": 127.91781727685633,
      "geoinfo": {
        "display_name": "Namsan-ri, Hongwon County, South Hamgyong, North Korea",
        "road": null,
        "house_number": null,
        "neighbourhood": null,
        "suburb": null,
        "city_district": null,
        "city": "Namsan-ri",
        "state": "South Hamgyong",
        "postcode": null,
        "country": "North Korea",
        "country_code": "kp"
      },
      "address": "403, Hongwŏn, 45045 South Hamgyong, North Korea"
    },
    {
      "lat": 40.02265192581625,
      "lon": 127.99816824716174,
      "geoinfo": {
        "display_name": "Bangdong-ri, Hongwon County, South Hamgyong, North Korea",
        "road": null,
        "house_number": null,
        "neighbourhood": null,
        "suburb": null,
        "city_district": null,
        "city": "Bangdong-ri",
        "state": "South Hamgyong",
        "postcode": null,
        "country": "North Korea",
        "country_code": "kp"
      },
      "address": "379, Hongwŏn, 29826 South Hamgyong, North Korea"
    },
    {
      "lat": 40.06705685570914,
      "lon": 127.95093577688999,
      "geoinfo": {
        "display_name": "Haksong-ri, Hongwon County, South Hamgyong, North Korea",
        "road": null,
        "house_number": null,
        "neighbourhood": null,
        "suburb": null,
        "city_district": null,
        "city": "Haksong-ri",
        "state": "South Hamgyong",
        "postcode": null,
        "country": "North Korea",
        "country_code": "kp"
      },
      "address": "209, Hongwŏn, 30814 South Hamgyong, North Korea"
    }
  ],
  "updated_at": "2025-10-19T05:14:34.164449+00:00",
  "_kind": "geo_samples"
}