{
  "country_code": "KP",
  "country": "North Korea",
  "city": "Musan-ŭp",
  "geonameid": 2042738,
  "target_addresses": 2,
  "samples": [
    {
      "lat": 42.24062747286075,
      "lon": 129.22938088601316,
      "geoinfo": {
        "display_name": "Namsan Labor District, Musan County, North Hamgyong, North Korea",
        "road": null,
        "house_number": null,
        "neighbourhood": null,
        "suburb": null,
        "city_district": null,
        "city": "Musan County",
        "state": "North Hamgyong",
        "postcode": null,
        "country": "North Korea",
        "country_code": "kp"
      },
      "address": "Musan-ŭp, North Hamgyong, North Korea"
    },
    {
      "lat": 42.22273688209597,
      "lon": 129.26512761473552,
      "geoinfo": {
        "display_name": "81, Changryeol-li, Musan County, North Hamgyong, North Korea",
        "road": "81",
        "house_number": null,
        "neighbourhood": null,
        "suburb": null,
        "city_district": null,
        "city": "Musan County",
        "state": "North Hamgyong",
        "postcode": null,
        "country": "North Korea",
        "country_code": "kp"
      },
      "address": "81, Musan-ŭp, North Hamgyong, North Korea"
    },
    {
      "lat": 42.23882047434339,
      "lon": 129.22613762556824,
      "geoinfo": {
        "display_name": "Namsan Labor District, Musan County, North Hamgyong, North Korea",
        "road": null,
        "house_number": null,
        "neighbourhood": null,
        "suburb": null,
        "city_district": null,
        "city": "Musan County",
        "state": "North Hamgyong",
        "postcode": null,
        "country": "North Korea",
        "country_code": "kp"
      },
      "address": "712, Namsan Labor District, Musan County, 59590 North Hamgyong, North Korea"
    },
    {
      "lat": 42.21682250650584,
      "lon": 129.26528706998405,
      "geoinfo": {
        "display_name": "Changryeol-li, Musan County, North Hamgyong, North Korea",
        "road": null,
        "house_number": null,
        "neighbourhood": null,
        "suburb": null,
        "city_district": null,
        "city": "Musan County",
        "state": "North Hamgyong",
        "postcode": null,
        "country": "North Korea",
        "country_code": "kp"
      },
      "address": "145, Changryeol-li, Musan County, 29706 North Hamgyong, North Korea"
    }
  ],
  "updated_at": "2025-10-19T05:13:52.384898+00:00",
  "_kind": "geo_samples"
}