{
  "country_code": "KP",
  "country": "North Korea",
  "city": "Rajin",
  "geonameid": 2042645,
  "target_addresses": 2,
  "samples": [
    {
      "lat": 42.27240485569569,
      "lon": 130.33212599648104,
      "geoinfo": {
        "display_name": "7;AH6, Rajin District, Gwangok-dong, Rason, North Korea",
        "road": "7;AH6",
        "house_number": null,
        "neighbourhood": null,
        "suburb": "Rajin District",
        "city_district": null,
        "city": "Rason",
        "state": null,
        "postcode": null,
        "country": "North Korea",
        "country_code": "kp"
      },
      "address": "7;AH6, Rajin, North Korea"
    },
    {
      "lat": 42.23450830260269,
      "lon": 130.24524811347794,
      "geoinfo": {
        "display_name": "Yuhyeon-dong, Rason, North Korea",
        "road": null,
        "house_number": null,
        "neighbourhood": null,
        "suburb": null,
        "city_district": null,
        "city": "Rason",
        "state": null,
        "postcode": null,
        "country": "North Korea",
        "country_code": "kp"
      },
      "address": "Rajin, North Korea"
    },
    {
      "lat": 42.25137181388059,
      "lon": 130.2830205570751,
      "geoinfo": {
        "display_name": "Rajin District, Yeokjeon-dong, Rason, North Korea",
        "road": null,
        "house_number": null,
        "neighbourhood": null,
        "suburb": "Rajin District",
        "city_district": null,
        "city": "Rason",
        "state": null,
        "postcode": null,
        "country": "North Korea",
        "country_code": "kp"
      },
      "address": "485, Rajin District, Yeokjeon-dong, 05576 Rason, North Korea"
    },
    {
      "lat": 42.260266023106475,
      "lon": 130.30711133450947,
      "geoinfo": {
        "display_name": "Rajin District, Anhwa-dong, Rason, North Korea",
        "road": null,
        "house_number": null,
        "neighbourhood": null,
        "suburb": "Rajin District",
        "city_district": null,
        "city": "Rason",
        "state": null,
        "postcode": null,
        "country": "North Korea",
        "country_code": "kp"
      },
      "address": "108, Rajin District, 59832 Rajin, North Korea"
    }
  ],
  "updated_at": "2025-10-19T05:36:01.885952+00:00",
  "_kind": "geo_samples"
}