{
  "country_code": "KP",
  "country": "North Korea",
  "city": "Yŏnggwang-ŭp",
  "geonameid": 2042249,
  "target_addresses": 2,
  "samples": [
    {
      "lat": 40.05508080294671,
      "lon": 127.47101700437413,
      "geoinfo": {
        "display_name": "상중리, Yonggwang County, South Hamgyong, North Korea",
        "road": null,
        "house_number": null,
        "neighbourhood": null,
        "suburb": null,
        "city_district": null,
        "city": "상중리",
        "state": "South Hamgyong",
        "postcode": null,
        "country": "North Korea",
        "country_code": "kp"
      },
      "address": "Yŏnggwang-ŭp, South Hamgyong, North Korea"
    },
    {
      "lat": 40.03202620816692,
      "lon": 127.43197724310771,
      "geoinfo": {
        "display_name": "5, 동양리, Yonggwang County, South Hamgyong, North Korea",
        "road": "5",
        "house_number": null,
        "neighbourhood": null,
        "suburb": null,
        "city_district": null,
        "city": "동양리",
        "state": "South Hamgyong",
        "postcode": null,
        "country": "North Korea",
        "country_code": "kp"
      },
      "address": "5, Yŏnggwang-ŭp, South Hamgyong, North Korea"
    },
    {
      "lat": 39.98366320124348,
      "lon": 127.48340842170386,
      "geoinfo": {
        "display_name": "5, Yeonggwang-eup, Yonggwang County, South Hamgyong, North Korea",
        "road": "5",
        "house_number": null,
        "neighbourhood": null,
        "suburb": null,
        "city_district": null,
        "city": "Yeonggwang-eup",
        "state": "South Hamgyong",
        "postcode": null,
        "country": "North Korea",
        "country_code": "kp"
      },
      "address": "5, Yŏnggwang-ŭp, 19108 South Hamgyong, North Korea"
    },
    {
      "lat": 39.99825958222509,
      "lon": 127.50558666243684,
      "geoinfo": {
        "display_name": "장흥리, Yonggwang County, South Hamgyong, North Korea",
        "road": null,
        "house_number": null,
        "neighbourhood": null,
        "suburb": null,
        "city_district": null,
        "city": "장흥리",
        "state": "South Hamgyong",
        "postcode": null,
        "country": "North Korea",
        "country_code": "kp"
      },
      "address": "015, Yŏnggwang-ŭp, 57797 South Hamgyong, North Korea"
    }
  ],
  "updated_at": "2025-10-19T05:40:30.343734+00:00",
  "_kind": "geo_samples"
}