{
  "country_code": "OM",
  "country": "Oman",
  "city": "Al Khābūrah",
  "geonameid": 289199,
  "target_addresses": 4,
  "samples": [
    {
      "lat": 24.00220757433727,
      "lon": 57.09215516585468,
      "geoinfo": {
        "display_name": "Harat Rumran, Khawr Rusul, Al Khaburah Province, Al Batinah North Governorate, Oman",
        "road": null,
        "house_number": null,
        "neighbourhood": null,
        "suburb": null,
        "city_district": null,
        "city": "Al Khaburah Province",
        "state": "Al Batinah North Governorate",
        "postcode": null,
        "country": "Oman",
        "country_code": "om"
      },
      "address": "Al Khābūrah, Al Batinah North Governorate, Oman"
    },
    {
      "lat": 23.952491477055418,
      "lon": 57.050548903313874,
      "geoinfo": {
        "display_name": "مدرسة الفكر السامي, Al Khaburah - Ibri Road, Khasaf, Al Khaburah Province, Al Batinah North Governorate, Oman",
        "road": "Al Khaburah - Ibri Road",
        "house_number": null,
        "neighbourhood": null,
        "suburb": null,
        "city_district": null,
        "city": "Al Khaburah Province",
        "state": "Al Batinah North Governorate",
        "postcode": null,
        "country": "Oman",
        "country_code": "om"
      },
      "address": "Al Khaburah - Ibri Road, Al Khābūrah, Al Batinah North Governorate, Oman"
    },
    {
      "lat": 23.943406333960326,
      "lon": 57.08522067891695,
      "geoinfo": {
        "display_name": "بدي العمود, Al Khaburah Province, Al Batinah North Governorate, Oman",
        "road": null,
        "house_number": null,
        "neighbourhood": null,
        "suburb": null,
        "city_district": null,
        "city": "Al Khaburah Province",
        "state": "Al Batinah North Governorate",
        "postcode": null,
        "country": "Oman",
        "country_code": "om"
      },
      "address": "827, Al Khābūrah, 21004 Al Batinah North Governorate, Oman"
    },
    {
      "lat": 23.95199670465383,
      "lon": 57.09571793025555,
      "geoinfo": {
        "display_name": "مرتفعات الخابورة, Al Khaburah Province, Al Batinah North Governorate, Oman",
        "road": null,
        "house_number": null,
        "neighbourhood": null,
        "suburb": null,
        "city_district": null,
        "city": "Al Khaburah Province",
        "state": "Al Batinah North Governorate",
        "postcode": null,
        "country": "Oman",
        "country_code": "om"
      },
      "address": "541, مرتفعات الخابورة, Al Khaburah Province, 15091 Al Batinah North Governorate, Oman"
    },
    {
      "lat": 23.957834316796855,
      "lon": 57.06888900993411,
      "geoinfo": {
        "display_name": "As Sarhat, Al Khaburah Province, Al Batinah North Governorate, Oman",
        "road": null,
        "house_number": null,
        "neighbourhood": null,
        "suburb": null,
        "city_district": null,
        "city": "Al Khaburah Province",
        "state": "Al Batinah North Governorate",
        "postcode": null,
        "country": "Oman",
        "country_code": "om"
      },
      "address": "925, As Sarhat, Al Khaburah Province, 62821 Al Batinah North Governorate, Oman"
    },
    {
      "lat": 23.993175904312544,
      "lon": 57.0687162426992,
      "geoinfo": {
        "display_name": "سور الدواحنة, Al Khaburah Province, Al Batinah North Governorate, Oman",
        "road": null,
        "house_number": null,
        "neighbourhood": null,
        "suburb": null,
        "city_district": null,
        "city": "Al Khaburah Province",
        "state": "Al Batinah North Governorate",
        "postcode": null,
        "country": "Oman",
        "country_code": "om"
      },
      "address": "752, سور الدواحنة, Al Khaburah Province, 27769 Al Batinah North Governorate, Oman"
    }
  ],
  "updated_at": "2025-10-19T06:28:18.568995+00:00",
  "_kind": "geo_samples"
}