{
  "country_code": "OM",
  "country": "Oman",
  "city": "As Suwayq",
  "geonameid": 288955,
  "target_addresses": 4,
  "samples": [
    {
      "lat": 23.855281792408384,
      "lon": 57.47600387985613,
      "geoinfo": {
        "display_name": "Al Ghu, As Suwaiq Province, Al Batinah North Governorate, Oman",
        "road": null,
        "house_number": null,
        "neighbourhood": null,
        "suburb": null,
        "city_district": null,
        "city": "As Suwaiq Province",
        "state": "Al Batinah North Governorate",
        "postcode": null,
        "country": "Oman",
        "country_code": "om"
      },
      "address": "As Suwayq, Al Batinah North Governorate, Oman"
    },
    {
      "lat": 23.820047656534214,
      "lon": 57.450619507860516,
      "geoinfo": {
        "display_name": "Umm Saih Road, Siyaq, As Suwaiq Province, Al Batinah North Governorate, 207, Oman",
        "road": "Umm Saih Road",
        "house_number": null,
        "neighbourhood": null,
        "suburb": null,
        "city_district": null,
        "city": "As Suwaiq Province",
        "state": "Al Batinah North Governorate",
        "postcode": "207",
        "country": "Oman",
        "country_code": "om"
      },
      "address": "Umm Saih Road, As Suwayq, Al Batinah North Governorate, Oman"
    },
    {
      "lat": 23.854960684491118,
      "lon": 57.39517671747868,
      "geoinfo": {
        "display_name": "Subaikhi road, الصبيخي, Subaykhi, As Suwaiq Province, Al Batinah North Governorate, 315, Oman",
        "road": "Subaikhi road",
        "house_number": null,
        "neighbourhood": null,
        "suburb": null,
        "city_district": null,
        "city": "As Suwaiq Province",
        "state": "Al Batinah North Governorate",
        "postcode": "315",
        "country": "Oman",
        "country_code": "om"
      },
      "address": "Subaikhi road, As Suwayq, Al Batinah North Governorate, Oman"
    },
    {
      "lat": 23.86290061629984,
      "lon": 57.423318039602044,
      "geoinfo": {
        "display_name": "Wadi Batha, بطحاء الساحل, As Suwaiq Province, Al Batinah North Governorate, 315, Oman",
        "road": null,
        "house_number": null,
        "neighbourhood": null,
        "suburb": null,
        "city_district": null,
        "city": "As Suwaiq Province",
        "state": "Al Batinah North Governorate",
        "postcode": "315",
        "country": "Oman",
        "country_code": "om"
      },
      "address": "148, Wadi Batha, بطحاء الساحل, As Suwaiq Province, Al Batinah North Governorate, 315, Oman"
    },
    {
      "lat": 23.83516274428044,
      "lon": 57.43859713648737,
      "geoinfo": {
        "display_name": "Al Afrad, As Suwaiq Province, Al Batinah North Governorate, 207, Oman",
        "road": null,
        "house_number": null,
        "neighbourhood": null,
        "suburb": null,
        "city_district": null,
        "city": "As Suwaiq Province",
        "state": "Al Batinah North Governorate",
        "postcode": "207",
        "country": "Oman",
        "country_code": "om"
      },
      "address": "482, Al Afrad, As Suwaiq Province, Al Batinah North Governorate, 207, Oman"
    },
    {
      "lat": 23.870326562682333,
      "lon": 57.4031166962446,
      "geoinfo": {
        "display_name": "Wadi Batha, بطحاء الساحل, As Suwaiq Province, Al Batinah North Governorate, 315, Oman",
        "road": null,
        "house_number": null,
        "neighbourhood": null,
        "suburb": null,
        "city_district": null,
        "city": "As Suwaiq Province",
        "state": "Al Batinah North Governorate",
        "postcode": "315",
        "country": "Oman",
        "country_code": "om"
      },
      "address": "283, Wadi Batha, بطحاء الساحل, As Suwaiq Province, Al Batinah North Governorate, 315, Oman"
    },
    {
      "lat": 23.869751285283613,
      "lon": 57.40601579148029,
      "geoinfo": {
        "display_name": "Wadi Batha, بطحاء الساحل, As Suwaiq Province, Al Batinah North Governorate, 315, Oman",
        "road": null,
        "house_number": null,
        "neighbourhood": null,
        "suburb": null,
        "city_district": null,
        "city": "As Suwaiq Province",
        "state": "Al Batinah North Governorate",
        "postcode": "315",
        "country": "Oman",
        "country_code": "om"
      },
      "address": "144, Wadi Batha, بطحاء الساحل, As Suwaiq Province, Al Batinah North Governorate, 315, Oman"
    }
  ],
  "updated_at": "2025-10-19T06:25:27.058516+00:00",
  "_kind": "geo_samples"
}