{
  "country_code": "OM",
  "country": "Oman",
  "city": "Bahlā’",
  "geonameid": 288899,
  "target_addresses": 4,
  "samples": [
    {
      "lat": 22.946488986893456,
      "lon": 57.32431402996231,
      "geoinfo": {
        "display_name": "Bahla Province, Ad Dakhiliyah Governorate, Oman",
        "road": null,
        "house_number": null,
        "neighbourhood": null,
        "suburb": null,
        "city_district": null,
        "city": "Bahla Province",
        "state": "Ad Dakhiliyah Governorate",
        "postcode": null,
        "country": "Oman",
        "country_code": "om"
      },
      "address": "Bahlā’, Ad Dakhiliyah Governorate, Oman"
    },
    {
      "lat": 22.98731773654453,
      "lon": 57.33778922724563,
      "geoinfo": {
        "display_name": "محطة تحلية مياه الصرف الصحي, Bahla Province, Ad Dakhiliyah Governorate, Oman",
        "road": "محطة تحلية مياه الصرف الصحي",
        "house_number": null,
        "neighbourhood": null,
        "suburb": null,
        "city_district": null,
        "city": "Bahla Province",
        "state": "Ad Dakhiliyah Governorate",
        "postcode": null,
        "country": "Oman",
        "country_code": "om"
      },
      "address": "محطة تحلية مياه الصرف الصحي, Bahlā’, Ad Dakhiliyah Governorate, Oman"
    },
    {
      "lat": 22.97115836203887,
      "lon": 57.293337292017306,
      "geoinfo": {
        "display_name": "مقبرة الخضراء, Bahla, Bahla Province, Ad Dakhiliyah Governorate, 617, Oman",
        "road": "مقبرة الخضراء",
        "house_number": null,
        "neighbourhood": null,
        "suburb": null,
        "city_district": null,
        "city": "Bahla Province",
        "state": "Ad Dakhiliyah Governorate",
        "postcode": "617",
        "country": "Oman",
        "country_code": "om"
      },
      "address": "مقبرة الخضراء, Bahlā’, Ad Dakhiliyah Governorate, Oman"
    },
    {
      "lat": 23.002834876738557,
      "lon": 57.321610835028956,
      "geoinfo": {
        "display_name": "Bahla, Bahla Province, Ad Dakhiliyah Governorate, Oman",
        "road": null,
        "house_number": null,
        "neighbourhood": null,
        "suburb": null,
        "city_district": null,
        "city": "Bahla Province",
        "state": "Ad Dakhiliyah Governorate",
        "postcode": null,
        "country": "Oman",
        "country_code": "om"
      },
      "address": "166, Bahla, Bahla Province, 38307 Ad Dakhiliyah Governorate, Oman"
    },
    {
      "lat": 23.01077294583157,
      "lon": 57.299586358309945,
      "geoinfo": {
        "display_name": "Bahla Province, Al Hamra Province, Ad Dakhiliyah Governorate, Oman",
        "road": null,
        "house_number": null,
        "neighbourhood": null,
        "suburb": null,
        "city_district": null,
        "city": "Bahla Province",
        "state": "Ad Dakhiliyah Governorate",
        "postcode": null,
        "country": "Oman",
        "country_code": "om"
      },
      "address": "830, Bahla Province, Al Hamra Province, 33787 Ad Dakhiliyah Governorate, Oman"
    },
    {
      "lat": 23.00084996083709,
      "lon": 57.3102417499414,
      "geoinfo": {
        "display_name": "Bahla, Bahla Province, Ad Dakhiliyah Governorate, 617, Oman",
        "road": null,
        "house_number": null,
        "neighbourhood": null,
        "suburb": null,
        "city_district": null,
        "city": "Bahla Province",
        "state": "Ad Dakhiliyah Governorate",
        "postcode": "617",
        "country": "Oman",
        "country_code": "om"
      },
      "address": "244, Bahla, Bahla Province, Ad Dakhiliyah Governorate, 617, Oman"
    },
    {
      "lat": 22.971771052374987,
      "lon": 57.336395022519454,
      "geoinfo": {
        "display_name": "المعموره, Bahla Province, Ad Dakhiliyah Governorate, 617, Oman",
        "road": null,
        "house_number": null,
        "neighbourhood": null,
        "suburb": null,
        "city_district": null,
        "city": "Bahla Province",
        "state": "Ad Dakhiliyah Governorate",
        "postcode": "617",
        "country": "Oman",
        "country_code": "om"
      },
      "address": "179, المعموره, Bahla Province, Ad Dakhiliyah Governorate, 617, Oman"
    }
  ],
  "updated_at": "2025-10-19T06:28:03.839343+00:00",
  "_kind": "geo_samples"
}