{
  "country_code": "OM",
  "country": "Oman",
  "city": "Bidbid",
  "geonameid": 288721,
  "target_addresses": 4,
  "samples": [
    {
      "lat": 23.41980202519643,
      "lon": 58.122965936818886,
      "geoinfo": {
        "display_name": "Bidbid Road, Waghlah, Bidbid Province, Ad Dakhiliyah Governorate, Oman",
        "road": "Bidbid Road",
        "house_number": null,
        "neighbourhood": "Waghlah",
        "suburb": null,
        "city_district": null,
        "city": "Bidbid Province",
        "state": "Ad Dakhiliyah Governorate",
        "postcode": null,
        "country": "Oman",
        "country_code": "om"
      },
      "address": "Bidbid Road, Bidbid, Ad Dakhiliyah Governorate, Oman"
    },
    {
      "lat": 23.438565466087738,
      "lon": 58.1609619267268,
      "geoinfo": {
        "display_name": "Saih al Ahmar, Bidbid Province, Ad Dakhiliyah Governorate, Oman",
        "road": null,
        "house_number": null,
        "neighbourhood": null,
        "suburb": null,
        "city_district": null,
        "city": "Bidbid Province",
        "state": "Ad Dakhiliyah Governorate",
        "postcode": null,
        "country": "Oman",
        "country_code": "om"
      },
      "address": "Bidbid, Ad Dakhiliyah Governorate, Oman"
    },
    {
      "lat": 23.41915300066634,
      "lon": 58.126154034805,
      "geoinfo": {
        "display_name": "Khawabi, Bidbid Province, Ad Dakhiliyah Governorate, Oman",
        "road": null,
        "house_number": null,
        "neighbourhood": "Khawabi",
        "suburb": null,
        "city_district": null,
        "city": "Bidbid Province",
        "state": "Ad Dakhiliyah Governorate",
        "postcode": null,
        "country": "Oman",
        "country_code": "om"
      },
      "address": "Khawabi, Bidbid, Ad Dakhiliyah Governorate, Oman"
    },
    {
      "lat": 23.403679488540874,
      "lon": 58.127074257611795,
      "geoinfo": {
        "display_name": "Nafah, Bidbid Province, Ad Dakhiliyah Governorate, Oman",
        "road": null,
        "house_number": null,
        "neighbourhood": "Nafah",
        "suburb": null,
        "city_district": null,
        "city": "Bidbid Province",
        "state": "Ad Dakhiliyah Governorate",
        "postcode": null,
        "country": "Oman",
        "country_code": "om"
      },
      "address": "Nafah, Bidbid, Ad Dakhiliyah Governorate, Oman"
    }
  ],
  "updated_at": "2025-10-16T20:52:47.590625+00:00",
  "_kind": "geo_samples"
}