{
  "country_code": "OM",
  "country": "Oman",
  "city": "Khasab",
  "geonameid": 287614,
  "target_addresses": 4,
  "samples": [
    {
      "lat": 26.160195945906043,
      "lon": 56.28217361168313,
      "geoinfo": {
        "display_name": "Shulbarik, Khasab Province, Musandam Governorate, Oman",
        "road": null,
        "house_number": null,
        "neighbourhood": null,
        "suburb": null,
        "city_district": null,
        "city": "Khasab Province",
        "state": "Musandam Governorate",
        "postcode": null,
        "country": "Oman",
        "country_code": "om"
      },
      "address": "Khasab, Musandam Governorate, Oman"
    },
    {
      "lat": 26.158662798060867,
      "lon": 56.244764718096384,
      "geoinfo": {
        "display_name": "Khartum as Safah, Khasab Province, Musandam Governorate, Oman",
        "road": null,
        "house_number": null,
        "neighbourhood": "Khartum as Safah",
        "suburb": null,
        "city_district": null,
        "city": "Khasab Province",
        "state": "Musandam Governorate",
        "postcode": null,
        "country": "Oman",
        "country_code": "om"
      },
      "address": "Khartum as Safah, Khasab, Musandam Governorate, Oman"
    },
    {
      "lat": 26.20156242996638,
      "lon": 56.248463722304315,
      "geoinfo": {
        "display_name": "Khasab - Tibat Road, Khasab, al Hallah, Khasab Province, Musandam Governorate, 811, Oman",
        "road": "Khasab - Tibat Road",
        "house_number": null,
        "neighbourhood": "al Hallah",
        "suburb": null,
        "city_district": null,
        "city": "Khasab Province",
        "state": "Musandam Governorate",
        "postcode": "811",
        "country": "Oman",
        "country_code": "om"
      },
      "address": "Khasab - Tibat Road, Khasab, Musandam Governorate, Oman"
    },
    {
      "lat": 26.199710786829804,
      "lon": 56.24411411554873,
      "geoinfo": {
        "display_name": "Khasab, Ḩillat Banī Sanad, Khasab Province, Musandam Governorate, 811, Oman",
        "road": null,
        "house_number": null,
        "neighbourhood": "Ḩillat Banī Sanad",
        "suburb": null,
        "city_district": null,
        "city": "Khasab Province",
        "state": "Musandam Governorate",
        "postcode": "811",
        "country": "Oman",
        "country_code": "om"
      },
      "address": "Ḩillat Banī Sanad, Khasab, Musandam Governorate, Oman"
    },
    {
      "lat": 26.19338852480009,
      "lon": 56.274922657091984,
      "geoinfo": {
        "display_name": "Wadi Humsi, Ḩimşī, Khasab Province, Musandam Governorate, 811, Oman",
        "road": null,
        "house_number": null,
        "neighbourhood": null,
        "suburb": null,
        "city_district": null,
        "city": "Khasab Province",
        "state": "Musandam Governorate",
        "postcode": "811",
        "country": "Oman",
        "country_code": "om"
      },
      "address": "989, Wadi Humsi, Ḩimşī, Khasab Province, Musandam Governorate, 811, Oman"
    },
    {
      "lat": 26.17410024548716,
      "lon": 56.246342027991155,
      "geoinfo": {
        "display_name": "Khasab, Hayy al Edari, Khasab Province, Musandam Governorate, 811, Oman",
        "road": null,
        "house_number": null,
        "neighbourhood": "Hayy al Edari",
        "suburb": null,
        "city_district": null,
        "city": "Khasab Province",
        "state": "Musandam Governorate",
        "postcode": "811",
        "country": "Oman",
        "country_code": "om"
      },
      "address": "817, Khasab, Hayy al Edari, Khasab Province, Musandam Governorate, 811, Oman"
    },
    {
      "lat": 26.176053051668678,
      "lon": 56.269570027193865,
      "geoinfo": {
        "display_name": "Ash Shafrah, Khasab Province, Musandam Governorate, 811, Oman",
        "road": null,
        "house_number": null,
        "neighbourhood": null,
        "suburb": null,
        "city_district": null,
        "city": "Khasab Province",
        "state": "Musandam Governorate",
        "postcode": "811",
        "country": "Oman",
        "country_code": "om"
      },
      "address": "346, Ash Shafrah, Khasab Province, Musandam Governorate, 811, Oman"
    },
    {
      "lat": 26.184224436736898,
      "lon": 56.214869038943014,
      "geoinfo": {
        "display_name": "Aş Şaḩşaḩah, Khasab Province, Musandam Governorate, 811, Oman",
        "road": null,
        "house_number": null,
        "neighbourhood": null,
        "suburb": null,
        "city_district": null,
        "city": "Khasab Province",
        "state": "Musandam Governorate",
        "postcode": "811",
        "country": "Oman",
        "country_code": "om"
      },
      "address": "880, Aş Şaḩşaḩah, Khasab Province, Musandam Governorate, 811, Oman"
    }
  ],
  "updated_at": "2025-10-19T04:57:49.775328+00:00",
  "_kind": "geo_samples"
}