{
  "country_code": "OM",
  "country": "Oman",
  "city": "Rustaq",
  "geonameid": 289011,
  "target_addresses": 4,
  "samples": [
    {
      "lat": 23.38957610083308,
      "lon": 57.38547440083722,
      "geoinfo": {
        "display_name": "Ayniyah, Al Rustaq Province, Al Batinah South Governorate, Oman",
        "road": null,
        "house_number": null,
        "neighbourhood": null,
        "suburb": null,
        "city_district": null,
        "city": "Al Rustaq Province",
        "state": "Al Batinah South Governorate",
        "postcode": null,
        "country": "Oman",
        "country_code": "om"
      },
      "address": "Rustaq, Al Batinah South Governorate, Oman"
    },
    {
      "lat": 23.370173448604017,
      "lon": 57.453916154237056,
      "geoinfo": {
        "display_name": "حي الشرف, Al Rustaq Province, Al Batinah South Governorate, Oman",
        "road": null,
        "house_number": null,
        "neighbourhood": "حي الشرف",
        "suburb": null,
        "city_district": null,
        "city": "Al Rustaq Province",
        "state": "Al Batinah South Governorate",
        "postcode": null,
        "country": "Oman",
        "country_code": "om"
      },
      "address": "حي الشرف, Rustaq, Al Batinah South Governorate, Oman"
    },
    {
      "lat": 23.41449128656003,
      "lon": 57.39971197258857,
      "geoinfo": {
        "display_name": "Al Rustaq - Falaj al Hadith Road, Ar Rustaq, Al Rustaq Province, Al Batinah South Governorate, Oman",
        "road": "Al Rustaq - Falaj al Hadith Road",
        "house_number": null,
        "neighbourhood": null,
        "suburb": null,
        "city_district": null,
        "city": "Al Rustaq Province",
        "state": "Al Batinah South Governorate",
        "postcode": null,
        "country": "Oman",
        "country_code": "om"
      },
      "address": "Al Rustaq - Falaj al Hadith Road, Rustaq, Al Batinah South Governorate, Oman"
    }
  ],
  "updated_at": "2025-10-16T20:53:42.718526+00:00",
  "_kind": "geo_samples"
}