{
  "country_code": "OM",
  "country": "Oman",
  "city": "Şalālah",
  "geonameid": 286621,
  "target_addresses": 4,
  "samples": [
    {
      "lat": 17.034150929656803,
      "lon": 54.089833090111334,
      "geoinfo": {
        "display_name": "RAFO Salalah, Al Nahdah Street, Salalah Province, Dhofar Governorate, 999, Oman",
        "road": "Al Nahdah Street",
        "house_number": null,
        "neighbourhood": null,
        "suburb": null,
        "city_district": null,
        "city": "Salalah Province",
        "state": "Dhofar Governorate",
        "postcode": "999",
        "country": "Oman",
        "country_code": "om"
      },
      "address": "Al Nahdah Street, Şalālah, Dhofar Governorate, Oman"
    },
    {
      "lat": 17.03508249249617,
      "lon": 54.11119754380263,
      "geoinfo": {
        "display_name": "Al Qawf, Salalah Province, Dhofar Governorate, 999, Oman",
        "road": null,
        "house_number": null,
        "neighbourhood": null,
        "suburb": null,
        "city_district": null,
        "city": "Salalah Province",
        "state": "Dhofar Governorate",
        "postcode": "999",
        "country": "Oman",
        "country_code": "om"
      },
      "address": "Şalālah, Dhofar Governorate, Oman"
    },
    {
      "lat": 17.00716528043941,
      "lon": 54.099144778966135,
      "geoinfo": {
        "display_name": "A'Noor Street, Salalah Province, Dhofar Governorate, 216, Oman",
        "road": "A'Noor Street",
        "house_number": null,
        "neighbourhood": null,
        "suburb": null,
        "city_district": null,
        "city": "Salalah Province",
        "state": "Dhofar Governorate",
        "postcode": "216",
        "country": "Oman",
        "country_code": "om"
      },
      "address": "A'Noor Street, Şalālah, Dhofar Governorate, Oman"
    },
    {
      "lat": 17.034305677910258,
      "lon": 54.10369340811461,
      "geoinfo": {
        "display_name": "Al Matar Street, Al Qawf, Salalah Province, Dhofar Governorate, 999, Oman",
        "road": "Al Matar Street",
        "house_number": null,
        "neighbourhood": null,
        "suburb": null,
        "city_district": null,
        "city": "Salalah Province",
        "state": "Dhofar Governorate",
        "postcode": "999",
        "country": "Oman",
        "country_code": "om"
      },
      "address": "Al Matar Street, Şalālah, Dhofar Governorate, Oman"
    }
  ],
  "updated_at": "2025-10-16T20:52:23.652186+00:00",
  "_kind": "geo_samples"
}