{
  "country_code": "BW",
  "country": "Botswana",
  "city": "Francistown",
  "geonameid": 933778,
  "target_addresses": 4,
  "samples": [
    {
      "lat": -21.150276741245314,
      "lon": 27.478676672675295,
      "geoinfo": {
        "display_name": "A3, North-East District, Botswana",
        "road": "A3",
        "house_number": null,
        "neighbourhood": null,
        "suburb": null,
        "city_district": null,
        "city": null,
        "state": "North-East District",
        "postcode": null,
        "country": "Botswana",
        "country_code": "bw"
      },
      "address": "A3, Francistown, North-East District, Botswana"
    },
    {
      "lat": -21.17774142922458,
      "lon": 27.533179985549438,
      "geoinfo": {
        "display_name": "Francistown, Botswana",
        "road": null,
        "house_number": null,
        "neighbourhood": null,
        "suburb": null,
        "city_district": null,
        "city": "Francistown",
        "state": null,
        "postcode": null,
        "country": "Botswana",
        "country_code": "bw"
      },
      "address": "Francistown, North-East District, Botswana"
    },
    {
      "lat": -21.15108856453811,
      "lon": 27.50072980128523,
      "geoinfo": {
        "display_name": "Monarch, Francistown, Botswana",
        "road": null,
        "house_number": null,
        "neighbourhood": "Monarch",
        "suburb": null,
        "city_district": null,
        "city": "Francistown",
        "state": null,
        "postcode": null,
        "country": "Botswana",
        "country_code": "bw"
      },
      "address": "Monarch, Francistown, North-East District, Botswana"
    },
    {
      "lat": -21.200797026653134,
      "lon": 27.509701408830683,
      "geoinfo": {
        "display_name": "A1, Francistown, North-East District, Botswana",
        "road": "A1",
        "house_number": null,
        "neighbourhood": null,
        "suburb": null,
        "city_district": null,
        "city": "Francistown",
        "state": "North-East District",
        "postcode": null,
        "country": "Botswana",
        "country_code": "bw"
      },
      "address": "A1, Francistown, North-East District, Botswana"
    },
    {
      "lat": -21.16083389911029,
      "lon": 27.526256255311342,
      "geoinfo": {
        "display_name": "Leaduma Street, Francistown, Botswana",
        "road": "Leaduma Street",
        "house_number": null,
        "neighbourhood": null,
        "suburb": null,
        "city_district": null,
        "city": "Francistown",
        "state": null,
        "postcode": null,
        "country": "Botswana",
        "country_code": "bw"
      },
      "address": "523, Leaduma Street, 83634 Francistown, Botswana"
    },
    {
      "lat": -21.166356031868453,
      "lon": 27.48356308212956,
      "geoinfo": {
        "display_name": "Apron C, A3, Francistown, North-East District, Botswana",
        "road": "A3",
        "house_number": null,
        "neighbourhood": null,
        "suburb": null,
        "city_district": null,
        "city": "Francistown",
        "state": "North-East District",
        "postcode": null,
        "country": "Botswana",
        "country_code": "bw"
      },
      "address": "A3, Francistown, 03252 North-East District, Botswana"
    },
    {
      "lat": -21.20419193181044,
      "lon": 27.51071328641558,
      "geoinfo": {
        "display_name": "A1, North-East District, Botswana",
        "road": "A1",
        "house_number": null,
        "neighbourhood": null,
        "suburb": null,
        "city_district": null,
        "city": null,
        "state": "North-East District",
        "postcode": null,
        "country": "Botswana",
        "country_code": "bw"
      },
      "address": "A1, Francistown, 17857 North-East District, Botswana"
    },
    {
      "lat": -21.16175409740973,
      "lon": 27.476823340266865,
      "geoinfo": {
        "display_name": "Phillip Gaonwe Matante International Airport, A3, Francistown, North-East District, Botswana",
        "road": "A3",
        "house_number": null,
        "neighbourhood": null,
        "suburb": null,
        "city_district": null,
        "city": "Francistown",
        "state": "North-East District",
        "postcode": null,
        "country": "Botswana",
        "country_code": "bw"
      },
      "address": "A3, Francistown, 09395 North-East District, Botswana"
    }
  ],
  "updated_at": "2025-10-19T03:00:59.361227+00:00",
  "_kind": "geo_samples"
}