{
  "country_code": "BW",
  "country": "Botswana",
  "city": "Gaborone",
  "geonameid": 933773,
  "target_addresses": 4,
  "samples": [
    {
      "lat": -24.660921623036817,
      "lon": 25.944578971453094,
      "geoinfo": {
        "display_name": "Gaborone, Botswana",
        "road": null,
        "house_number": null,
        "neighbourhood": null,
        "suburb": null,
        "city_district": null,
        "city": "Gaborone",
        "state": null,
        "postcode": null,
        "country": "Botswana",
        "country_code": "bw"
      },
      "address": "Gaborone, Botswana"
    },
    {
      "lat": -24.6562543997317,
      "lon": 25.937950606921408,
      "geoinfo": {
        "display_name": "Motloutse Road, Gaborone, Botswana",
        "road": "Motloutse Road",
        "house_number": null,
        "neighbourhood": null,
        "suburb": null,
        "city_district": null,
        "city": "Gaborone",
        "state": null,
        "postcode": null,
        "country": "Botswana",
        "country_code": "bw"
      },
      "address": "Motloutse Road, Gaborone, Botswana"
    },
    {
      "lat": -24.674923015952025,
      "lon": 25.86789374392341,
      "geoinfo": {
        "display_name": "Selinda Close, Gaborone, Botswana",
        "road": "Selinda Close",
        "house_number": null,
        "neighbourhood": null,
        "suburb": null,
        "city_district": null,
        "city": "Gaborone",
        "state": null,
        "postcode": null,
        "country": "Botswana",
        "country_code": "bw"
      },
      "address": "Selinda Close, Gaborone, Botswana"
    },
    {
      "lat": -24.671300895648503,
      "lon": 25.922404958679298,
      "geoinfo": {
        "display_name": "University of Botswana College of Engineering and Technology, Mobuto Drive, Bontleng, Gaborone, Botswana",
        "road": "Mobuto Drive",
        "house_number": null,
        "neighbourhood": "Bontleng",
        "suburb": null,
        "city_district": null,
        "city": "Gaborone",
        "state": null,
        "postcode": null,
        "country": "Botswana",
        "country_code": "bw"
      },
      "address": "Mobuto Drive, Gaborone, Botswana"
    },
    {
      "lat": -24.62173019656455,
      "lon": 25.936829203828843,
      "geoinfo": {
        "display_name": "Segoditshane Road, Gaborone, Botswana",
        "road": "Segoditshane Road",
        "house_number": null,
        "neighbourhood": null,
        "suburb": null,
        "city_district": null,
        "city": "Gaborone",
        "state": null,
        "postcode": null,
        "country": "Botswana",
        "country_code": "bw"
      },
      "address": "450, Segoditshane Road, 65842 Gaborone, Botswana"
    },
    {
      "lat": -24.684822937588123,
      "lon": 25.885978652941976,
      "geoinfo": {
        "display_name": "Old Lobatse Road, Gaborone, Botswana",
        "road": "Old Lobatse Road",
        "house_number": null,
        "neighbourhood": null,
        "suburb": null,
        "city_district": null,
        "city": "Gaborone",
        "state": null,
        "postcode": null,
        "country": "Botswana",
        "country_code": "bw"
      },
      "address": "074, Old Lobatse Road, 28803 Gaborone, Botswana"
    },
    {
      "lat": -24.623324679412054,
      "lon": 25.889560885135808,
      "geoinfo": {
        "display_name": "Masabasi Way, Extension 40, Gaborone, Botswana",
        "road": "Masabasi Way",
        "house_number": null,
        "neighbourhood": null,
        "suburb": null,
        "city_district": null,
        "city": "Gaborone",
        "state": null,
        "postcode": null,
        "country": "Botswana",
        "country_code": "bw"
      },
      "address": "459, Masabasi Way, Extension 40, Gaborone, Botswana"
    },
    {
      "lat": -24.68394507586302,
      "lon": 25.942368702721687,
      "geoinfo": {
        "display_name": "Tlokweng, South-East District, Botswana",
        "road": null,
        "house_number": null,
        "neighbourhood": null,
        "suburb": null,
        "city_district": null,
        "city": "Tlokweng",
        "state": "South-East District",
        "postcode": null,
        "country": "Botswana",
        "country_code": "bw"
      },
      "address": "528, Tlokweng, 67958 South-East District, Botswana"
    }
  ],
  "updated_at": "2025-10-19T01:19:41.731509+00:00",
  "_kind": "geo_samples"
}