{
  "country_code": "BW",
  "country": "Botswana",
  "city": "Ghanzi",
  "geonameid": 933759,
  "target_addresses": 4,
  "samples": [
    {
      "lat": -21.660846783008683,
      "lon": 21.628357449141284,
      "geoinfo": {
        "display_name": "Ghanzi, Ghanzi District, Botswana",
        "road": null,
        "house_number": null,
        "neighbourhood": null,
        "suburb": null,
        "city_district": null,
        "city": "Ghanzi",
        "state": "Ghanzi District",
        "postcode": null,
        "country": "Botswana",
        "country_code": "bw"
      },
      "address": "Ghanzi, Ghanzi District, Botswana"
    },
    {
      "lat": -21.673014577473406,
      "lon": 21.67787961143538,
      "geoinfo": {
        "display_name": "A3, Ghanzi, Ghanzi District, Botswana",
        "road": "A3",
        "house_number": null,
        "neighbourhood": null,
        "suburb": null,
        "city_district": null,
        "city": "Ghanzi",
        "state": "Ghanzi District",
        "postcode": null,
        "country": "Botswana",
        "country_code": "bw"
      },
      "address": "A3, Ghanzi, Ghanzi District, Botswana"
    },
    {
      "lat": -21.728271675534316,
      "lon": 21.628898288745077,
      "geoinfo": {
        "display_name": "Ghanzi, Ghanzi District, Botswana",
        "road": null,
        "house_number": null,
        "neighbourhood": null,
        "suburb": null,
        "city_district": null,
        "city": "Ghanzi",
        "state": "Ghanzi District",
        "postcode": null,
        "country": "Botswana",
        "country_code": "bw"
      },
      "address": "646, Ghanzi, 23542 Ghanzi District, Botswana"
    },
    {
      "lat": -21.702648459812945,
      "lon": 21.648835490647304,
      "geoinfo": {
        "display_name": "Phoku Road, Ghanzi, Ghanzi District, Botswana",
        "road": "Phoku Road",
        "house_number": null,
        "neighbourhood": null,
        "suburb": null,
        "city_district": null,
        "city": "Ghanzi",
        "state": "Ghanzi District",
        "postcode": null,
        "country": "Botswana",
        "country_code": "bw"
      },
      "address": "634, Phoku Road, Ghanzi, 16165 Ghanzi District, Botswana"
    },
    {
      "lat": -21.72597344616158,
      "lon": 21.65339231859436,
      "geoinfo": {
        "display_name": "A3, Ghanzi, Ghanzi District, Botswana",
        "road": "A3",
        "house_number": null,
        "neighbourhood": null,
        "suburb": null,
        "city_district": null,
        "city": "Ghanzi",
        "state": "Ghanzi District",
        "postcode": null,
        "country": "Botswana",
        "country_code": "bw"
      },
      "address": "A3, Ghanzi, 51065 Ghanzi District, Botswana"
    },
    {
      "lat": -21.658331518818677,
      "lon": 21.63394530046726,
      "geoinfo": {
        "display_name": "Ghanzi, Ghanzi District, Botswana",
        "road": null,
        "house_number": null,
        "neighbourhood": null,
        "suburb": null,
        "city_district": null,
        "city": "Ghanzi",
        "state": "Ghanzi District",
        "postcode": null,
        "country": "Botswana",
        "country_code": "bw"
      },
      "address": "530, Ghanzi, 16778 Ghanzi District, Botswana"
    }
  ],
  "updated_at": "2025-10-19T03:18:46.287263+00:00",
  "_kind": "geo_samples"
}