{
  "country_code": "BW",
  "country": "Botswana",
  "city": "Mochudi",
  "geonameid": 933340,
  "target_addresses": 27,
  "samples": [
    {
      "lat": -24.44914898713222,
      "lon": 26.169108401970043,
      "geoinfo": {
        "display_name": "Dikwididi, Kgatleng District, Botswana",
        "road": null,
        "house_number": null,
        "neighbourhood": null,
        "suburb": null,
        "city_district": null,
        "city": "Dikwididi",
        "state": "Kgatleng District",
        "postcode": null,
        "country": "Botswana",
        "country_code": "bw"
      },
      "address": "Mochudi, Kgatleng District, Botswana"
    },
    {
      "lat": -24.42252818043656,
      "lon": 26.163112583948877,
      "geoinfo": {
        "display_name": "Dikwididi Road, Mochudi, Kgatleng District, Botswana",
        "road": "Dikwididi Road",
        "house_number": null,
        "neighbourhood": null,
        "suburb": null,
        "city_district": null,
        "city": "Mochudi",
        "state": "Kgatleng District",
        "postcode": null,
        "country": "Botswana",
        "country_code": "bw"
      },
      "address": "Dikwididi Road, Mochudi, Kgatleng District, Botswana"
    },
    {
      "lat": -24.421472191529475,
      "lon": 26.11942638460116,
      "geoinfo": {
        "display_name": "Mochudi, Kgatleng District, Botswana",
        "road": null,
        "house_number": null,
        "neighbourhood": null,
        "suburb": null,
        "city_district": null,
        "city": "Mochudi",
        "state": "Kgatleng District",
        "postcode": null,
        "country": "Botswana",
        "country_code": "bw"
      },
      "address": "Mochudi, 38582 Kgatleng District, Botswana"
    },
    {
      "lat": -24.39467164976247,
      "lon": 26.15058281176048,
      "geoinfo": {
        "display_name": "Mochudi, Kgatleng District, Botswana",
        "road": null,
        "house_number": null,
        "neighbourhood": null,
        "suburb": null,
        "city_district": null,
        "city": "Mochudi",
        "state": "Kgatleng District",
        "postcode": null,
        "country": "Botswana",
        "country_code": "bw"
      },
      "address": "Mochudi, 83544 Kgatleng District, Botswana"
    },
    {
      "lat": -24.42594875505536,
      "lon": 26.1679553114762,
      "geoinfo": {
        "display_name": "Dikwididi, Kgatleng District, Botswana",
        "road": null,
        "house_number": null,
        "neighbourhood": null,
        "suburb": null,
        "city_district": null,
        "city": "Dikwididi",
        "state": "Kgatleng District",
        "postcode": null,
        "country": "Botswana",
        "country_code": "bw"
      },
      "address": "Mochudi, 80195 Kgatleng District, Botswana"
    },
    {
      "lat": -24.37983432422574,
      "lon": 26.1460352882262,
      "geoinfo": {
        "display_name": "Mochudi, Kgatleng District, Botswana",
        "road": null,
        "house_number": null,
        "neighbourhood": null,
        "suburb": null,
        "city_district": null,
        "city": "Mochudi",
        "state": "Kgatleng District",
        "postcode": null,
        "country": "Botswana",
        "country_code": "bw"
      },
      "address": "Mochudi, 33771 Kgatleng District, Botswana"
    },
    {
      "lat": -24.382568334492287,
      "lon": 26.12108755382952,
      "geoinfo": {
        "display_name": "Mochudi, Kgatleng District, Botswana",
        "road": null,
        "house_number": null,
        "neighbourhood": null,
        "suburb": null,
        "city_district": null,
        "city": "Mochudi",
        "state": "Kgatleng District",
        "postcode": null,
        "country": "Botswana",
        "country_code": "bw"
      },
      "address": "Mochudi, 66232 Kgatleng District, Botswana"
    },
    {
      "lat": -24.45857527943646,
      "lon": 26.162032212813426,
      "geoinfo": {
        "display_name": "Mochudi, Kgatleng District, Botswana",
        "road": null,
        "house_number": null,
        "neighbourhood": null,
        "suburb": null,
        "city_district": null,
        "city": "Mochudi",
        "state": "Kgatleng District",
        "postcode": null,
        "country": "Botswana",
        "country_code": "bw"
      },
      "address": "Mochudi, 16499 Kgatleng District, Botswana"
    },
    {
      "lat": -24.435093686360343,
      "lon": 26.133902750158807,
      "geoinfo": {
        "display_name": "Mochudi, Kgatleng District, Botswana",
        "road": null,
        "house_number": null,
        "neighbourhood": null,
        "suburb": null,
        "city_district": null,
        "city": "Mochudi",
        "state": "Kgatleng District",
        "postcode": null,
        "country": "Botswana",
        "country_code": "bw"
      },
      "address": "Mochudi, 68071 Kgatleng District, Botswana"
    },
    {
      "lat": -24.42141619474425,
      "lon": 26.15872759676099,
      "geoinfo": {
        "display_name": "Mochudi, Kgatleng District, Botswana",
        "road": null,
        "house_number": null,
        "neighbourhood": null,
        "suburb": null,
        "city_district": null,
        "city": "Mochudi",
        "state": "Kgatleng District",
        "postcode": null,
        "country": "Botswana",
        "country_code": "bw"
      },
      "address": "266, Mochudi, 71356 Kgatleng District, Botswana"
    },
    {
      "lat": -24.39960140524124,
      "lon": 26.130812679697474,
      "geoinfo": {
        "display_name": "Mochudi, Kgatleng District, Botswana",
        "road": null,
        "house_number": null,
        "neighbourhood": null,
        "suburb": null,
        "city_district": null,
        "city": "Mochudi",
        "state": "Kgatleng District",
        "postcode": null,
        "country": "Botswana",
        "country_code": "bw"
      },
      "address": "864, Mochudi, 79926 Kgatleng District, Botswana"
    },
    {
      "lat": -24.41627377220012,
      "lon": 26.18823104339489,
      "geoinfo": {
        "display_name": "B130, Mabalane, Kgatleng District, Botswana",
        "road": "B130",
        "house_number": null,
        "neighbourhood": null,
        "suburb": null,
        "city_district": null,
        "city": "Mabalane",
        "state": "Kgatleng District",
        "postcode": null,
        "country": "Botswana",
        "country_code": "bw"
      },
      "address": "B130, Mochudi, 79527 Kgatleng District, Botswana"
    },
    {
      "lat": -24.425051382888338,
      "lon": 26.14257092643292,
      "geoinfo": {
        "display_name": "Mochudi, Kgatleng District, Botswana",
        "road": null,
        "house_number": null,
        "neighbourhood": null,
        "suburb": null,
        "city_district": null,
        "city": "Mochudi",
        "state": "Kgatleng District",
        "postcode": null,
        "country": "Botswana",
        "country_code": "bw"
      },
      "address": "341, Mochudi, 39420 Kgatleng District, Botswana"
    },
    {
      "lat": -24.414204880120227,
      "lon": 26.19777211543791,
      "geoinfo": {
        "display_name": "B130, Mabalane, Kgatleng District, Botswana",
        "road": "B130",
        "house_number": null,
        "neighbourhood": null,
        "suburb": null,
        "city_district": null,
        "city": "Mabalane",
        "state": "Kgatleng District",
        "postcode": null,
        "country": "Botswana",
        "country_code": "bw"
      },
      "address": "B130, Mochudi, 78625 Kgatleng District, Botswana"
    },
    {
      "lat": -24.410537706744073,
      "lon": 26.132131727562673,
      "geoinfo": {
        "display_name": "Mochudi, Kgatleng District, Botswana",
        "road": null,
        "house_number": null,
        "neighbourhood": null,
        "suburb": null,
        "city_district": null,
        "city": "Mochudi",
        "state": "Kgatleng District",
        "postcode": null,
        "country": "Botswana",
        "country_code": "bw"
      },
      "address": "114, Mochudi, 45529 Kgatleng District, Botswana"
    },
    {
      "lat": -24.3871018728966,
      "lon": 26.153797793868918,
      "geoinfo": {
        "display_name": "Mochudi, Kgatleng District, Botswana",
        "road": null,
        "house_number": null,
        "neighbourhood": null,
        "suburb": null,
        "city_district": null,
        "city": "Mochudi",
        "state": "Kgatleng District",
        "postcode": null,
        "country": "Botswana",
        "country_code": "bw"
      },
      "address": "839, Mochudi, 49818 Kgatleng District, Botswana"
    },
    {
      "lat": -24.429089656221944,
      "lon": 26.19393633728967,
      "geoinfo": {
        "display_name": "Mochudi, Kgatleng District, Botswana",
        "road": null,
        "house_number": null,
        "neighbourhood": null,
        "suburb": null,
        "city_district": null,
        "city": "Mochudi",
        "state": "Kgatleng District",
        "postcode": null,
        "country": "Botswana",
        "country_code": "bw"
      },
      "address": "509, Mochudi, 92092 Kgatleng District, Botswana"
    },
    {
      "lat": -24.378822741464973,
      "lon": 26.141080032981204,
      "geoinfo": {
        "display_name": "Mochudi, Kgatleng District, Botswana",
        "road": null,
        "house_number": null,
        "neighbourhood": null,
        "suburb": null,
        "city_district": null,
        "city": "Mochudi",
        "state": "Kgatleng District",
        "postcode": null,
        "country": "Botswana",
        "country_code": "bw"
      },
      "address": "157, Mochudi, 45147 Kgatleng District, Botswana"
    },
    {
      "lat": -24.386314539138723,
      "lon": 26.118161402422487,
      "geoinfo": {
        "display_name": "Mochudi, Kgatleng District, Botswana",
        "road": null,
        "house_number": null,
        "neighbourhood": null,
        "suburb": null,
        "city_district": null,
        "city": "Mochudi",
        "state": "Kgatleng District",
        "postcode": null,
        "country": "Botswana",
        "country_code": "bw"
      },
      "address": "291, Mochudi, 03540 Kgatleng District, Botswana"
    },
    {
      "lat": -24.391939315421084,
      "lon": 26.114264971145236,
      "geoinfo": {
        "display_name": "Mochudi, Kgatleng District, Botswana",
        "road": null,
        "house_number": null,
        "neighbourhood": null,
        "suburb": null,
        "city_district": null,
        "city": "Mochudi",
        "state": "Kgatleng District",
        "postcode": null,
        "country": "Botswana",
        "country_code": "bw"
      },
      "address": "898, Mochudi, 30273 Kgatleng District, Botswana"
    },
    {
      "lat": -24.39639867523732,
      "lon": 26.17438239801244,
      "geoinfo": {
        "display_name": "Mochudi, Kgatleng District, Botswana",
        "road": null,
        "house_number": null,
        "neighbourhood": null,
        "suburb": null,
        "city_district": null,
        "city": "Mochudi",
        "state": "Kgatleng District",
        "postcode": null,
        "country": "Botswana",
        "country_code": "bw"
      },
      "address": "031, Mochudi, 55533 Kgatleng District, Botswana"
    },
    {
      "lat": -24.43141507785497,
      "lon": 26.120694406825642,
      "geoinfo": {
        "display_name": "Mochudi, Kgatleng District, Botswana",
        "road": null,
        "house_number": null,
        "neighbourhood": null,
        "suburb": null,
        "city_district": null,
        "city": "Mochudi",
        "state": "Kgatleng District",
        "postcode": null,
        "country": "Botswana",
        "country_code": "bw"
      },
      "address": "085, Mochudi, 30993 Kgatleng District, Botswana"
    },
    {
      "lat": -24.426909098863185,
      "lon": 26.11786657734986,
      "geoinfo": {
        "display_name": "Mochudi, Kgatleng District, Botswana",
        "road": null,
        "house_number": null,
        "neighbourhood": null,
        "suburb": null,
        "city_district": null,
        "city": "Mochudi",
        "state": "Kgatleng District",
        "postcode": null,
        "country": "Botswana",
        "country_code": "bw"
      },
      "address": "972, Mochudi, 78035 Kgatleng District, Botswana"
    },
    {
      "lat": -24.415312770448732,
      "lon": 26.113336218395148,
      "geoinfo": {
        "display_name": "Mochudi, Kgatleng District, Botswana",
        "road": null,
        "house_number": null,
        "neighbourhood": null,
        "suburb": null,
        "city_district": null,
        "city": "Mochudi",
        "state": "Kgatleng District",
        "postcode": null,
        "country": "Botswana",
        "country_code": "bw"
      },
      "address": "014, Mochudi, 28875 Kgatleng District, Botswana"
    },
    {
      "lat": -24.427927442694767,
      "lon": 26.14808583489629,
      "geoinfo": {
        "display_name": "Mochudi, Kgatleng District, Botswana",
        "road": null,
        "house_number": null,
        "neighbourhood": null,
        "suburb": null,
        "city_district": null,
        "city": "Mochudi",
        "state": "Kgatleng District",
        "postcode": null,
        "country": "Botswana",
        "country_code": "bw"
      },
      "address": "196, Mochudi, 69589 Kgatleng District, Botswana"
    },
    {
      "lat": -24.419635992060332,
      "lon": 26.12262578541897,
      "geoinfo": {
        "display_name": "Mochudi, Kgatleng District, Botswana",
        "road": null,
        "house_number": null,
        "neighbourhood": null,
        "suburb": null,
        "city_district": null,
        "city": "Mochudi",
        "state": "Kgatleng District",
        "postcode": null,
        "country": "Botswana",
        "country_code": "bw"
      },
      "address": "818, Mochudi, 67477 Kgatleng District, Botswana"
    },
    {
      "lat": -24.409556057112933,
      "lon": 26.164996605385483,
      "geoinfo": {
        "display_name": "Mochudi, Kgatleng District, Botswana",
        "road": null,
        "house_number": null,
        "neighbourhood": null,
        "suburb": null,
        "city_district": null,
        "city": "Mochudi",
        "state": "Kgatleng District",
        "postcode": null,
        "country": "Botswana",
        "country_code": "bw"
      },
      "address": "364, Mochudi, 41114 Kgatleng District, Botswana"
    }
  ],
  "updated_at": "2025-10-19T03:34:43.955552+00:00",
  "_kind": "geo_samples"
}