{
  "country_code": "SD",
  "country": "Sudan",
  "city": "Al Manāqil",
  "geonameid": 379149,
  "target_addresses": 2,
  "samples": [
    {
      "lat": 14.249800225646718,
      "lon": 32.972894929123065,
      "geoinfo": {
        "display_name": "Al Managil, Aj Jazira, Sudan",
        "road": null,
        "house_number": null,
        "neighbourhood": null,
        "suburb": null,
        "city_district": null,
        "city": "Al Managil",
        "state": "Aj Jazira",
        "postcode": null,
        "country": "Sudan",
        "country_code": "sd"
      },
      "address": "Al Manāqil, Aj Jazira, Sudan"
    },
    {
      "lat": 14.254950092806387,
      "lon": 32.98676221802672,
      "geoinfo": {
        "display_name": "حي كشكوش, Al Managil, Aj Jazira, Sudan",
        "road": null,
        "house_number": null,
        "neighbourhood": "حي كشكوش",
        "suburb": null,
        "city_district": null,
        "city": "Al Managil",
        "state": "Aj Jazira",
        "postcode": null,
        "country": "Sudan",
        "country_code": "sd"
      },
      "address": "حي كشكوش, Al Manāqil, Aj Jazira, Sudan"
    },
    {
      "lat": 14.26005573277942,
      "lon": 32.98439688954693,
      "geoinfo": {
        "display_name": "Kambu Kashkosh, Al Managil, Aj Jazira, Sudan",
        "road": null,
        "house_number": null,
        "neighbourhood": null,
        "suburb": null,
        "city_district": null,
        "city": "Al Managil",
        "state": "Aj Jazira",
        "postcode": null,
        "country": "Sudan",
        "country_code": "sd"
      },
      "address": "428, Kambu Kashkosh, Al Managil, 64772 Aj Jazira, Sudan"
    },
    {
      "lat": 14.22139192142466,
      "lon": 33.01411141017558,
      "geoinfo": {
        "display_name": "Dar Muqam, Al Managil, Aj Jazira, Sudan",
        "road": null,
        "house_number": null,
        "neighbourhood": null,
        "suburb": null,
        "city_district": null,
        "city": "Al Managil",
        "state": "Aj Jazira",
        "postcode": null,
        "country": "Sudan",
        "country_code": "sd"
      },
      "address": "310, Al Manāqil, 97516 Aj Jazira, Sudan"
    }
  ],
  "updated_at": "2025-10-19T06:58:23.467518+00:00",
  "_kind": "geo_samples"
}