{
  "country_code": "SD",
  "country": "Sudan",
  "city": "El Fasher",
  "geonameid": 379555,
  "target_addresses": 2,
  "samples": [
    {
      "lat": 13.613235888551635,
      "lon": 25.35448802899912,
      "geoinfo": {
        "display_name": "Al-Fashir, Al Fasher, North Darfur State, Sudan",
        "road": null,
        "house_number": null,
        "neighbourhood": null,
        "suburb": null,
        "city_district": null,
        "city": "Al-Fashir",
        "state": "North Darfur State",
        "postcode": null,
        "country": "Sudan",
        "country_code": "sd"
      },
      "address": "El Fasher, North Darfur State, Sudan"
    },
    {
      "lat": 13.642409973344924,
      "lon": 25.338908699168872,
      "geoinfo": {
        "display_name": "سوق النفاشا, Abu Shouk, Al-Fashir, Al Fasher, North Darfur State, Sudan",
        "road": null,
        "house_number": null,
        "neighbourhood": null,
        "suburb": "Abu Shouk",
        "city_district": null,
        "city": "Al-Fashir",
        "state": "North Darfur State",
        "postcode": null,
        "country": "Sudan",
        "country_code": "sd"
      },
      "address": "Abu Shouk, El Fasher, North Darfur State, Sudan"
    },
    {
      "lat": 13.652151095636937,
      "lon": 25.3567335737521,
      "geoinfo": {
        "display_name": "Al-Fashir, Al Fasher, North Darfur State, Sudan",
        "road": null,
        "house_number": null,
        "neighbourhood": null,
        "suburb": null,
        "city_district": null,
        "city": "Al-Fashir",
        "state": "North Darfur State",
        "postcode": null,
        "country": "Sudan",
        "country_code": "sd"
      },
      "address": "525, Al-Fashir, Al Fasher, 19949 North Darfur State, Sudan"
    },
    {
      "lat": 13.640313781077694,
      "lon": 25.31538074098134,
      "geoinfo": {
        "display_name": "Al-Fashir, Al Fasher, North Darfur State, Sudan",
        "road": null,
        "house_number": null,
        "neighbourhood": null,
        "suburb": null,
        "city_district": null,
        "city": "Al-Fashir",
        "state": "North Darfur State",
        "postcode": null,
        "country": "Sudan",
        "country_code": "sd"
      },
      "address": "904, Al-Fashir, Al Fasher, 92927 North Darfur State, Sudan"
    }
  ],
  "updated_at": "2025-10-19T06:58:19.101754+00:00",
  "_kind": "geo_samples"
}