{
  "country_code": "SD",
  "country": "Sudan",
  "city": "Kabkābīyah",
  "geonameid": 373198,
  "target_addresses": 2,
  "samples": [
    {
      "lat": 13.651476247032832,
      "lon": 24.101374033684284,
      "geoinfo": {
        "display_name": "Kebkabiya, Kabkabiya, North Darfur State, Sudan",
        "road": null,
        "house_number": null,
        "neighbourhood": null,
        "suburb": null,
        "city_district": null,
        "city": "Kebkabiya",
        "state": "North Darfur State",
        "postcode": null,
        "country": "Sudan",
        "country_code": "sd"
      },
      "address": "Kabkābīyah, North Darfur State, Sudan"
    },
    {
      "lat": 13.684177310451098,
      "lon": 24.09671340153814,
      "geoinfo": {
        "display_name": "Dadi, Kabkabiya, North Darfur State, Sudan",
        "road": null,
        "house_number": null,
        "neighbourhood": null,
        "suburb": null,
        "city_district": null,
        "city": "Dadi",
        "state": "North Darfur State",
        "postcode": null,
        "country": "Sudan",
        "country_code": "sd"
      },
      "address": "119, Kabkābīyah, 83774 North Darfur State, Sudan"
    },
    {
      "lat": 13.641067250773247,
      "lon": 24.118384309116948,
      "geoinfo": {
        "display_name": "Kebkabiya, Kabkabiya, North Darfur State, Sudan",
        "road": null,
        "house_number": null,
        "neighbourhood": null,
        "suburb": null,
        "city_district": null,
        "city": "Kebkabiya",
        "state": "North Darfur State",
        "postcode": null,
        "country": "Sudan",
        "country_code": "sd"
      },
      "address": "390, Kabkābīyah, 26471 North Darfur State, Sudan"
    }
  ],
  "updated_at": "2025-10-19T06:32:17.636412+00:00",
  "_kind": "geo_samples"
}