{
  "country_code": "SD",
  "country": "Sudan",
  "city": "Kosti",
  "geonameid": 371760,
  "target_addresses": 2,
  "samples": [
    {
      "lat": 13.17709022133264,
      "lon": 32.67890867011343,
      "geoinfo": {
        "display_name": "Zannubah, Rabak, Al Jabalian, White Nile, Sudan",
        "road": null,
        "house_number": null,
        "neighbourhood": null,
        "suburb": null,
        "city_district": null,
        "city": "Rabak",
        "state": "White Nile",
        "postcode": null,
        "country": "Sudan",
        "country_code": "sd"
      },
      "address": "Kosti, White Nile, Sudan"
    },
    {
      "lat": 13.132018850837653,
      "lon": 32.630333078090615,
      "geoinfo": {
        "display_name": "Kosti-al-Ubayyid Road, كوستي, Kosti, White Nile, Sudan",
        "road": "Kosti-al-Ubayyid Road",
        "house_number": null,
        "neighbourhood": null,
        "suburb": null,
        "city_district": null,
        "city": "Kosti",
        "state": "White Nile",
        "postcode": null,
        "country": "Sudan",
        "country_code": "sd"
      },
      "address": "Kosti-al-Ubayyid Road, Kosti, White Nile, Sudan"
    },
    {
      "lat": 13.181845191160829,
      "lon": 32.68645192680478,
      "geoinfo": {
        "display_name": "Zannubah, Rabak, Al Jabalian, White Nile, Sudan",
        "road": null,
        "house_number": null,
        "neighbourhood": null,
        "suburb": null,
        "city_district": null,
        "city": "Rabak",
        "state": "White Nile",
        "postcode": null,
        "country": "Sudan",
        "country_code": "sd"
      },
      "address": "Zannubah, Rabak, Al Jabalian, 39309 White Nile, Sudan"
    },
    {
      "lat": 13.182871149368399,
      "lon": 32.64708572254597,
      "geoinfo": {
        "display_name": "كوستي, Kosti, White Nile, Sudan",
        "road": null,
        "house_number": null,
        "neighbourhood": null,
        "suburb": null,
        "city_district": null,
        "city": "Kosti",
        "state": "White Nile",
        "postcode": null,
        "country": "Sudan",
        "country_code": "sd"
      },
      "address": "942, كوستي, Kosti, 15213 White Nile, Sudan"
    },
    {
      "lat": 13.134133014434452,
      "lon": 32.66078780267772,
      "geoinfo": {
        "display_name": "كوستي, Kosti, White Nile, Sudan",
        "road": null,
        "house_number": null,
        "neighbourhood": null,
        "suburb": null,
        "city_district": null,
        "city": "Kosti",
        "state": "White Nile",
        "postcode": null,
        "country": "Sudan",
        "country_code": "sd"
      },
      "address": "289, كوستي, Kosti, 75442 White Nile, Sudan"
    }
  ],
  "updated_at": "2025-10-19T03:16:01.256009+00:00",
  "_kind": "geo_samples"
}