{
  "country_code": "SD",
  "country": "Sudan",
  "city": "Kuraymah",
  "geonameid": 371870,
  "target_addresses": 2,
  "samples": [
    {
      "lat": 18.587828472658448,
      "lon": 31.833290955021635,
      "geoinfo": {
        "display_name": "Karima, Northern State, Sudan",
        "road": null,
        "house_number": null,
        "neighbourhood": null,
        "suburb": null,
        "city_district": null,
        "city": "Karima",
        "state": "Northern State",
        "postcode": null,
        "country": "Sudan",
        "country_code": "sd"
      },
      "address": "Kuraymah, Northern State, Sudan"
    },
    {
      "lat": 18.584617431660536,
      "lon": 31.820202123507745,
      "geoinfo": {
        "display_name": "A1, Dongola, Northern State, Sudan",
        "road": "A1",
        "house_number": null,
        "neighbourhood": null,
        "suburb": null,
        "city_district": null,
        "city": "Dongola",
        "state": "Northern State",
        "postcode": null,
        "country": "Sudan",
        "country_code": "sd"
      },
      "address": "A1, Kuraymah, Northern State, Sudan"
    },
    {
      "lat": 18.53298540659006,
      "lon": 31.863984162331633,
      "geoinfo": {
        "display_name": "Jurayf, Karima, Northern State, Sudan",
        "road": null,
        "house_number": null,
        "neighbourhood": null,
        "suburb": null,
        "city_district": null,
        "city": "Karima",
        "state": "Northern State",
        "postcode": null,
        "country": "Sudan",
        "country_code": "sd"
      },
      "address": "Kuraymah, 89757 Northern State, Sudan"
    },
    {
      "lat": 18.5779565214545,
      "lon": 31.836850503831567,
      "geoinfo": {
        "display_name": "Karima, Northern State, Sudan",
        "road": null,
        "house_number": null,
        "neighbourhood": null,
        "suburb": null,
        "city_district": null,
        "city": "Karima",
        "state": "Northern State",
        "postcode": null,
        "country": "Sudan",
        "country_code": "sd"
      },
      "address": "229, Kuraymah, 17645 Northern State, Sudan"
    },
    {
      "lat": 18.542430670382505,
      "lon": 31.844035705629924,
      "geoinfo": {
        "display_name": "Karima, Northern State, Sudan",
        "road": null,
        "house_number": null,
        "neighbourhood": null,
        "suburb": null,
        "city_district": null,
        "city": "Karima",
        "state": "Northern State",
        "postcode": null,
        "country": "Sudan",
        "country_code": "sd"
      },
      "address": "501, Kuraymah, 53784 Northern State, Sudan"
    }
  ],
  "updated_at": "2025-10-19T03:16:14.302545+00:00",
  "_kind": "geo_samples"
}