{
  "country_code": "SD",
  "country": "Sudan",
  "city": "Omdurman",
  "geonameid": 365137,
  "target_addresses": 2,
  "samples": [
    {
      "lat": 15.657246119900975,
      "lon": 32.438752326801065,
      "geoinfo": {
        "display_name": "ام درمان, Omdurman, Al Khartum, 14417, Sudan",
        "road": null,
        "house_number": null,
        "neighbourhood": null,
        "suburb": null,
        "city_district": null,
        "city": "Omdurman",
        "state": "Al Khartum",
        "postcode": "14417",
        "country": "Sudan",
        "country_code": "sd"
      },
      "address": "Omdurman, Al Khartum, Sudan"
    },
    {
      "lat": 15.632435746588348,
      "lon": 32.4803188874787,
      "geoinfo": {
        "display_name": "ام درمان, الهاشماب, Omdurman, Al Khartum, 14417, Sudan",
        "road": null,
        "house_number": null,
        "neighbourhood": null,
        "suburb": "الهاشماب",
        "city_district": null,
        "city": "Omdurman",
        "state": "Al Khartum",
        "postcode": "14417",
        "country": "Sudan",
        "country_code": "sd"
      },
      "address": "الهاشماب, Omdurman, Al Khartum, Sudan"
    },
    {
      "lat": 15.631975853669463,
      "lon": 32.51941129978311,
      "geoinfo": {
        "display_name": "Hilat Khojali, Bahri, Al Khartum, 13311, Sudan",
        "road": null,
        "house_number": null,
        "neighbourhood": "Hilat Khojali",
        "suburb": null,
        "city_district": null,
        "city": "Bahri",
        "state": "Al Khartum",
        "postcode": "13311",
        "country": "Sudan",
        "country_code": "sd"
      },
      "address": "687, Hilat Khojali, Bahri, Al Khartum, 13311, Sudan"
    },
    {
      "lat": 15.661192089732138,
      "lon": 32.45259117487244,
      "geoinfo": {
        "display_name": "ام درمان, Omdurman, Al Khartum, 14417, Sudan",
        "road": null,
        "house_number": null,
        "neighbourhood": null,
        "suburb": null,
        "city_district": null,
        "city": "Omdurman",
        "state": "Al Khartum",
        "postcode": "14417",
        "country": "Sudan",
        "country_code": "sd"
      },
      "address": "688, ام درمان, Omdurman, Al Khartum, 14417, Sudan"
    }
  ],
  "updated_at": "2025-10-19T09:44:27.945640+00:00",
  "_kind": "geo_samples"
}