{
  "country_code": "ZW",
  "country": "Zimbabwe",
  "city": "Beitbridge",
  "geonameid": 895269,
  "target_addresses": 4,
  "samples": [
    {
      "lat": -22.216919417694626,
      "lon": 29.98165857108154,
      "geoinfo": {
        "display_name": "Limpopo View, Beitbridge, Municipality of Beitbridge, Beitbridge, Matabeleland South Province, Zimbabwe",
        "road": null,
        "house_number": null,
        "neighbourhood": null,
        "suburb": null,
        "city_district": null,
        "city": "Municipality of Beitbridge",
        "state": "Matabeleland South Province",
        "postcode": null,
        "country": "Zimbabwe",
        "country_code": "zw"
      },
      "address": "Beitbridge, Matabeleland South Province, Zimbabwe"
    },
    {
      "lat": -22.20147757657803,
      "lon": 30.007029446115414,
      "geoinfo": {
        "display_name": "Matibe, Beitbridge, Municipality of Beitbridge, Beitbridge, Matabeleland South Province, Zimbabwe",
        "road": null,
        "house_number": null,
        "neighbourhood": null,
        "suburb": "Matibe",
        "city_district": null,
        "city": "Municipality of Beitbridge",
        "state": "Matabeleland South Province",
        "postcode": null,
        "country": "Zimbabwe",
        "country_code": "zw"
      },
      "address": "Matibe, Beitbridge, Matabeleland South Province, Zimbabwe"
    },
    {
      "lat": -22.192697142716874,
      "lon": 30.01420969984423,
      "geoinfo": {
        "display_name": "Mbutshila, Milayo, Beitbridge, Municipality of Beitbridge, Beitbridge, Matabeleland South Province, Zimbabwe",
        "road": "Mbutshila",
        "house_number": null,
        "neighbourhood": null,
        "suburb": "Milayo",
        "city_district": null,
        "city": "Municipality of Beitbridge",
        "state": "Matabeleland South Province",
        "postcode": null,
        "country": "Zimbabwe",
        "country_code": "zw"
      },
      "address": "Mbutshila, Beitbridge, Matabeleland South Province, Zimbabwe"
    },
    {
      "lat": -22.20786394973143,
      "lon": 29.9660964134235,
      "geoinfo": {
        "display_name": "Khwalu 2, Beitbridge, Municipality of Beitbridge, Beitbridge, Matabeleland South Province, Zimbabwe",
        "road": null,
        "house_number": null,
        "neighbourhood": null,
        "suburb": "Khwalu 2",
        "city_district": null,
        "city": "Municipality of Beitbridge",
        "state": "Matabeleland South Province",
        "postcode": null,
        "country": "Zimbabwe",
        "country_code": "zw"
      },
      "address": "Khwalu 2, Beitbridge, Matabeleland South Province, Zimbabwe"
    },
    {
      "lat": -22.202089907242442,
      "lon": 29.98545221762823,
      "geoinfo": {
        "display_name": "Khwalu 2, Beitbridge, Municipality of Beitbridge, Beitbridge, Matabeleland South Province, Zimbabwe",
        "road": null,
        "house_number": null,
        "neighbourhood": null,
        "suburb": null,
        "city_district": null,
        "city": "Municipality of Beitbridge",
        "state": "Matabeleland South Province",
        "postcode": null,
        "country": "Zimbabwe",
        "country_code": "zw"
      },
      "address": "Khwalu 2, Beitbridge, Municipality of Beitbridge, Beitbridge, 18605 Matabeleland South Province, Zimbabwe"
    },
    {
      "lat": -22.20120260722311,
      "lon": 30.008308630787276,
      "geoinfo": {
        "display_name": "Matibe, Beitbridge, Municipality of Beitbridge, Beitbridge, Matabeleland South Province, Zimbabwe",
        "road": null,
        "house_number": null,
        "neighbourhood": null,
        "suburb": "Matibe",
        "city_district": null,
        "city": "Municipality of Beitbridge",
        "state": "Matabeleland South Province",
        "postcode": null,
        "country": "Zimbabwe",
        "country_code": "zw"
      },
      "address": "997, Matibe, Beitbridge, Municipality of Beitbridge, Beitbridge, 15980 Matabeleland South Province, Zimbabwe"
    },
    {
      "lat": -22.221229855483074,
      "lon": 29.97910704597108,
      "geoinfo": {
        "display_name": "Limpopo View, Beitbridge, Municipality of Beitbridge, Beitbridge, Matabeleland South Province, Zimbabwe",
        "road": null,
        "house_number": null,
        "neighbourhood": null,
        "suburb": null,
        "city_district": null,
        "city": "Municipality of Beitbridge",
        "state": "Matabeleland South Province",
        "postcode": null,
        "country": "Zimbabwe",
        "country_code": "zw"
      },
      "address": "886, Limpopo View, Beitbridge, Municipality of Beitbridge, Beitbridge, 00616 Matabeleland South Province, Zimbabwe"
    },
    {
      "lat": -22.204474952798996,
      "lon": 30.01521921985456,
      "geoinfo": {
        "display_name": "Matibe, Beitbridge, Municipality of Beitbridge, Beitbridge, Matabeleland South Province, Zimbabwe",
        "road": null,
        "house_number": null,
        "neighbourhood": null,
        "suburb": "Matibe",
        "city_district": null,
        "city": "Municipality of Beitbridge",
        "state": "Matabeleland South Province",
        "postcode": null,
        "country": "Zimbabwe",
        "country_code": "zw"
      },
      "address": "816, Matibe, Beitbridge, Municipality of Beitbridge, Beitbridge, 95500 Matabeleland South Province, Zimbabwe"
    }
  ],
  "updated_at": "2025-10-19T08:00:59.444482+00:00",
  "_kind": "geo_samples"
}