{
  "country_code": "ZW",
  "country": "Zimbabwe",
  "city": "Harare",
  "geonameid": 890299,
  "target_addresses": 4,
  "samples": [
    {
      "lat": -17.813299201672436,
      "lon": 31.040151277678156,
      "geoinfo": {
        "display_name": "Van Praagh Avenue, Milton Park, Harare, Zimbabwe",
        "road": "Van Praagh Avenue",
        "house_number": null,
        "neighbourhood": null,
        "suburb": "Milton Park",
        "city_district": null,
        "city": "Harare",
        "state": "Harare",
        "postcode": null,
        "country": "Zimbabwe",
        "country_code": "zw"
      },
      "address": "Van Praagh Avenue, Harare, Harare, Zimbabwe"
    },
    {
      "lat": -17.802844966544072,
      "lon": 31.089480363163773,
      "geoinfo": {
        "display_name": "Glenara Avenue North, Highlands, Harare, Zimbabwe",
        "road": "Glenara Avenue North",
        "house_number": null,
        "neighbourhood": null,
        "suburb": "Highlands",
        "city_district": null,
        "city": "Harare",
        "state": "Harare",
        "postcode": null,
        "country": "Zimbabwe",
        "country_code": "zw"
      },
      "address": "Glenara Avenue North, Harare, Harare, Zimbabwe"
    },
    {
      "lat": -17.82657984638993,
      "lon": 31.030636498779756,
      "geoinfo": {
        "display_name": "Herbert Chitepo Avenue, Milton Park, Harare, Zimbabwe",
        "road": "Herbert Chitepo Avenue",
        "house_number": null,
        "neighbourhood": null,
        "suburb": "Milton Park",
        "city_district": null,
        "city": "Harare",
        "state": "Harare",
        "postcode": null,
        "country": "Zimbabwe",
        "country_code": "zw"
      },
      "address": "Herbert Chitepo Avenue, Harare, Harare, Zimbabwe"
    },
    {
      "lat": -17.815950721213834,
      "lon": 31.022612413477063,
      "geoinfo": {
        "display_name": "Medical Rehabilitation Practitioners Council of Zimbabwe, 14, Bertram Road, Milton Park, Harare, Zimbabwe",
        "road": "Bertram Road",
        "house_number": "14",
        "neighbourhood": null,
        "suburb": "Milton Park",
        "city_district": null,
        "city": "Harare",
        "state": "Harare",
        "postcode": null,
        "country": "Zimbabwe",
        "country_code": "zw"
      },
      "address": "14 Bertram Road, Harare, Harare, Zimbabwe"
    },
    {
      "lat": -17.805959859560552,
      "lon": 31.050277898159777,
      "geoinfo": {
        "display_name": "Royal Harare Golf Club, Smith Street, Avondale, Harare, Zimbabwe",
        "road": "Smith Street",
        "house_number": null,
        "neighbourhood": null,
        "suburb": "Avondale",
        "city_district": null,
        "city": "Harare",
        "state": "Harare",
        "postcode": null,
        "country": "Zimbabwe",
        "country_code": "zw"
      },
      "address": "975, Smith Street, Harare, 96829 Harare, Zimbabwe"
    },
    {
      "lat": -17.825780810222493,
      "lon": 31.01026361156051,
      "geoinfo": {
        "display_name": "Charles Bullock Avenue, Belvedere, Harare, Zimbabwe",
        "road": "Charles Bullock Avenue",
        "house_number": null,
        "neighbourhood": null,
        "suburb": "Belvedere",
        "city_district": null,
        "city": "Harare",
        "state": "Harare",
        "postcode": null,
        "country": "Zimbabwe",
        "country_code": "zw"
      },
      "address": "288, Charles Bullock Avenue, Belvedere, 25566 Harare, Zimbabwe"
    },
    {
      "lat": -17.81900549419147,
      "lon": 31.033693716251825,
      "geoinfo": {
        "display_name": "Cleveland Avenue, Milton Park, Harare, Zimbabwe",
        "road": "Cleveland Avenue",
        "house_number": null,
        "neighbourhood": null,
        "suburb": "Milton Park",
        "city_district": null,
        "city": "Harare",
        "state": "Harare",
        "postcode": null,
        "country": "Zimbabwe",
        "country_code": "zw"
      },
      "address": "507, Cleveland Avenue, Milton Park, 40328 Harare, Zimbabwe"
    },
    {
      "lat": -17.803669829679425,
      "lon": 31.0687907804926,
      "geoinfo": {
        "display_name": "Police Golf Club, Watson Road, Gunhill, Harare, Zimbabwe",
        "road": "Watson Road",
        "house_number": null,
        "neighbourhood": "Gunhill",
        "suburb": null,
        "city_district": null,
        "city": "Harare",
        "state": "Harare",
        "postcode": null,
        "country": "Zimbabwe",
        "country_code": "zw"
      },
      "address": "509, Watson Road, Harare, 75272 Harare, Zimbabwe"
    }
  ],
  "updated_at": "2025-10-19T08:00:10.607288+00:00",
  "_kind": "geo_samples"
}