{
  "country_code": "ZW",
  "country": "Zimbabwe",
  "city": "Kariba",
  "geonameid": 889215,
  "target_addresses": 4,
  "samples": [
    {
      "lat": -16.527244570940514,
      "lon": 28.819797431027336,
      "geoinfo": {
        "display_name": "Kariba, Mashonaland West Province, Zimbabwe",
        "road": null,
        "house_number": null,
        "neighbourhood": null,
        "suburb": null,
        "city_district": null,
        "city": null,
        "state": "Mashonaland West Province",
        "postcode": null,
        "country": "Zimbabwe",
        "country_code": "zw"
      },
      "address": "Kariba, Mashonaland West Province, Zimbabwe"
    },
    {
      "lat": -16.497831580375525,
      "lon": 28.825544726368427,
      "geoinfo": {
        "display_name": "Nyamhunga, Kariba, Mashonaland West Province, Zimbabwe",
        "road": null,
        "house_number": null,
        "neighbourhood": null,
        "suburb": "Nyamhunga",
        "city_district": null,
        "city": null,
        "state": "Mashonaland West Province",
        "postcode": null,
        "country": "Zimbabwe",
        "country_code": "zw"
      },
      "address": "Nyamhunga, Kariba, Mashonaland West Province, Zimbabwe"
    },
    {
      "lat": -16.50671169889422,
      "lon": 28.844255803410793,
      "geoinfo": {
        "display_name": "Lake Drive, Nyamhunga, Kariba, Mashonaland West Province, Zimbabwe",
        "road": "Lake Drive",
        "house_number": null,
        "neighbourhood": null,
        "suburb": "Nyamhunga",
        "city_district": null,
        "city": null,
        "state": "Mashonaland West Province",
        "postcode": null,
        "country": "Zimbabwe",
        "country_code": "zw"
      },
      "address": "Lake Drive, Kariba, Mashonaland West Province, Zimbabwe"
    },
    {
      "lat": -16.53634702771896,
      "lon": 28.826767213276437,
      "geoinfo": {
        "display_name": "Mopani Camping & Caravan Park, Access Road to Mopane Bay Campsite, Kariba, Mashonaland West Province, Zimbabwe",
        "road": "Access Road to Mopane Bay Campsite",
        "house_number": null,
        "neighbourhood": null,
        "suburb": null,
        "city_district": null,
        "city": null,
        "state": "Mashonaland West Province",
        "postcode": null,
        "country": "Zimbabwe",
        "country_code": "zw"
      },
      "address": "Access Road to Mopane Bay Campsite, Kariba, Mashonaland West Province, Zimbabwe"
    },
    {
      "lat": -16.496178741696873,
      "lon": 28.83932945438897,
      "geoinfo": {
        "display_name": "Nyamhunga, Kariba, Mashonaland West Province, Zimbabwe",
        "road": null,
        "house_number": null,
        "neighbourhood": null,
        "suburb": "Nyamhunga",
        "city_district": null,
        "city": null,
        "state": "Mashonaland West Province",
        "postcode": null,
        "country": "Zimbabwe",
        "country_code": "zw"
      },
      "address": "920, Nyamhunga, Kariba, 84115 Mashonaland West Province, Zimbabwe"
    },
    {
      "lat": -16.49773793656172,
      "lon": 28.811357641576155,
      "geoinfo": {
        "display_name": "Kariba, Mashonaland West Province, Zimbabwe",
        "road": null,
        "house_number": null,
        "neighbourhood": null,
        "suburb": null,
        "city_district": null,
        "city": "Kariba",
        "state": "Mashonaland West Province",
        "postcode": null,
        "country": "Zimbabwe",
        "country_code": "zw"
      },
      "address": "050, Kariba, 78809 Mashonaland West Province, Zimbabwe"
    },
    {
      "lat": -16.548586734486314,
      "lon": 28.817590673947745,
      "geoinfo": {
        "display_name": "Kariba, Mashonaland West Province, Zimbabwe",
        "road": null,
        "house_number": null,
        "neighbourhood": null,
        "suburb": null,
        "city_district": null,
        "city": "Kariba",
        "state": "Mashonaland West Province",
        "postcode": null,
        "country": "Zimbabwe",
        "country_code": "zw"
      },
      "address": "890, Kariba, 48466 Mashonaland West Province, Zimbabwe"
    },
    {
      "lat": -16.520611456165145,
      "lon": 28.764033749722937,
      "geoinfo": {
        "display_name": "Kariba Dam Wall view point, Lake Drive, Kariba, Mashonaland West Province, Zimbabwe",
        "road": "Lake Drive",
        "house_number": null,
        "neighbourhood": null,
        "suburb": null,
        "city_district": null,
        "city": "Kariba",
        "state": "Mashonaland West Province",
        "postcode": null,
        "country": "Zimbabwe",
        "country_code": "zw"
      },
      "address": "409, Lake Drive, Kariba, 42828 Mashonaland West Province, Zimbabwe"
    }
  ],
  "updated_at": "2025-10-19T07:58:58.248398+00:00",
  "_kind": "geo_samples"
}