{
  "country_code": "ZW",
  "country": "Zimbabwe",
  "city": "Karoi",
  "geonameid": 889191,
  "target_addresses": 4,
  "samples": [
    {
      "lat": -16.796788498014294,
      "lon": 29.718055866571355,
      "geoinfo": {
        "display_name": "Karoi, Hurungwe, Mashonaland West Province, Zimbabwe",
        "road": null,
        "house_number": null,
        "neighbourhood": null,
        "suburb": null,
        "city_district": null,
        "city": "Karoi",
        "state": "Mashonaland West Province",
        "postcode": null,
        "country": "Zimbabwe",
        "country_code": "zw"
      },
      "address": "Karoi, Mashonaland West Province, Zimbabwe"
    },
    {
      "lat": -16.79623953864443,
      "lon": 29.698999019726273,
      "geoinfo": {
        "display_name": "Jacobs Ladder Road, Karoi, Hurungwe, Mashonaland West Province, Zimbabwe",
        "road": "Jacobs Ladder Road",
        "house_number": null,
        "neighbourhood": null,
        "suburb": null,
        "city_district": null,
        "city": "Karoi",
        "state": "Mashonaland West Province",
        "postcode": null,
        "country": "Zimbabwe",
        "country_code": "zw"
      },
      "address": "Jacobs Ladder Road, Karoi, Mashonaland West Province, Zimbabwe"
    },
    {
      "lat": -16.813688976573996,
      "lon": 29.69176350043756,
      "geoinfo": {
        "display_name": "Chikangwe, Karoi, Hurungwe, Mashonaland West Province, Zimbabwe",
        "road": "Chikangwe",
        "house_number": null,
        "neighbourhood": null,
        "suburb": null,
        "city_district": null,
        "city": "Karoi",
        "state": "Mashonaland West Province",
        "postcode": null,
        "country": "Zimbabwe",
        "country_code": "zw"
      },
      "address": "Chikangwe, Karoi, Mashonaland West Province, Zimbabwe"
    },
    {
      "lat": -16.815667465360185,
      "lon": 29.682297110085713,
      "geoinfo": {
        "display_name": "Karoi Policestation, A1, Karoi, Hurungwe, Mashonaland West Province, Zimbabwe",
        "road": "A1",
        "house_number": null,
        "neighbourhood": null,
        "suburb": null,
        "city_district": null,
        "city": "Karoi",
        "state": "Mashonaland West Province",
        "postcode": null,
        "country": "Zimbabwe",
        "country_code": "zw"
      },
      "address": "A1, Karoi, Mashonaland West Province, Zimbabwe"
    }
  ],
  "updated_at": "2025-10-17T01:30:12.365993+00:00",
  "_kind": "geo_samples"
}