{
  "country_code": "SI",
  "country": "Slovenia",
  "city": "Koper",
  "geonameid": 3197753,
  "target_addresses": 12,
  "samples": [
    {
      "lat": 45.539459617345024,
      "lon": 13.792504478915248,
      "geoinfo": {
        "display_name": "10, Cesta I. Istrske brigade, Čikuti / Cicuti, Pobegi (naselje), Pobegi, Koper, Upravna enota Koper / Unità amministrativa Capodistria, 6276, Slovenia",
        "road": "Cesta I. Istrske brigade",
        "house_number": "10",
        "neighbourhood": null,
        "suburb": "Pobegi (naselje)",
        "city_district": null,
        "city": "Koper",
        "state": null,
        "postcode": "6276",
        "country": "Slovenia",
        "country_code": "si"
      },
      "address": "10 Cesta I. Istrske brigade, Koper, Slovenia"
    },
    {
      "lat": 45.562697658792366,
      "lon": 13.703245806196962,
      "geoinfo": {
        "display_name": "Žusterna / Giusterna, Koper / Capodistria (naselje), Koper, Upravna enota Koper / Unità amministrativa Capodistria, 6103, Slovenia",
        "road": null,
        "house_number": null,
        "neighbourhood": "Žusterna / Giusterna",
        "suburb": "Koper / Capodistria (naselje)",
        "city_district": null,
        "city": "Koper",
        "state": null,
        "postcode": "6103",
        "country": "Slovenia",
        "country_code": "si"
      },
      "address": "Žusterna / Giusterna, Koper, Slovenia"
    },
    {
      "lat": 45.58982229247933,
      "lon": 13.747597257306328,
      "geoinfo": {
        "display_name": "42a, Barizoni / Barisoni, Kolomban / Colombano (naselje), Kolomban / Colombano, Ankaran / Ancarano, Upravna enota Koper / Unità amministrativa Capodistria, 6280, Slovenia",
        "road": "Barizoni / Barisoni",
        "house_number": "42a",
        "neighbourhood": null,
        "suburb": "Kolomban / Colombano (naselje)",
        "city_district": null,
        "city": "Kolomban / Colombano",
        "state": null,
        "postcode": "6280",
        "country": "Slovenia",
        "country_code": "si"
      },
      "address": "42a Barizoni / Barisoni, Koper, Slovenia"
    },
    {
      "lat": 45.58549747190961,
      "lon": 13.755758933794484,
      "geoinfo": {
        "display_name": "53, Cerej, Cerej / Cerei (naselje), Hrvatini / Crevatini, Ankaran / Ancarano, Upravna enota Koper / Unità amministrativa Capodistria, 6280, Slovenia",
        "road": "Cerej",
        "house_number": "53",
        "neighbourhood": null,
        "suburb": null,
        "city_district": null,
        "city": "Cerej / Cerei (naselje)",
        "state": null,
        "postcode": "6280",
        "country": "Slovenia",
        "country_code": "si"
      },
      "address": "53 Cerej, Koper, Slovenia"
    },
    {
      "lat": 45.57726986905741,
      "lon": 13.688347355836294,
      "geoinfo": {
        "display_name": "Koper, Upravna enota Koper / Unità amministrativa Capodistria, Slovenia",
        "road": null,
        "house_number": null,
        "neighbourhood": null,
        "suburb": null,
        "city_district": null,
        "city": null,
        "state": null,
        "postcode": null,
        "country": "Slovenia",
        "country_code": "si"
      },
      "address": "Koper, Slovenia"
    },
    {
      "lat": 45.530243372411114,
      "lon": 13.71178981089294,
      "geoinfo": {
        "display_name": "Semedela, Prisoje, Koper / Capodistria (naselje), Koper, Upravna enota Koper / Unità amministrativa Capodistria, 6103, Slovenia",
        "road": "Semedela",
        "house_number": null,
        "neighbourhood": "Prisoje",
        "suburb": "Koper / Capodistria (naselje)",
        "city_district": null,
        "city": "Koper",
        "state": null,
        "postcode": "6103",
        "country": "Slovenia",
        "country_code": "si"
      },
      "address": "Semedela, Koper, Slovenia"
    },
    {
      "lat": 45.55974579408091,
      "lon": 13.78677183000752,
      "geoinfo": {
        "display_name": "406, Valmarin, Sp. Škofije (naselje), Spodnje Škofije, Koper, Upravna enota Koper / Unità amministrativa Capodistria, 6281, Slovenia",
        "road": "406",
        "house_number": null,
        "neighbourhood": null,
        "suburb": "Sp. Škofije (naselje)",
        "city_district": null,
        "city": "Koper",
        "state": null,
        "postcode": "6281",
        "country": "Slovenia",
        "country_code": "si"
      },
      "address": "406, Koper, Slovenia"
    },
    {
      "lat": 45.55905317072323,
      "lon": 13.718752942312197,
      "geoinfo": {
        "display_name": "Tomažičev trg / Piazzetta Pinko Tomažič, Olmo, Koper / Capodistria (naselje), Koper, Upravna enota Koper / Unità amministrativa Capodistria, 6000, Slovenia",
        "road": null,
        "house_number": null,
        "neighbourhood": null,
        "suburb": "Olmo",
        "city_district": null,
        "city": "Koper",
        "state": null,
        "postcode": "6000",
        "country": "Slovenia",
        "country_code": "si"
      },
      "address": "Olmo, Koper, Slovenia"
    },
    {
      "lat": 45.53494527457825,
      "lon": 13.674684130896923,
      "geoinfo": {
        "display_name": "H6, Pregavor / Pregaor, Izola / Isola (naselje), Izola, Upravna enota Izola / Unità amministrativa Isola, 6310, Slovenia",
        "road": "H6",
        "house_number": null,
        "neighbourhood": "Pregavor / Pregaor",
        "suburb": "Izola / Isola (naselje)",
        "city_district": null,
        "city": "Izola",
        "state": null,
        "postcode": "6310",
        "country": "Slovenia",
        "country_code": "si"
      },
      "address": "H6, Koper, Slovenia"
    },
    {
      "lat": 45.55201277575839,
      "lon": 13.78388187875815,
      "geoinfo": {
        "display_name": "Cesta med vinogradi, Kortina, Bertoki / Bertocchi (naselje), Prade, Koper, Upravna enota Koper / Unità amministrativa Capodistria, 6281, Slovenia",
        "road": "Cesta med vinogradi",
        "house_number": null,
        "neighbourhood": null,
        "suburb": "Bertoki / Bertocchi (naselje)",
        "city_district": null,
        "city": "Koper",
        "state": null,
        "postcode": "6281",
        "country": "Slovenia",
        "country_code": "si"
      },
      "address": "Cesta med vinogradi, Koper, Slovenia"
    },
    {
      "lat": 45.54581028361017,
      "lon": 13.716318956777707,
      "geoinfo": {
        "display_name": "Parenzana, Semedela / Semedella, Koper / Capodistria (naselje), Koper, Upravna enota Koper / Unità amministrativa Capodistria, 6103, Slovenia",
        "road": "Parenzana",
        "house_number": null,
        "neighbourhood": "Semedela / Semedella",
        "suburb": "Koper / Capodistria (naselje)",
        "city_district": null,
        "city": "Koper",
        "state": null,
        "postcode": "6103",
        "country": "Slovenia",
        "country_code": "si"
      },
      "address": "Parenzana, Koper, Slovenia"
    },
    {
      "lat": 45.56759321432667,
      "lon": 13.749704508588433,
      "geoinfo": {
        "display_name": "Ankaran / Ancarano (naselje), Ankaran / Ancarano, Upravna enota Koper / Unità amministrativa Capodistria, 6280, Slovenia",
        "road": null,
        "house_number": null,
        "neighbourhood": null,
        "suburb": "Ankaran / Ancarano (naselje)",
        "city_district": null,
        "city": "Ankaran / Ancarano",
        "state": null,
        "postcode": "6280",
        "country": "Slovenia",
        "country_code": "si"
      },
      "address": "Ankaran / Ancarano (naselje), Koper, Slovenia"
    },
    {
      "lat": 45.53175045468458,
      "lon": 13.783843090348059,
      "geoinfo": {
        "display_name": "Fola, Bonini (naselje), Bonini, Koper, Upravna enota Koper / Unità amministrativa Capodistria, 6276, Slovenia",
        "road": null,
        "house_number": null,
        "neighbourhood": null,
        "suburb": "Bonini (naselje)",
        "city_district": null,
        "city": "Koper",
        "state": null,
        "postcode": "6276",
        "country": "Slovenia",
        "country_code": "si"
      },
      "address": "739, Fola, Bonini (naselje), Bonini, Koper, Upravna enota Koper / Unità amministrativa Capodistria, 6276, Slovenia"
    },
    {
      "lat": 45.54879188333184,
      "lon": 13.757218229955543,
      "geoinfo": {
        "display_name": "114, Bertoki / Bertocchi (naselje), Bertoki / Bertocchi, Koper, Upravna enota Koper / Unità amministrativa Capodistria, 6000, Slovenia",
        "road": "114",
        "house_number": null,
        "neighbourhood": null,
        "suburb": "Bertoki / Bertocchi (naselje)",
        "city_district": null,
        "city": "Koper",
        "state": null,
        "postcode": "6000",
        "country": "Slovenia",
        "country_code": "si"
      },
      "address": "114, Bertoki / Bertocchi (naselje), Bertoki / Bertocchi, Koper, Upravna enota Koper / Unità amministrativa Capodistria, 6000, Slovenia"
    },
    {
      "lat": 45.57953741368591,
      "lon": 13.733245682444993,
      "geoinfo": {
        "display_name": "Camping Adria Ankaran, 25, Jadranska cesta / Strada dell'Adriatico, Ankaran / Ancarano (naselje), Ankaran / Ancarano, Upravna enota Koper / Unità amministrativa Capodistria, 6280, Slovenia",
        "road": "Jadranska cesta / Strada dell'Adriatico",
        "house_number": "25",
        "neighbourhood": null,
        "suburb": "Ankaran / Ancarano (naselje)",
        "city_district": null,
        "city": "Ankaran / Ancarano",
        "state": null,
        "postcode": "6280",
        "country": "Slovenia",
        "country_code": "si"
      },
      "address": "Camping Adria Ankaran, 25, Jadranska cesta / Strada dell'Adriatico, Ankaran / Ancarano (naselje), Ankaran / Ancarano, Upravna enota Koper / Unità amministrativa Capodistria, 6280, Slovenia"
    },
    {
      "lat": 45.54017073856813,
      "lon": 13.705866058543563,
      "geoinfo": {
        "display_name": "Ulica Ob parku, Markovec / Monte Marco, Koper / Capodistria (naselje), Koper, Upravna enota Koper / Unità amministrativa Capodistria, 6103, Slovenia",
        "road": "Ulica Ob parku",
        "house_number": null,
        "neighbourhood": "Markovec / Monte Marco",
        "suburb": "Koper / Capodistria (naselje)",
        "city_district": null,
        "city": "Koper",
        "state": null,
        "postcode": "6103",
        "country": "Slovenia",
        "country_code": "si"
      },
      "address": "455, Ulica Ob parku, Markovec / Monte Marco, Koper / Capodistria (naselje), Koper, Upravna enota Koper / Unità amministrativa Capodistria, 6103, Slovenia"
    },
    {
      "lat": 45.52605403698329,
      "lon": 13.699349952028856,
      "geoinfo": {
        "display_name": "76A, Semedela, Koper / Capodistria (naselje), Gažon, Koper, Upravna enota Koper / Unità amministrativa Capodistria, 6000, Slovenia",
        "road": "Semedela",
        "house_number": "76A",
        "neighbourhood": null,
        "suburb": "Koper / Capodistria (naselje)",
        "city_district": null,
        "city": "Koper",
        "state": null,
        "postcode": "6000",
        "country": "Slovenia",
        "country_code": "si"
      },
      "address": "76A, Semedela, Koper / Capodistria (naselje), Gažon, Koper, Upravna enota Koper / Unità amministrativa Capodistria, 6000, Slovenia"
    },
    {
      "lat": 45.55564534823065,
      "lon": 13.781123014956215,
      "geoinfo": {
        "display_name": "741, Bertoki / Bertocchi (naselje), Zgornje Škofije, Koper, Upravna enota Koper / Unità amministrativa Capodistria, 6281, Slovenia",
        "road": "741",
        "house_number": null,
        "neighbourhood": null,
        "suburb": "Bertoki / Bertocchi (naselje)",
        "city_district": null,
        "city": "Koper",
        "state": null,
        "postcode": "6281",
        "country": "Slovenia",
        "country_code": "si"
      },
      "address": "741, Bertoki / Bertocchi (naselje), Zgornje Škofije, Koper, Upravna enota Koper / Unità amministrativa Capodistria, 6281, Slovenia"
    },
    {
      "lat": 45.56633790825475,
      "lon": 13.77966865469722,
      "geoinfo": {
        "display_name": "15, Spodnje Škofije, Moretini, Sp. Škofije (naselje), Spodnje Škofije, Koper, Upravna enota Koper / Unità amministrativa Capodistria, 6281, Slovenia",
        "road": "Spodnje Škofije",
        "house_number": "15",
        "neighbourhood": null,
        "suburb": "Sp. Škofije (naselje)",
        "city_district": null,
        "city": "Koper",
        "state": null,
        "postcode": "6281",
        "country": "Slovenia",
        "country_code": "si"
      },
      "address": "15, Spodnje Škofije, Moretini, Sp. Škofije (naselje), Spodnje Škofije, Koper, Upravna enota Koper / Unità amministrativa Capodistria, 6281, Slovenia"
    },
    {
      "lat": 45.54268691159007,
      "lon": 13.746243258673404,
      "geoinfo": {
        "display_name": "H5, Redljena / Regliena, Koper / Capodistria (naselje), Bertoki / Bertocchi, Koper, Upravna enota Koper / Unità amministrativa Capodistria, 6000, Slovenia",
        "road": "H5",
        "house_number": null,
        "neighbourhood": null,
        "suburb": "Koper / Capodistria (naselje)",
        "city_district": null,
        "city": "Koper",
        "state": null,
        "postcode": "6000",
        "country": "Slovenia",
        "country_code": "si"
      },
      "address": "H5, Redljena / Regliena, Koper / Capodistria (naselje), Bertoki / Bertocchi, Koper, Upravna enota Koper / Unità amministrativa Capodistria, 6000, Slovenia"
    },
    {
      "lat": 45.555992494301684,
      "lon": 13.75205972458134,
      "geoinfo": {
        "display_name": "Luka Koper, Bertoki / Bertocchi (naselje), Bertoki / Bertocchi, Koper, Upravna enota Koper / Unità amministrativa Capodistria, 6000, Slovenia",
        "road": null,
        "house_number": null,
        "neighbourhood": null,
        "suburb": "Bertoki / Bertocchi (naselje)",
        "city_district": null,
        "city": "Koper",
        "state": null,
        "postcode": "6000",
        "country": "Slovenia",
        "country_code": "si"
      },
      "address": "431, Luka Koper, Bertoki / Bertocchi (naselje), Bertoki / Bertocchi, Koper, Upravna enota Koper / Unità amministrativa Capodistria, 6000, Slovenia"
    },
    {
      "lat": 45.54585649623338,
      "lon": 13.757937759629836,
      "geoinfo": {
        "display_name": "Bertoki / Bertocchi (naselje), Bertoki / Bertocchi, Koper, Upravna enota Koper / Unità amministrativa Capodistria, 6000, Slovenia",
        "road": null,
        "house_number": null,
        "neighbourhood": null,
        "suburb": "Bertoki / Bertocchi (naselje)",
        "city_district": null,
        "city": "Koper",
        "state": null,
        "postcode": "6000",
        "country": "Slovenia",
        "country_code": "si"
      },
      "address": "465, Bertoki / Bertocchi (naselje), 6000 Koper, Slovenia"
    },
    {
      "lat": 45.58286562630867,
      "lon": 13.762384682012216,
      "geoinfo": {
        "display_name": "Božiči / Bosici, Hrvatini / Crevatini (naselje), Hrvatini / Crevatini, Koper, Upravna enota Koper / Unità amministrativa Capodistria, 6280, Slovenia",
        "road": null,
        "house_number": null,
        "neighbourhood": null,
        "suburb": "Hrvatini / Crevatini (naselje)",
        "city_district": null,
        "city": "Koper",
        "state": null,
        "postcode": "6280",
        "country": "Slovenia",
        "country_code": "si"
      },
      "address": "245, Božiči / Bosici, Hrvatini / Crevatini (naselje), Hrvatini / Crevatini, Koper, Upravna enota Koper / Unità amministrativa Capodistria, 6280, Slovenia"
    },
    {
      "lat": 45.507403336096964,
      "lon": 13.735649343357139,
      "geoinfo": {
        "display_name": "Kurbnhaus, Grinjan (naselje), Bošamarin / Bossamarino, Koper, Upravna enota Koper / Unità amministrativa Capodistria, 6104, Slovenia",
        "road": "Kurbnhaus",
        "house_number": null,
        "neighbourhood": null,
        "suburb": "Grinjan (naselje)",
        "city_district": null,
        "city": "Koper",
        "state": null,
        "postcode": "6104",
        "country": "Slovenia",
        "country_code": "si"
      },
      "address": "785, Kurbnhaus, Grinjan (naselje), Bošamarin / Bossamarino, Koper, Upravna enota Koper / Unità amministrativa Capodistria, 6104, Slovenia"
    }
  ],
  "updated_at": "2025-10-19T04:48:14.390128+00:00",
  "_kind": "geo_samples"
}