{
  "country_code": "SI",
  "country": "Slovenia",
  "city": "Ptuj",
  "geonameid": 3192241,
  "target_addresses": 12,
  "samples": [
    {
      "lat": 46.396144368710424,
      "lon": 15.852066170017778,
      "geoinfo": {
        "display_name": "710, Ptuj, Hajdina, 2251, Slovenia",
        "road": "710",
        "house_number": null,
        "neighbourhood": null,
        "suburb": null,
        "city_district": null,
        "city": "Ptuj",
        "state": null,
        "postcode": "2251",
        "country": "Slovenia",
        "country_code": "si"
      },
      "address": "710, Ptuj, Slovenia"
    },
    {
      "lat": 46.3933310048878,
      "lon": 15.871396957704361,
      "geoinfo": {
        "display_name": "11, Sodnice, Ptuj, 2250, Slovenia",
        "road": "Sodnice",
        "house_number": "11",
        "neighbourhood": null,
        "suburb": null,
        "city_district": null,
        "city": "Ptuj",
        "state": null,
        "postcode": "2250",
        "country": "Slovenia",
        "country_code": "si"
      },
      "address": "11 Sodnice, Ptuj, Slovenia"
    },
    {
      "lat": 46.425562799558854,
      "lon": 15.858543172015528,
      "geoinfo": {
        "display_name": "74, Vičava, Panorama, Ptuj, 2250, Slovenia",
        "road": "Vičava",
        "house_number": "74",
        "neighbourhood": null,
        "suburb": null,
        "city_district": null,
        "city": "Ptuj",
        "state": null,
        "postcode": "2250",
        "country": "Slovenia",
        "country_code": "si"
      },
      "address": "74 Vičava, Ptuj, Slovenia"
    },
    {
      "lat": 46.407692308477436,
      "lon": 15.82003603859127,
      "geoinfo": {
        "display_name": "A4, Zgornja Hajdina, Hajdina, 2288, Slovenia",
        "road": "A4",
        "house_number": null,
        "neighbourhood": null,
        "suburb": null,
        "city_district": null,
        "city": "Zgornja Hajdina",
        "state": null,
        "postcode": "2288",
        "country": "Slovenia",
        "country_code": "si"
      },
      "address": "A4, Ptuj, Slovenia"
    },
    {
      "lat": 46.42279233140719,
      "lon": 15.887444502081587,
      "geoinfo": {
        "display_name": "Puhova ulica, Jezero, Ptuj, 2250, Slovenia",
        "road": "Puhova ulica",
        "house_number": null,
        "neighbourhood": null,
        "suburb": null,
        "city_district": null,
        "city": "Ptuj",
        "state": null,
        "postcode": "2250",
        "country": "Slovenia",
        "country_code": "si"
      },
      "address": "Puhova ulica, Ptuj, Slovenia"
    },
    {
      "lat": 46.419840255775185,
      "lon": 15.853099194407067,
      "geoinfo": {
        "display_name": "Mlinska cesta, Breg, Ptuj, 2251, Slovenia",
        "road": "Mlinska cesta",
        "house_number": null,
        "neighbourhood": null,
        "suburb": null,
        "city_district": null,
        "city": "Ptuj",
        "state": null,
        "postcode": "2251",
        "country": "Slovenia",
        "country_code": "si"
      },
      "address": "Mlinska cesta, Ptuj, Slovenia"
    },
    {
      "lat": 46.41509647865192,
      "lon": 15.863187000329269,
      "geoinfo": {
        "display_name": "4, Zagrebška cesta, Breg, Ptuj, 2250, Slovenia",
        "road": "Zagrebška cesta",
        "house_number": "4",
        "neighbourhood": null,
        "suburb": null,
        "city_district": null,
        "city": "Ptuj",
        "state": null,
        "postcode": "2250",
        "country": "Slovenia",
        "country_code": "si"
      },
      "address": "4 Zagrebška cesta, Ptuj, Slovenia"
    },
    {
      "lat": 46.450060138764,
      "lon": 15.911307612388521,
      "geoinfo": {
        "display_name": "42B, Kicar, Ptuj, 2250, Slovenia",
        "road": "Kicar",
        "house_number": "42B",
        "neighbourhood": null,
        "suburb": null,
        "city_district": null,
        "city": "Ptuj",
        "state": null,
        "postcode": "2250",
        "country": "Slovenia",
        "country_code": "si"
      },
      "address": "42B Kicar, Ptuj, Slovenia"
    },
    {
      "lat": 46.4461470742672,
      "lon": 15.911013241943536,
      "geoinfo": {
        "display_name": "38, Kicar, Ptuj, 2250, Slovenia",
        "road": "Kicar",
        "house_number": "38",
        "neighbourhood": null,
        "suburb": null,
        "city_district": null,
        "city": "Ptuj",
        "state": null,
        "postcode": "2250",
        "country": "Slovenia",
        "country_code": "si"
      },
      "address": "38 Kicar, Ptuj, Slovenia"
    },
    {
      "lat": 46.424282723770375,
      "lon": 15.877474302379019,
      "geoinfo": {
        "display_name": "Kvedrova ulica, Ljudski Vrt, Ptuj, 2250, Slovenia",
        "road": "Kvedrova ulica",
        "house_number": null,
        "neighbourhood": null,
        "suburb": null,
        "city_district": null,
        "city": "Ptuj",
        "state": null,
        "postcode": "2250",
        "country": "Slovenia",
        "country_code": "si"
      },
      "address": "Kvedrova ulica, Ptuj, Slovenia"
    },
    {
      "lat": 46.39796574799433,
      "lon": 15.849101047586812,
      "geoinfo": {
        "display_name": "Zgornja Hajdina, Draženci, Hajdina, 2288, Slovenia",
        "road": "Zgornja Hajdina",
        "house_number": null,
        "neighbourhood": null,
        "suburb": null,
        "city_district": null,
        "city": "Draženci",
        "state": null,
        "postcode": "2288",
        "country": "Slovenia",
        "country_code": "si"
      },
      "address": "Zgornja Hajdina, Ptuj, Slovenia"
    },
    {
      "lat": 46.39048706719263,
      "lon": 15.91762905103681,
      "geoinfo": {
        "display_name": "Zabovci, Markovci, 2281, Slovenia",
        "road": null,
        "house_number": null,
        "neighbourhood": null,
        "suburb": null,
        "city_district": null,
        "city": "Zabovci",
        "state": null,
        "postcode": "2281",
        "country": "Slovenia",
        "country_code": "si"
      },
      "address": "Ptuj, Slovenia"
    }
  ],
  "updated_at": "2025-10-16T22:55:28.981995+00:00",
  "_kind": "geo_samples"
}