{
  "country_code": "SI",
  "country": "Slovenia",
  "city": "Trbovlje",
  "geonameid": 3188915,
  "target_addresses": 12,
  "samples": [
    {
      "lat": 46.14002182652021,
      "lon": 14.996300309105854,
      "geoinfo": {
        "display_name": "Vine, Zagorje ob Savi, 1410, Slovenia",
        "road": null,
        "house_number": null,
        "neighbourhood": null,
        "suburb": null,
        "city_district": null,
        "city": "Zagorje ob Savi",
        "state": null,
        "postcode": "1410",
        "country": "Slovenia",
        "country_code": "si"
      },
      "address": "Trbovlje, Slovenia"
    },
    {
      "lat": 46.18230853973219,
      "lon": 15.029358581596783,
      "geoinfo": {
        "display_name": "Skuškova kapela Lurške Matere Božje, Sveta Planina, Planinska vas, Trbovlje, 1420, Slovenia",
        "road": "Sveta Planina",
        "house_number": null,
        "neighbourhood": null,
        "suburb": null,
        "city_district": null,
        "city": "Trbovlje",
        "state": null,
        "postcode": "1420",
        "country": "Slovenia",
        "country_code": "si"
      },
      "address": "Sveta Planina, Trbovlje, Slovenia"
    },
    {
      "lat": 46.16587001256224,
      "lon": 15.072193786144226,
      "geoinfo": {
        "display_name": "Ostenk, Potok, Ostenk, Trbovlje, 1430, Slovenia",
        "road": "Ostenk",
        "house_number": null,
        "neighbourhood": null,
        "suburb": null,
        "city_district": null,
        "city": "Trbovlje",
        "state": null,
        "postcode": "1430",
        "country": "Slovenia",
        "country_code": "si"
      },
      "address": "Ostenk, Trbovlje, Slovenia"
    },
    {
      "lat": 46.14659573763352,
      "lon": 15.043682543997706,
      "geoinfo": {
        "display_name": "5a, Opekarna, Globušak, Trbovlje, 1420, Slovenia",
        "road": "Opekarna",
        "house_number": "5a",
        "neighbourhood": null,
        "suburb": null,
        "city_district": null,
        "city": "Trbovlje",
        "state": null,
        "postcode": "1420",
        "country": "Slovenia",
        "country_code": "si"
      },
      "address": "5a Opekarna, Trbovlje, Slovenia"
    },
    {
      "lat": 46.12948574791368,
      "lon": 15.034159345191641,
      "geoinfo": {
        "display_name": "Kolodvorska cesta, Škofja Riža, Trbovlje, 1423, Slovenia",
        "road": "Kolodvorska cesta",
        "house_number": null,
        "neighbourhood": null,
        "suburb": null,
        "city_district": null,
        "city": "Trbovlje",
        "state": null,
        "postcode": "1423",
        "country": "Slovenia",
        "country_code": "si"
      },
      "address": "Kolodvorska cesta, Trbovlje, Slovenia"
    },
    {
      "lat": 46.11024688635394,
      "lon": 15.048617943530612,
      "geoinfo": {
        "display_name": "9a, 108, Škofja Riža, Trbovlje, 1423, Slovenia",
        "road": "108",
        "house_number": "9a",
        "neighbourhood": null,
        "suburb": null,
        "city_district": null,
        "city": "Trbovlje",
        "state": null,
        "postcode": "1423",
        "country": "Slovenia",
        "country_code": "si"
      },
      "address": "9a 108, Trbovlje, Slovenia"
    },
    {
      "lat": 46.159376585646356,
      "lon": 15.027157567642828,
      "geoinfo": {
        "display_name": "Klek, Zgornji Klek, Klek, Trbovlje, 1420, Slovenia",
        "road": "Klek",
        "house_number": null,
        "neighbourhood": null,
        "suburb": null,
        "city_district": null,
        "city": "Trbovlje",
        "state": null,
        "postcode": "1420",
        "country": "Slovenia",
        "country_code": "si"
      },
      "address": "Klek, Trbovlje, Slovenia"
    },
    {
      "lat": 46.171851910415484,
      "lon": 14.993619036820574,
      "geoinfo": {
        "display_name": "Spominska hiša Ustanovnega kongresa KPS na Čebinah, 4, Sveta Planina, Zgornje Čebine, Čebine, Trbovlje, 1420, Slovenia",
        "road": "Sveta Planina",
        "house_number": "4",
        "neighbourhood": null,
        "suburb": null,
        "city_district": null,
        "city": "Trbovlje",
        "state": null,
        "postcode": "1420",
        "country": "Slovenia",
        "country_code": "si"
      },
      "address": "4 Sveta Planina, Trbovlje, Slovenia"
    },
    {
      "lat": 46.153677267409655,
      "lon": 15.110989614244126,
      "geoinfo": {
        "display_name": "80, Partizanska cesta, Novi Dol, Dol pri Hrastniku, Hrastnik, 1431, Slovenia",
        "road": "Partizanska cesta",
        "house_number": "80",
        "neighbourhood": null,
        "suburb": null,
        "city_district": null,
        "city": "Hrastnik",
        "state": null,
        "postcode": "1431",
        "country": "Slovenia",
        "country_code": "si"
      },
      "address": "80 Partizanska cesta, Trbovlje, Slovenia"
    },
    {
      "lat": 46.15171282640932,
      "lon": 15.038867685422694,
      "geoinfo": {
        "display_name": "Pod Ostrim vrhom, Globušak, Klek, Trbovlje, 1420, Slovenia",
        "road": "Pod Ostrim vrhom",
        "house_number": null,
        "neighbourhood": null,
        "suburb": null,
        "city_district": null,
        "city": "Trbovlje",
        "state": null,
        "postcode": "1420",
        "country": "Slovenia",
        "country_code": "si"
      },
      "address": "Pod Ostrim vrhom, Trbovlje, Slovenia"
    },
    {
      "lat": 46.12909620571345,
      "lon": 15.093886123204742,
      "geoinfo": {
        "display_name": "Steklarna Hrastnik, 224, Draga, Podkraj, Hrastnik, 1430, Slovenia",
        "road": "224",
        "house_number": null,
        "neighbourhood": null,
        "suburb": null,
        "city_district": null,
        "city": "Hrastnik",
        "state": null,
        "postcode": "1430",
        "country": "Slovenia",
        "country_code": "si"
      },
      "address": "224, Trbovlje, Slovenia"
    },
    {
      "lat": 46.15100816244274,
      "lon": 15.021497425434267,
      "geoinfo": {
        "display_name": "43, Prapreče, Bukovje, Prapreče, Zagorje ob Savi, 1410, Slovenia",
        "road": "Prapreče",
        "house_number": "43",
        "neighbourhood": null,
        "suburb": null,
        "city_district": null,
        "city": "Zagorje ob Savi",
        "state": null,
        "postcode": "1410",
        "country": "Slovenia",
        "country_code": "si"
      },
      "address": "43 Prapreče, Trbovlje, Slovenia"
    },
    {
      "lat": 46.165052173894516,
      "lon": 15.076241346074783,
      "geoinfo": {
        "display_name": "7, Ostenk, Potok, Ostenk, Trbovlje, 1420, Slovenia",
        "road": "Ostenk",
        "house_number": "7",
        "neighbourhood": null,
        "suburb": null,
        "city_district": null,
        "city": "Trbovlje",
        "state": null,
        "postcode": "1420",
        "country": "Slovenia",
        "country_code": "si"
      },
      "address": "7, Ostenk, Potok, Ostenk, Trbovlje, 1420, Slovenia"
    },
    {
      "lat": 46.16277862411932,
      "lon": 15.047434395066599,
      "geoinfo": {
        "display_name": "Cesta Tončke Čeč, Gabrsko, Trbovlje, 1420, Slovenia",
        "road": "Cesta Tončke Čeč",
        "house_number": null,
        "neighbourhood": null,
        "suburb": null,
        "city_district": null,
        "city": "Trbovlje",
        "state": null,
        "postcode": "1420",
        "country": "Slovenia",
        "country_code": "si"
      },
      "address": "489, Cesta Tončke Čeč, Gabrsko, Trbovlje, 1420, Slovenia"
    },
    {
      "lat": 46.15494273596363,
      "lon": 15.063641564667398,
      "geoinfo": {
        "display_name": "Ostenk, Trbovlje, 1420, Slovenia",
        "road": null,
        "house_number": null,
        "neighbourhood": null,
        "suburb": null,
        "city_district": null,
        "city": "Trbovlje",
        "state": null,
        "postcode": "1420",
        "country": "Slovenia",
        "country_code": "si"
      },
      "address": "105, Ostenk, Trbovlje, 1420, Slovenia"
    },
    {
      "lat": 46.16009004216046,
      "lon": 15.016873074128421,
      "geoinfo": {
        "display_name": "Klek, Zgornji Klek, Klek, Trbovlje, 1420, Slovenia",
        "road": "Klek",
        "house_number": null,
        "neighbourhood": null,
        "suburb": null,
        "city_district": null,
        "city": "Trbovlje",
        "state": null,
        "postcode": "1420",
        "country": "Slovenia",
        "country_code": "si"
      },
      "address": "281, Klek, Zgornji Klek, Klek, Trbovlje, 1420, Slovenia"
    },
    {
      "lat": 46.1803437246601,
      "lon": 15.0519269273695,
      "geoinfo": {
        "display_name": "Gabrsko, Trbovlje, 1420, Slovenia",
        "road": "Gabrsko",
        "house_number": null,
        "neighbourhood": null,
        "suburb": null,
        "city_district": null,
        "city": "Trbovlje",
        "state": null,
        "postcode": "1420",
        "country": "Slovenia",
        "country_code": "si"
      },
      "address": "202, Gabrsko, Trbovlje, 1420, Slovenia"
    },
    {
      "lat": 46.16046068106577,
      "lon": 15.062650225750442,
      "geoinfo": {
        "display_name": "Majcenova cesta, Ostenk, Trbovlje, 1420, Slovenia",
        "road": "Majcenova cesta",
        "house_number": null,
        "neighbourhood": null,
        "suburb": null,
        "city_district": null,
        "city": "Trbovlje",
        "state": null,
        "postcode": "1420",
        "country": "Slovenia",
        "country_code": "si"
      },
      "address": "141, Majcenova cesta, Ostenk, Trbovlje, 1420, Slovenia"
    },
    {
      "lat": 46.18736334357592,
      "lon": 15.03418666026979,
      "geoinfo": {
        "display_name": "Gabrsko, Knezdol, Trbovlje, 1420, Slovenia",
        "road": null,
        "house_number": null,
        "neighbourhood": null,
        "suburb": null,
        "city_district": null,
        "city": "Trbovlje",
        "state": null,
        "postcode": "1420",
        "country": "Slovenia",
        "country_code": "si"
      },
      "address": "689, Gabrsko, Knezdol, Trbovlje, 1420, Slovenia"
    },
    {
      "lat": 46.15972491095955,
      "lon": 15.041803424680296,
      "geoinfo": {
        "display_name": "Globušak, Klek, Trbovlje, 1420, Slovenia",
        "road": null,
        "house_number": null,
        "neighbourhood": null,
        "suburb": null,
        "city_district": null,
        "city": "Trbovlje",
        "state": null,
        "postcode": "1420",
        "country": "Slovenia",
        "country_code": "si"
      },
      "address": "140, Globušak, Klek, Trbovlje, 1420, Slovenia"
    },
    {
      "lat": 46.14698610648152,
      "lon": 15.011203108662,
      "geoinfo": {
        "display_name": "Potoška vas, Orlek, Potoška vas, Zagorje ob Savi, 1410, Slovenia",
        "road": "Potoška vas",
        "house_number": null,
        "neighbourhood": null,
        "suburb": null,
        "city_district": null,
        "city": "Zagorje ob Savi",
        "state": null,
        "postcode": "1410",
        "country": "Slovenia",
        "country_code": "si"
      },
      "address": "997, Potoška vas, 1410 Trbovlje, Slovenia"
    },
    {
      "lat": 46.12405999288494,
      "lon": 15.0550661923931,
      "geoinfo": {
        "display_name": "108, Škofja Riža, Trbovlje, 1423, Slovenia",
        "road": "108",
        "house_number": null,
        "neighbourhood": null,
        "suburb": null,
        "city_district": null,
        "city": "Trbovlje",
        "state": null,
        "postcode": "1423",
        "country": "Slovenia",
        "country_code": "si"
      },
      "address": "108, Škofja Riža, Trbovlje, 1423, Slovenia"
    },
    {
      "lat": 46.151795083786,
      "lon": 15.045920860255354,
      "geoinfo": {
        "display_name": "Ulica 1. junija, Globušak, Klek, Trbovlje, 1420, Slovenia",
        "road": "Ulica 1. junija",
        "house_number": null,
        "neighbourhood": null,
        "suburb": null,
        "city_district": null,
        "city": "Trbovlje",
        "state": null,
        "postcode": "1420",
        "country": "Slovenia",
        "country_code": "si"
      },
      "address": "Ulica 1. junija, Globušak, Klek, Trbovlje, 1420, Slovenia"
    }
  ],
  "updated_at": "2025-10-19T07:01:04.408447+00:00",
  "_kind": "geo_samples"
}