{
  "country_code": "CF",
  "country": "Central African Republic",
  "city": "Alindao",
  "geonameid": 240999,
  "target_addresses": 4,
  "samples": [
    {
      "lat": 5.033757639885963,
      "lon": 21.195157093505927,
      "geoinfo": {
        "display_name": "way to Alindao Airport, Alindao, Basse-Kotto, Central African Republic",
        "road": "way to Alindao Airport",
        "house_number": null,
        "neighbourhood": null,
        "suburb": null,
        "city_district": null,
        "city": "Alindao",
        "state": "Basse-Kotto",
        "postcode": null,
        "country": "Central African Republic",
        "country_code": "cf"
      },
      "address": "way to Alindao Airport, Alindao, Basse-Kotto, Central African Republic"
    },
    {
      "lat": 5.052140111000582,
      "lon": 21.232150160789967,
      "geoinfo": {
        "display_name": "Alindao, Basse-Kotto, Central African Republic",
        "road": null,
        "house_number": null,
        "neighbourhood": null,
        "suburb": null,
        "city_district": null,
        "city": "Alindao",
        "state": "Basse-Kotto",
        "postcode": null,
        "country": "Central African Republic",
        "country_code": "cf"
      },
      "address": "Alindao, Basse-Kotto, Central African Republic"
    },
    {
      "lat": 5.053955873445692,
      "lon": 21.18842625162734,
      "geoinfo": {
        "display_name": "RN 2, Alindao, Basse-Kotto, Central African Republic",
        "road": "RN 2",
        "house_number": null,
        "neighbourhood": null,
        "suburb": null,
        "city_district": null,
        "city": "Alindao",
        "state": "Basse-Kotto",
        "postcode": null,
        "country": "Central African Republic",
        "country_code": "cf"
      },
      "address": "RN 2, Alindao, Basse-Kotto, Central African Republic"
    },
    {
      "lat": 5.064931823004763,
      "lon": 21.21951963595687,
      "geoinfo": {
        "display_name": "RR 22, Alindao, Basse-Kotto, Central African Republic",
        "road": "RR 22",
        "house_number": null,
        "neighbourhood": null,
        "suburb": null,
        "city_district": null,
        "city": "Alindao",
        "state": "Basse-Kotto",
        "postcode": null,
        "country": "Central African Republic",
        "country_code": "cf"
      },
      "address": "RR 22, Alindao, Basse-Kotto, Central African Republic"
    },
    {
      "lat": 5.023986008290103,
      "lon": 21.18464978511735,
      "geoinfo": {
        "display_name": "Alindao, Basse-Kotto, Central African Republic",
        "road": null,
        "house_number": null,
        "neighbourhood": null,
        "suburb": null,
        "city_district": null,
        "city": "Alindao",
        "state": "Basse-Kotto",
        "postcode": null,
        "country": "Central African Republic",
        "country_code": "cf"
      },
      "address": "710, Alindao, 85658 Basse-Kotto, Central African Republic"
    },
    {
      "lat": 5.04676176096319,
      "lon": 21.24367289547815,
      "geoinfo": {
        "display_name": "Alindao, Basse-Kotto, Central African Republic",
        "road": null,
        "house_number": null,
        "neighbourhood": null,
        "suburb": null,
        "city_district": null,
        "city": "Alindao",
        "state": "Basse-Kotto",
        "postcode": null,
        "country": "Central African Republic",
        "country_code": "cf"
      },
      "address": "151, Alindao, 36087 Basse-Kotto, Central African Republic"
    },
    {
      "lat": 5.0545296115341705,
      "lon": 21.179408412755468,
      "geoinfo": {
        "display_name": "Alindao, Basse-Kotto, Central African Republic",
        "road": null,
        "house_number": null,
        "neighbourhood": null,
        "suburb": null,
        "city_district": null,
        "city": "Alindao",
        "state": "Basse-Kotto",
        "postcode": null,
        "country": "Central African Republic",
        "country_code": "cf"
      },
      "address": "618, Alindao, 27320 Basse-Kotto, Central African Republic"
    },
    {
      "lat": 4.993899657769303,
      "lon": 21.224208383723724,
      "geoinfo": {
        "display_name": "Voula, Basse-Kotto, Central African Republic",
        "road": null,
        "house_number": null,
        "neighbourhood": null,
        "suburb": null,
        "city_district": null,
        "city": "Voula",
        "state": "Basse-Kotto",
        "postcode": null,
        "country": "Central African Republic",
        "country_code": "cf"
      },
      "address": "487, Alindao, 30614 Basse-Kotto, Central African Republic"
    }
  ],
  "updated_at": "2025-10-19T03:23:31.587350+00:00",
  "_kind": "geo_samples"
}