{
  "country_code": "CF",
  "country": "Central African Republic",
  "city": "Bangassou",
  "geonameid": 240498,
  "target_addresses": 4,
  "samples": [
    {
      "lat": 4.735204343965819,
      "lon": 22.852090671647012,
      "geoinfo": {
        "display_name": "Djagarou, Tokoyo, Mbomou, Central African Republic",
        "road": null,
        "house_number": null,
        "neighbourhood": null,
        "suburb": null,
        "city_district": null,
        "city": "Djagarou",
        "state": "Mbomou",
        "postcode": null,
        "country": "Central African Republic",
        "country_code": "cf"
      },
      "address": "Bangassou, Mbomou, Central African Republic"
    },
    {
      "lat": 4.738359470492711,
      "lon": 22.792022745685607,
      "geoinfo": {
        "display_name": "Chef Du Quartier Gologoto, RN 2, Quartier Bangui Ville, Dogrou, Maliko, Mbomou, Central African Republic",
        "road": "RN 2",
        "house_number": null,
        "neighbourhood": null,
        "suburb": null,
        "city_district": "Dogrou",
        "city": "Maliko",
        "state": "Mbomou",
        "postcode": null,
        "country": "Central African Republic",
        "country_code": "cf"
      },
      "address": "RN 2, Bangassou, Mbomou, Central African Republic"
    },
    {
      "lat": 4.772111616244627,
      "lon": 22.84549302392156,
      "geoinfo": {
        "display_name": "RN2, Quartier Bangui Ville, Madagrengbanda, Tokoyo, Mbomou, Central African Republic",
        "road": "RN2",
        "house_number": null,
        "neighbourhood": null,
        "suburb": null,
        "city_district": "Madagrengbanda",
        "city": "Tokoyo",
        "state": "Mbomou",
        "postcode": null,
        "country": "Central African Republic",
        "country_code": "cf"
      },
      "address": "RN2, Bangassou, Mbomou, Central African Republic"
    },
    {
      "lat": 4.729279392768762,
      "lon": 22.85006871110795,
      "geoinfo": {
        "display_name": "Djagarou, Tokoyo, Mbomou, Central African Republic",
        "road": null,
        "house_number": null,
        "neighbourhood": null,
        "suburb": null,
        "city_district": null,
        "city": "Djagarou",
        "state": "Mbomou",
        "postcode": null,
        "country": "Central African Republic",
        "country_code": "cf"
      },
      "address": "360, Bangassou, 82649 Mbomou, Central African Republic"
    },
    {
      "lat": 4.770815875910569,
      "lon": 22.809567169907023,
      "geoinfo": {
        "display_name": "RR 17, Quartier Bangui Ville, Ngbanda Gonga, Banguiville, Mbomou, Central African Republic",
        "road": "RR 17",
        "house_number": null,
        "neighbourhood": null,
        "suburb": null,
        "city_district": "Ngbanda Gonga",
        "city": "Banguiville",
        "state": "Mbomou",
        "postcode": null,
        "country": "Central African Republic",
        "country_code": "cf"
      },
      "address": "RR 17, Quartier Bangui Ville, Ngbanda Gonga, Banguiville, 00382 Mbomou, Central African Republic"
    },
    {
      "lat": 4.73667675623229,
      "lon": 22.807016183610116,
      "geoinfo": {
        "display_name": "Tresor De Bangassou, RN 2, Quartier Bangui Ville, Mboutou, Maliko, Mbomou, Central African Republic",
        "road": "RN 2",
        "house_number": null,
        "neighbourhood": null,
        "suburb": null,
        "city_district": "Mboutou",
        "city": "Maliko",
        "state": "Mbomou",
        "postcode": null,
        "country": "Central African Republic",
        "country_code": "cf"
      },
      "address": "RN 2, Bangassou, 20205 Mbomou, Central African Republic"
    }
  ],
  "updated_at": "2025-10-19T03:06:08.707420+00:00",
  "_kind": "geo_samples"
}