{
  "country_code": "CF",
  "country": "Central African Republic",
  "city": "Berbérati",
  "geonameid": 2389086,
  "target_addresses": 4,
  "samples": [
    {
      "lat": 4.258039843071816,
      "lon": 15.78798914845809,
      "geoinfo": {
        "display_name": "Babolo, Berbérati, Mambéré-Kadéï, Central African Republic",
        "road": null,
        "house_number": null,
        "neighbourhood": null,
        "suburb": "Babolo",
        "city_district": null,
        "city": "Berbérati",
        "state": "Mambéré-Kadéï",
        "postcode": null,
        "country": "Central African Republic",
        "country_code": "cf"
      },
      "address": "Babolo, Berbérati, Mambéré-Kadéï, Central African Republic"
    },
    {
      "lat": 4.258779431662932,
      "lon": 15.805930773114083,
      "geoinfo": {
        "display_name": "Logote, Berbérati, Mambéré-Kadéï, Central African Republic",
        "road": null,
        "house_number": null,
        "neighbourhood": null,
        "suburb": "Logote",
        "city_district": null,
        "city": "Berbérati",
        "state": "Mambéré-Kadéï",
        "postcode": null,
        "country": "Central African Republic",
        "country_code": "cf"
      },
      "address": "Logote, Berbérati, Mambéré-Kadéï, Central African Republic"
    },
    {
      "lat": 4.230173503574504,
      "lon": 15.806607843443807,
      "geoinfo": {
        "display_name": "Sangbanda, Berbérati, Mambéré-Kadéï, Central African Republic",
        "road": null,
        "house_number": null,
        "neighbourhood": null,
        "suburb": "Sangbanda",
        "city_district": null,
        "city": "Berbérati",
        "state": "Mambéré-Kadéï",
        "postcode": null,
        "country": "Central African Republic",
        "country_code": "cf"
      },
      "address": "Sangbanda, Berbérati, Mambéré-Kadéï, Central African Republic"
    },
    {
      "lat": 4.236513923096366,
      "lon": 15.762848219996243,
      "geoinfo": {
        "display_name": "RN 6, Kassai 2, Berbérati, Bellevue, Mambéré-Kadéï, Central African Republic",
        "road": "RN 6",
        "house_number": null,
        "neighbourhood": null,
        "suburb": "Kassai 2",
        "city_district": null,
        "city": "Berbérati",
        "state": "Mambéré-Kadéï",
        "postcode": null,
        "country": "Central African Republic",
        "country_code": "cf"
      },
      "address": "RN 6, Berbérati, Mambéré-Kadéï, Central African Republic"
    },
    {
      "lat": 4.300451643532924,
      "lon": 15.813060944006878,
      "geoinfo": {
        "display_name": "RN 6, Massina, Berbérati, Dabéré, Mambéré-Kadéï, Central African Republic",
        "road": "RN 6",
        "house_number": null,
        "neighbourhood": null,
        "suburb": null,
        "city_district": null,
        "city": "Berbérati",
        "state": "Mambéré-Kadéï",
        "postcode": null,
        "country": "Central African Republic",
        "country_code": "cf"
      },
      "address": "RN 6, Massina, Berbérati, Dabéré, 69047 Mambéré-Kadéï, Central African Republic"
    },
    {
      "lat": 4.297056375972653,
      "lon": 15.808001284190928,
      "geoinfo": {
        "display_name": "RN 6, Berbérati, Mambéré-Kadéï, Central African Republic",
        "road": "RN 6",
        "house_number": null,
        "neighbourhood": null,
        "suburb": null,
        "city_district": null,
        "city": "Berbérati",
        "state": "Mambéré-Kadéï",
        "postcode": null,
        "country": "Central African Republic",
        "country_code": "cf"
      },
      "address": "RN 6, Berbérati, 79595 Mambéré-Kadéï, Central African Republic"
    },
    {
      "lat": 4.260822691747827,
      "lon": 15.79032210099467,
      "geoinfo": {
        "display_name": "Babolo, Berbérati, Mambéré-Kadéï, Central African Republic",
        "road": null,
        "house_number": null,
        "neighbourhood": null,
        "suburb": "Babolo",
        "city_district": null,
        "city": "Berbérati",
        "state": "Mambéré-Kadéï",
        "postcode": null,
        "country": "Central African Republic",
        "country_code": "cf"
      },
      "address": "410, Babolo, Berbérati, 93334 Mambéré-Kadéï, Central African Republic"
    },
    {
      "lat": 4.253910940019376,
      "lon": 15.811796077793947,
      "geoinfo": {
        "display_name": "Cité-Geraard, Berbérati, Mambéré-Kadéï, Central African Republic",
        "road": null,
        "house_number": null,
        "neighbourhood": null,
        "suburb": "Cité-Geraard",
        "city_district": null,
        "city": "Berbérati",
        "state": "Mambéré-Kadéï",
        "postcode": null,
        "country": "Central African Republic",
        "country_code": "cf"
      },
      "address": "470, Cité-Geraard, Berbérati, 68358 Mambéré-Kadéï, Central African Republic"
    }
  ],
  "updated_at": "2025-10-19T03:10:23.073326+00:00",
  "_kind": "geo_samples"
}