{
  "country_code": "CF",
  "country": "Central African Republic",
  "city": "Bossembélé",
  "geonameid": 2388025,
  "target_addresses": 4,
  "samples": [
    {
      "lat": 5.258969178034203,
      "lon": 17.67635994222955,
      "geoinfo": {
        "display_name": "Yangoforo, Ombella-M'Poko, Central African Republic",
        "road": null,
        "house_number": null,
        "neighbourhood": null,
        "suburb": null,
        "city_district": null,
        "city": "Yangoforo",
        "state": "Ombella-M'Poko",
        "postcode": null,
        "country": "Central African Republic",
        "country_code": "cf"
      },
      "address": "Bossembélé, Ombella-M'Poko, Central African Republic"
    },
    {
      "lat": 5.287298895389595,
      "lon": 17.652579432646377,
      "geoinfo": {
        "display_name": "RN 1, Bossembélé, Ombella-M'Poko, Central African Republic",
        "road": "RN 1",
        "house_number": null,
        "neighbourhood": null,
        "suburb": null,
        "city_district": null,
        "city": "Bossembélé",
        "state": "Ombella-M'Poko",
        "postcode": null,
        "country": "Central African Republic",
        "country_code": "cf"
      },
      "address": "RN 1, Bossembélé, Ombella-M'Poko, Central African Republic"
    },
    {
      "lat": 5.275667432900296,
      "lon": 17.67514556988397,
      "geoinfo": {
        "display_name": "Bossembélé, Ombella-M'Poko, Central African Republic",
        "road": null,
        "house_number": null,
        "neighbourhood": null,
        "suburb": null,
        "city_district": null,
        "city": "Bossembélé",
        "state": "Ombella-M'Poko",
        "postcode": null,
        "country": "Central African Republic",
        "country_code": "cf"
      },
      "address": "087, Bossembélé, 73483 Ombella-M'Poko, Central African Republic"
    },
    {
      "lat": 5.307631180228735,
      "lon": 17.643506629568794,
      "geoinfo": {
        "display_name": "RN 1, Bogbaza, Bossembélé, Ombella-M'Poko, Central African Republic",
        "road": "RN 1",
        "house_number": null,
        "neighbourhood": null,
        "suburb": null,
        "city_district": null,
        "city": "Bossembélé",
        "state": "Ombella-M'Poko",
        "postcode": null,
        "country": "Central African Republic",
        "country_code": "cf"
      },
      "address": "RN 1, Bogbaza, Bossembélé, 86422 Ombella-M'Poko, Central African Republic"
    },
    {
      "lat": 5.271525948229057,
      "lon": 17.689133942467123,
      "geoinfo": {
        "display_name": "Yangoforo, Ombella-M'Poko, Central African Republic",
        "road": null,
        "house_number": null,
        "neighbourhood": null,
        "suburb": null,
        "city_district": null,
        "city": "Yangoforo",
        "state": "Ombella-M'Poko",
        "postcode": null,
        "country": "Central African Republic",
        "country_code": "cf"
      },
      "address": "699, Bossembélé, 58299 Ombella-M'Poko, Central African Republic"
    },
    {
      "lat": 5.270458197089872,
      "lon": 17.676932235468865,
      "geoinfo": {
        "display_name": "Bossembélé, Ombella-M'Poko, Central African Republic",
        "road": null,
        "house_number": null,
        "neighbourhood": null,
        "suburb": null,
        "city_district": null,
        "city": "Bossembélé",
        "state": "Ombella-M'Poko",
        "postcode": null,
        "country": "Central African Republic",
        "country_code": "cf"
      },
      "address": "340, Bossembélé, 37074 Ombella-M'Poko, Central African Republic"
    }
  ],
  "updated_at": "2025-10-19T03:06:13.412369+00:00",
  "_kind": "geo_samples"
}