{
  "country_code": "CF",
  "country": "Central African Republic",
  "city": "Bria",
  "geonameid": 239899,
  "target_addresses": 4,
  "samples": [
    {
      "lat": 6.543849984585875,
      "lon": 22.016040144191095,
      "geoinfo": {
        "display_name": "Ouata 1, Haute-Kotto, Central African Republic",
        "road": null,
        "house_number": null,
        "neighbourhood": null,
        "suburb": null,
        "city_district": null,
        "city": "Ouata 1",
        "state": "Haute-Kotto",
        "postcode": null,
        "country": "Central African Republic",
        "country_code": "cf"
      },
      "address": "Bria, Haute-Kotto, Central African Republic"
    },
    {
      "lat": 6.540396200953819,
      "lon": 22.010497805524714,
      "geoinfo": {
        "display_name": "RR 16, Passoro, Graho 3, Haute-Kotto, Central African Republic",
        "road": "RR 16",
        "house_number": null,
        "neighbourhood": null,
        "suburb": null,
        "city_district": null,
        "city": "Graho 3",
        "state": "Haute-Kotto",
        "postcode": null,
        "country": "Central African Republic",
        "country_code": "cf"
      },
      "address": "RR 16, Bria, Haute-Kotto, Central African Republic"
    },
    {
      "lat": 6.501511714470645,
      "lon": 21.99207641265522,
      "geoinfo": {
        "display_name": "RR 18, Gbareu, Haute-Kotto, Central African Republic",
        "road": "RR 18",
        "house_number": null,
        "neighbourhood": null,
        "suburb": null,
        "city_district": null,
        "city": "Gbareu",
        "state": "Haute-Kotto",
        "postcode": null,
        "country": "Central African Republic",
        "country_code": "cf"
      },
      "address": "RR 18, Bria, Haute-Kotto, Central African Republic"
    },
    {
      "lat": 6.563732444740375,
      "lon": 21.97223529193634,
      "geoinfo": {
        "display_name": "Track, Bria, Haute-Kotto, Central African Republic",
        "road": "Track",
        "house_number": null,
        "neighbourhood": null,
        "suburb": null,
        "city_district": null,
        "city": "Bria",
        "state": "Haute-Kotto",
        "postcode": null,
        "country": "Central African Republic",
        "country_code": "cf"
      },
      "address": "Track, Bria, Haute-Kotto, Central African Republic"
    },
    {
      "lat": 6.530687558737256,
      "lon": 22.02876330095622,
      "geoinfo": {
        "display_name": "RR 16, Passoro, Graho 3, Haute-Kotto, Central African Republic",
        "road": "RR 16",
        "house_number": null,
        "neighbourhood": null,
        "suburb": null,
        "city_district": null,
        "city": "Graho 3",
        "state": "Haute-Kotto",
        "postcode": null,
        "country": "Central African Republic",
        "country_code": "cf"
      },
      "address": "RR 16, Bria, 81044 Haute-Kotto, Central African Republic"
    },
    {
      "lat": 6.569954371628768,
      "lon": 21.950807134023023,
      "geoinfo": {
        "display_name": "Bria, Haute-Kotto, Central African Republic",
        "road": null,
        "house_number": null,
        "neighbourhood": null,
        "suburb": null,
        "city_district": null,
        "city": "Bria",
        "state": "Haute-Kotto",
        "postcode": null,
        "country": "Central African Republic",
        "country_code": "cf"
      },
      "address": "324, Bria, 97833 Haute-Kotto, Central African Republic"
    },
    {
      "lat": 6.513745353997706,
      "lon": 21.967992088260253,
      "geoinfo": {
        "display_name": "Bria, Haute-Kotto, Central African Republic",
        "road": null,
        "house_number": null,
        "neighbourhood": null,
        "suburb": null,
        "city_district": null,
        "city": "Bria",
        "state": "Haute-Kotto",
        "postcode": null,
        "country": "Central African Republic",
        "country_code": "cf"
      },
      "address": "598, Bria, 23384 Haute-Kotto, Central African Republic"
    },
    {
      "lat": 6.548258733286069,
      "lon": 22.025946707386797,
      "geoinfo": {
        "display_name": "Ouata 1, Haute-Kotto, Central African Republic",
        "road": null,
        "house_number": null,
        "neighbourhood": null,
        "suburb": null,
        "city_district": null,
        "city": "Ouata 1",
        "state": "Haute-Kotto",
        "postcode": null,
        "country": "Central African Republic",
        "country_code": "cf"
      },
      "address": "425, Bria, 93832 Haute-Kotto, Central African Republic"
    }
  ],
  "updated_at": "2025-10-19T03:23:17.238540+00:00",
  "_kind": "geo_samples"
}