{
  "country_code": "CF",
  "country": "Central African Republic",
  "city": "Zemio",
  "geonameid": 235826,
  "target_addresses": 4,
  "samples": [
    {
      "lat": 5.017819958678506,
      "lon": 25.104935432148384,
      "geoinfo": {
        "display_name": "Site Réfugiés Congalais, Zemio, Haut-Mbomou, Central African Republic",
        "road": null,
        "house_number": null,
        "neighbourhood": null,
        "suburb": null,
        "city_district": null,
        "city": "Zemio",
        "state": "Haut-Mbomou",
        "postcode": null,
        "country": "Central African Republic",
        "country_code": "cf"
      },
      "address": "Zemio, Haut-Mbomou, Central African Republic"
    },
    {
      "lat": 5.0292839530029,
      "lon": 25.137021140474292,
      "geoinfo": {
        "display_name": "RN 2, Bangui MPoko, Zemio, Haut-Mbomou, Central African Republic",
        "road": "RN 2",
        "house_number": null,
        "neighbourhood": null,
        "suburb": null,
        "city_district": null,
        "city": "Zemio",
        "state": "Haut-Mbomou",
        "postcode": null,
        "country": "Central African Republic",
        "country_code": "cf"
      },
      "address": "RN 2, Zemio, Haut-Mbomou, Central African Republic"
    },
    {
      "lat": 4.995980771576656,
      "lon": 25.113990794553988,
      "geoinfo": {
        "display_name": "CEEC, Mboufo, Haut-Mbomou, Central African Republic",
        "road": null,
        "house_number": null,
        "neighbourhood": null,
        "suburb": null,
        "city_district": null,
        "city": "Mboufo",
        "state": "Haut-Mbomou",
        "postcode": null,
        "country": "Central African Republic",
        "country_code": "cf"
      },
      "address": "044, Zemio, 89553 Haut-Mbomou, Central African Republic"
    },
    {
      "lat": 5.016454160449809,
      "lon": 25.170464856642486,
      "geoinfo": {
        "display_name": "Bandakpa, Haut-Mbomou, Central African Republic",
        "road": null,
        "house_number": null,
        "neighbourhood": null,
        "suburb": null,
        "city_district": null,
        "city": "Bandakpa",
        "state": "Haut-Mbomou",
        "postcode": null,
        "country": "Central African Republic",
        "country_code": "cf"
      },
      "address": "297, Zemio, 27836 Haut-Mbomou, Central African Republic"
    },
    {
      "lat": 5.03127471729651,
      "lon": 25.13219845796125,
      "geoinfo": {
        "display_name": "JUPEDEC, RN 2, Bangui MPoko, Zemio, Haut-Mbomou, Central African Republic",
        "road": "RN 2",
        "house_number": null,
        "neighbourhood": null,
        "suburb": null,
        "city_district": null,
        "city": "Zemio",
        "state": "Haut-Mbomou",
        "postcode": null,
        "country": "Central African Republic",
        "country_code": "cf"
      },
      "address": "RN 2, Zemio, 10632 Haut-Mbomou, Central African Republic"
    },
    {
      "lat": 5.047717494080144,
      "lon": 25.14979422993084,
      "geoinfo": {
        "display_name": "RN 2, Aregue, Kounboli, Haut-Mbomou, Central African Republic",
        "road": "RN 2",
        "house_number": null,
        "neighbourhood": null,
        "suburb": null,
        "city_district": null,
        "city": "Kounboli",
        "state": "Haut-Mbomou",
        "postcode": null,
        "country": "Central African Republic",
        "country_code": "cf"
      },
      "address": "RN 2, Zemio, 34475 Haut-Mbomou, Central African Republic"
    }
  ],
  "updated_at": "2025-10-19T03:09:12.784805+00:00",
  "_kind": "geo_samples"
}