{
  "country_code": "NF",
  "country": "Norfolk Island",
  "city": "Kingston",
  "geonameid": 2161314,
  "target_addresses": 100,
  "samples": [
    {
      "lat": -29.075179405233197,
      "lon": 167.9384150591544,
      "geoinfo": {
        "display_name": "Point Ross, Norfolk Island, 2899, Australia",
        "road": null,
        "house_number": null,
        "neighbourhood": null,
        "suburb": null,
        "city_district": "Norfolk Island",
        "city": null,
        "state": null,
        "postcode": "2899",
        "country": "Australia",
        "country_code": "au"
      },
      "address": "Norfolk Island, Kingston, Norfolk Island"
    },
    {
      "lat": -29.08180510911662,
      "lon": 167.99527890652283,
      "geoinfo": {
        "display_name": "Burnt Pine, Norfolk Island, 2899, Australia",
        "road": null,
        "house_number": null,
        "neighbourhood": null,
        "suburb": null,
        "city_district": null,
        "city": "Burnt Pine",
        "state": null,
        "postcode": "2899",
        "country": "Australia",
        "country_code": "au"
      },
      "address": "Kingston, Norfolk Island"
    },
    {
      "lat": -29.035982587250064,
      "lon": 167.9407331212119,
      "geoinfo": {
        "display_name": "Ben Christian Drive, Norfolk Island, Burnt Pine, Norfolk Island, 2899, Australia",
        "road": "Ben Christian Drive",
        "house_number": null,
        "neighbourhood": null,
        "suburb": null,
        "city_district": "Norfolk Island",
        "city": "Burnt Pine",
        "state": null,
        "postcode": "2899",
        "country": "Australia",
        "country_code": "au"
      },
      "address": "Ben Christian Drive, Kingston, Norfolk Island"
    },
    {
      "lat": -29.063105964284713,
      "lon": 167.9385676748969,
      "geoinfo": {
        "display_name": "Rocky Point Road, Norfolk Island, Burnt Pine, Norfolk Island, 2899, Australia",
        "road": "Rocky Point Road",
        "house_number": null,
        "neighbourhood": null,
        "suburb": null,
        "city_district": "Norfolk Island",
        "city": "Burnt Pine",
        "state": null,
        "postcode": "2899",
        "country": "Australia",
        "country_code": "au"
      },
      "address": "Rocky Point Road, Kingston, Norfolk Island"
    },
    {
      "lat": -29.02480226311896,
      "lon": 167.97944835132049,
      "geoinfo": {
        "display_name": "Forrester Court Clifftop Cottages, 59I, Matts Ground Road, Norfolk Island, Burnt Pine, Norfolk Island, 2899, Australia",
        "road": "Matts Ground Road",
        "house_number": "59I",
        "neighbourhood": null,
        "suburb": null,
        "city_district": "Norfolk Island",
        "city": "Burnt Pine",
        "state": null,
        "postcode": "2899",
        "country": "Australia",
        "country_code": "au"
      },
      "address": "59I Matts Ground Road, Kingston, Norfolk Island"
    },
    {
      "lat": -29.04399471902133,
      "lon": 167.9372588438721,
      "geoinfo": {
        "display_name": "Norfolk Island Airport, Calebs Lane, Norfolk Island, Burnt Pine, Norfolk Island, 2899, Australia",
        "road": "Calebs Lane",
        "house_number": null,
        "neighbourhood": null,
        "suburb": null,
        "city_district": "Norfolk Island",
        "city": "Burnt Pine",
        "state": null,
        "postcode": "2899",
        "country": "Australia",
        "country_code": "au"
      },
      "address": "Calebs Lane, Kingston, Norfolk Island"
    },
    {
      "lat": -29.05896478798672,
      "lon": 167.9532256397992,
      "geoinfo": {
        "display_name": "Kingston Pier, Kingston, Norfolk Island, 2899, Australia",
        "road": "Kingston Pier",
        "house_number": null,
        "neighbourhood": null,
        "suburb": null,
        "city_district": "Norfolk Island",
        "city": null,
        "state": null,
        "postcode": "2899",
        "country": "Australia",
        "country_code": "au"
      },
      "address": "Kingston Pier, Kingston, Norfolk Island"
    },
    {
      "lat": -29.044933035843545,
      "lon": 167.92007119084155,
      "geoinfo": {
        "display_name": "New Farm Road, Norfolk Island, Burnt Pine, Norfolk Island, 2899, Australia",
        "road": "New Farm Road",
        "house_number": null,
        "neighbourhood": null,
        "suburb": null,
        "city_district": "Norfolk Island",
        "city": "Burnt Pine",
        "state": null,
        "postcode": "2899",
        "country": "Australia",
        "country_code": "au"
      },
      "address": "New Farm Road, Kingston, Norfolk Island"
    },
    {
      "lat": -29.027537271223434,
      "lon": 167.96665653083815,
      "geoinfo": {
        "display_name": "Oceanview Apartments, New Cascade Road, Norfolk Island, Burnt Pine, Norfolk Island, 2899, Australia",
        "road": "New Cascade Road",
        "house_number": null,
        "neighbourhood": null,
        "suburb": null,
        "city_district": "Norfolk Island",
        "city": "Burnt Pine",
        "state": null,
        "postcode": "2899",
        "country": "Australia",
        "country_code": "au"
      },
      "address": "New Cascade Road, Kingston, Norfolk Island"
    },
    {
      "lat": -29.041189386591626,
      "lon": 167.9916326051698,
      "geoinfo": {
        "display_name": "Two Chimneys Road, Norfolk Island, 2899, Australia",
        "road": "Two Chimneys Road",
        "house_number": null,
        "neighbourhood": null,
        "suburb": null,
        "city_district": "Norfolk Island",
        "city": null,
        "state": null,
        "postcode": "2899",
        "country": "Australia",
        "country_code": "au"
      },
      "address": "Two Chimneys Road, Kingston, Norfolk Island"
    },
    {
      "lat": -29.064205532941706,
      "lon": 167.96294461153892,
      "geoinfo": {
        "display_name": "Bay Street, Kingston, Norfolk Island, 2899, Australia",
        "road": "Bay Street",
        "house_number": null,
        "neighbourhood": null,
        "suburb": null,
        "city_district": "Norfolk Island",
        "city": null,
        "state": null,
        "postcode": "2899",
        "country": "Australia",
        "country_code": "au"
      },
      "address": "Bay Street, Kingston, Norfolk Island"
    },
    {
      "lat": -29.01682816581826,
      "lon": 167.97551924763565,
      "geoinfo": {
        "display_name": "Cascade Pier, Cascade Road, Norfolk Island, Burnt Pine, Norfolk Island, 2899, Australia",
        "road": "Cascade Road",
        "house_number": null,
        "neighbourhood": null,
        "suburb": null,
        "city_district": "Norfolk Island",
        "city": "Burnt Pine",
        "state": null,
        "postcode": "2899",
        "country": "Australia",
        "country_code": "au"
      },
      "address": "Cascade Road, Kingston, Norfolk Island"
    },
    {
      "lat": -29.04673135859915,
      "lon": 167.9602842572337,
      "geoinfo": {
        "display_name": "Middlegate Road, Kingston, Norfolk Island, Burnt Pine, Norfolk Island, 2899, Australia",
        "road": "Middlegate Road",
        "house_number": null,
        "neighbourhood": null,
        "suburb": null,
        "city_district": "Norfolk Island",
        "city": "Burnt Pine",
        "state": null,
        "postcode": "2899",
        "country": "Australia",
        "country_code": "au"
      },
      "address": "Middlegate Road, Kingston, Norfolk Island"
    },
    {
      "lat": -29.03536364837446,
      "lon": 167.96793639678182,
      "geoinfo": {
        "display_name": "Webb Adams Road, Norfolk Island, Burnt Pine, Norfolk Island, 2899, Australia",
        "road": "Webb Adams Road",
        "house_number": null,
        "neighbourhood": null,
        "suburb": null,
        "city_district": "Norfolk Island",
        "city": "Burnt Pine",
        "state": null,
        "postcode": "2899",
        "country": "Australia",
        "country_code": "au"
      },
      "address": "Webb Adams Road, Kingston, Norfolk Island"
    },
    {
      "lat": -29.038394998530038,
      "lon": 167.95591459376254,
      "geoinfo": {
        "display_name": "Norfolk Island Business Solutions, 115B, Taylors Road, Norfolk Island, Burnt Pine, Norfolk Island, 2899, Australia",
        "road": "Taylors Road",
        "house_number": "115B",
        "neighbourhood": null,
        "suburb": null,
        "city_district": "Norfolk Island",
        "city": "Burnt Pine",
        "state": null,
        "postcode": "2899",
        "country": "Australia",
        "country_code": "au"
      },
      "address": "115B Taylors Road, Kingston, Norfolk Island"
    },
    {
      "lat": -29.044981694048946,
      "lon": 167.98593554629932,
      "geoinfo": {
        "display_name": "Martins Road, Norfolk Island, 2899, Australia",
        "road": "Martins Road",
        "house_number": null,
        "neighbourhood": null,
        "suburb": null,
        "city_district": "Norfolk Island",
        "city": null,
        "state": null,
        "postcode": "2899",
        "country": "Australia",
        "country_code": "au"
      },
      "address": "Martins Road, Kingston, Norfolk Island"
    },
    {
      "lat": -29.055537320608323,
      "lon": 167.9649185130317,
      "geoinfo": {
        "display_name": "2, Quality Row, Kingston, Norfolk Island, Burnt Pine, Norfolk Island, 2899, Australia",
        "road": "Quality Row",
        "house_number": "2",
        "neighbourhood": null,
        "suburb": null,
        "city_district": "Norfolk Island",
        "city": "Burnt Pine",
        "state": null,
        "postcode": "2899",
        "country": "Australia",
        "country_code": "au"
      },
      "address": "2 Quality Row, Kingston, Norfolk Island"
    },
    {
      "lat": -29.034254798400713,
      "lon": 167.93912741575383,
      "geoinfo": {
        "display_name": "Ross Vale, Douglas Drive, Norfolk Island, Burnt Pine, Norfolk Island, 2899, Australia",
        "road": "Douglas Drive",
        "house_number": null,
        "neighbourhood": null,
        "suburb": null,
        "city_district": "Norfolk Island",
        "city": "Burnt Pine",
        "state": null,
        "postcode": "2899",
        "country": "Australia",
        "country_code": "au"
      },
      "address": "Douglas Drive, Kingston, Norfolk Island"
    },
    {
      "lat": -29.019771048000592,
      "lon": 167.98356703638947,
      "geoinfo": {
        "display_name": "Petrels Perch, 59J, Matts Ground Road, Norfolk Island, Burnt Pine, Norfolk Island, 2899, Australia",
        "road": "Matts Ground Road",
        "house_number": "59J",
        "neighbourhood": null,
        "suburb": null,
        "city_district": "Norfolk Island",
        "city": "Burnt Pine",
        "state": null,
        "postcode": "2899",
        "country": "Australia",
        "country_code": "au"
      },
      "address": "59J Matts Ground Road, Kingston, Norfolk Island"
    },
    {
      "lat": -29.041209618355836,
      "lon": 167.92700855601078,
      "geoinfo": {
        "display_name": "Headstone Road, Norfolk Island, Burnt Pine, Norfolk Island, 2899, Australia",
        "road": "Headstone Road",
        "house_number": null,
        "neighbourhood": null,
        "suburb": null,
        "city_district": "Norfolk Island",
        "city": "Burnt Pine",
        "state": null,
        "postcode": "2899",
        "country": "Australia",
        "country_code": "au"
      },
      "address": "Headstone Road, Kingston, Norfolk Island"
    },
    {
      "lat": -29.032270989902468,
      "lon": 167.9459467351703,
      "geoinfo": {
        "display_name": "See World of Cars, Ferny Lane, Norfolk Island, Burnt Pine, Norfolk Island, 2899, Australia",
        "road": "Ferny Lane",
        "house_number": null,
        "neighbourhood": null,
        "suburb": null,
        "city_district": "Norfolk Island",
        "city": "Burnt Pine",
        "state": null,
        "postcode": "2899",
        "country": "Australia",
        "country_code": "au"
      },
      "address": "Ferny Lane, Kingston, Norfolk Island"
    },
    {
      "lat": -29.022437608110717,
      "lon": 167.94323547449238,
      "geoinfo": {
        "display_name": "Whispering Pines, 80, Grassy Road, Norfolk Island, Burnt Pine, Norfolk Island, 2899, Australia",
        "road": "Grassy Road",
        "house_number": "80",
        "neighbourhood": null,
        "suburb": null,
        "city_district": "Norfolk Island",
        "city": "Burnt Pine",
        "state": null,
        "postcode": "2899",
        "country": "Australia",
        "country_code": "au"
      },
      "address": "80 Grassy Road, Kingston, Norfolk Island"
    },
    {
      "lat": -29.05106048499548,
      "lon": 167.9512279096027,
      "geoinfo": {
        "display_name": "Country Road, Kingston, Norfolk Island, Burnt Pine, Norfolk Island, 2899, Australia",
        "road": "Country Road",
        "house_number": null,
        "neighbourhood": null,
        "suburb": null,
        "city_district": "Norfolk Island",
        "city": "Burnt Pine",
        "state": null,
        "postcode": "2899",
        "country": "Australia",
        "country_code": "au"
      },
      "address": "Country Road, Kingston, Norfolk Island"
    },
    {
      "lat": -29.055538575593037,
      "lon": 167.94944672222778,
      "geoinfo": {
        "display_name": "Flagstaff Hill Walkway, Kingston, Norfolk Island, Burnt Pine, Norfolk Island, 2899, Australia",
        "road": "Flagstaff Hill Walkway",
        "house_number": null,
        "neighbourhood": null,
        "suburb": null,
        "city_district": "Norfolk Island",
        "city": "Burnt Pine",
        "state": null,
        "postcode": "2899",
        "country": "Australia",
        "country_code": "au"
      },
      "address": "Flagstaff Hill Walkway, Kingston, Norfolk Island"
    },
    {
      "lat": -29.05778698338646,
      "lon": 167.97106591330865,
      "geoinfo": {
        "display_name": "Quality Row, Kingston, Norfolk Island, Burnt Pine, Norfolk Island, 2899, Australia",
        "road": "Quality Row",
        "house_number": null,
        "neighbourhood": null,
        "suburb": null,
        "city_district": "Norfolk Island",
        "city": "Burnt Pine",
        "state": null,
        "postcode": "2899",
        "country": "Australia",
        "country_code": "au"
      },
      "address": "Quality Row, Kingston, Norfolk Island"
    },
    {
      "lat": -29.034272626932353,
      "lon": 167.96240676029691,
      "geoinfo": {
        "display_name": "Hemus Road, Norfolk Island, Burnt Pine, Norfolk Island, 2899, Australia",
        "road": "Hemus Road",
        "house_number": null,
        "neighbourhood": null,
        "suburb": null,
        "city_district": "Norfolk Island",
        "city": "Burnt Pine",
        "state": null,
        "postcode": "2899",
        "country": "Australia",
        "country_code": "au"
      },
      "address": "Hemus Road, Kingston, Norfolk Island"
    },
    {
      "lat": -29.062406790509236,
      "lon": 167.96628060170468,
      "geoinfo": {
        "display_name": "Norfolk Island Golf Club, 1, Quality Row, Kingston, Norfolk Island, Burnt Pine, Norfolk Island, 2899, Australia",
        "road": "Quality Row",
        "house_number": "1",
        "neighbourhood": null,
        "suburb": null,
        "city_district": "Norfolk Island",
        "city": "Burnt Pine",
        "state": null,
        "postcode": "2899",
        "country": "Australia",
        "country_code": "au"
      },
      "address": "1 Quality Row, Kingston, Norfolk Island"
    },
    {
      "lat": -29.056448666759422,
      "lon": 167.92664532247923,
      "geoinfo": {
        "display_name": "Rocky Point Lodge, 215, New Farm Road, Norfolk Island, Burnt Pine, Norfolk Island, 2899, Australia",
        "road": "New Farm Road",
        "house_number": "215",
        "neighbourhood": null,
        "suburb": null,
        "city_district": "Norfolk Island",
        "city": "Burnt Pine",
        "state": null,
        "postcode": "2899",
        "country": "Australia",
        "country_code": "au"
      },
      "address": "215 New Farm Road, Kingston, Norfolk Island"
    },
    {
      "lat": -29.03564421122495,
      "lon": 167.9496999383244,
      "geoinfo": {
        "display_name": "Burnt Pine Boutique Apartments, 36, Taylors Road, Norfolk Island, Burnt Pine, Norfolk Island, 2899, Australia",
        "road": "Taylors Road",
        "house_number": "36",
        "neighbourhood": null,
        "suburb": null,
        "city_district": "Norfolk Island",
        "city": "Burnt Pine",
        "state": null,
        "postcode": "2899",
        "country": "Australia",
        "country_code": "au"
      },
      "address": "36 Taylors Road, Kingston, Norfolk Island"
    },
    {
      "lat": -29.05402073470987,
      "lon": 167.96565273194412,
      "geoinfo": {
        "display_name": "Rooty Hill Road, Kingston, Norfolk Island, Burnt Pine, Norfolk Island, 2899, Australia",
        "road": "Rooty Hill Road",
        "house_number": null,
        "neighbourhood": null,
        "suburb": null,
        "city_district": "Norfolk Island",
        "city": "Burnt Pine",
        "state": null,
        "postcode": "2899",
        "country": "Australia",
        "country_code": "au"
      },
      "address": "Rooty Hill Road, Kingston, Norfolk Island"
    },
    {
      "lat": -29.040594658083972,
      "lon": 167.930851575509,
      "geoinfo": {
        "display_name": "3, Douglas Drive, Norfolk Island, Burnt Pine, Norfolk Island, 2899, Australia",
        "road": "Douglas Drive",
        "house_number": "3",
        "neighbourhood": null,
        "suburb": null,
        "city_district": "Norfolk Island",
        "city": "Burnt Pine",
        "state": null,
        "postcode": "2899",
        "country": "Australia",
        "country_code": "au"
      },
      "address": "3 Douglas Drive, Kingston, Norfolk Island"
    },
    {
      "lat": -29.017824173081326,
      "lon": 167.9530630561423,
      "geoinfo": {
        "display_name": "J. E. Road, Norfolk Island, Burnt Pine, Norfolk Island, 2899, Australia",
        "road": "J. E. Road",
        "house_number": null,
        "neighbourhood": null,
        "suburb": null,
        "city_district": "Norfolk Island",
        "city": "Burnt Pine",
        "state": null,
        "postcode": "2899",
        "country": "Australia",
        "country_code": "au"
      },
      "address": "J. E. Road, Kingston, Norfolk Island"
    },
    {
      "lat": -29.032156862193016,
      "lon": 167.94212023639435,
      "geoinfo": {
        "display_name": "George Hunn Nobbs Road, Norfolk Island, Burnt Pine, Norfolk Island, 2899, Australia",
        "road": "George Hunn Nobbs Road",
        "house_number": null,
        "neighbourhood": null,
        "suburb": null,
        "city_district": "Norfolk Island",
        "city": "Burnt Pine",
        "state": null,
        "postcode": "2899",
        "country": "Australia",
        "country_code": "au"
      },
      "address": "George Hunn Nobbs Road, Kingston, Norfolk Island"
    },
    {
      "lat": -29.049170806259085,
      "lon": 167.94434826409162,
      "geoinfo": {
        "display_name": "Seldom Inn, Longridge Road, Norfolk Island, Burnt Pine, Norfolk Island, 2899, Australia",
        "road": "Longridge Road",
        "house_number": null,
        "neighbourhood": null,
        "suburb": null,
        "city_district": "Norfolk Island",
        "city": "Burnt Pine",
        "state": null,
        "postcode": "2899",
        "country": "Australia",
        "country_code": "au"
      },
      "address": "Longridge Road, Kingston, Norfolk Island"
    },
    {
      "lat": -29.04462801118446,
      "lon": 167.92526312692792,
      "geoinfo": {
        "display_name": "274, New Farm Road, Norfolk Island, Burnt Pine, Norfolk Island, 2899, Australia",
        "road": "New Farm Road",
        "house_number": "274",
        "neighbourhood": null,
        "suburb": null,
        "city_district": "Norfolk Island",
        "city": "Burnt Pine",
        "state": null,
        "postcode": "2899",
        "country": "Australia",
        "country_code": "au"
      },
      "address": "274 New Farm Road, Kingston, Norfolk Island"
    },
    {
      "lat": -29.035711324728076,
      "lon": 167.97778405448443,
      "geoinfo": {
        "display_name": "Ephraim Christian Road, Norfolk Island, Burnt Pine, Norfolk Island, 2899, Australia",
        "road": "Ephraim Christian Road",
        "house_number": null,
        "neighbourhood": null,
        "suburb": null,
        "city_district": "Norfolk Island",
        "city": "Burnt Pine",
        "state": null,
        "postcode": "2899",
        "country": "Australia",
        "country_code": "au"
      },
      "address": "Ephraim Christian Road, Kingston, Norfolk Island"
    },
    {
      "lat": -29.04580019732587,
      "lon": 167.9312210741455,
      "geoinfo": {
        "display_name": "Captain Quintal Drive, Norfolk Island, Burnt Pine, Norfolk Island, 2899, Australia",
        "road": "Captain Quintal Drive",
        "house_number": null,
        "neighbourhood": null,
        "suburb": null,
        "city_district": "Norfolk Island",
        "city": "Burnt Pine",
        "state": null,
        "postcode": "2899",
        "country": "Australia",
        "country_code": "au"
      },
      "address": "Captain Quintal Drive, Kingston, Norfolk Island"
    },
    {
      "lat": -29.044931941152573,
      "lon": 167.95540130764198,
      "geoinfo": {
        "display_name": "Tolpiddle, Taylors Road, Norfolk Island, Burnt Pine, Norfolk Island, 2899, Australia",
        "road": "Taylors Road",
        "house_number": null,
        "neighbourhood": null,
        "suburb": null,
        "city_district": "Norfolk Island",
        "city": "Burnt Pine",
        "state": null,
        "postcode": "2899",
        "country": "Australia",
        "country_code": "au"
      },
      "address": "Taylors Road, Kingston, Norfolk Island"
    },
    {
      "lat": -29.044163104208362,
      "lon": 167.9561060135309,
      "geoinfo": {
        "display_name": "Seaview Hotel and Cottages, 159, Taylors Road, Norfolk Island, Burnt Pine, Norfolk Island, 2899, Australia",
        "road": "Taylors Road",
        "house_number": "159",
        "neighbourhood": null,
        "suburb": null,
        "city_district": "Norfolk Island",
        "city": "Burnt Pine",
        "state": null,
        "postcode": "2899",
        "country": "Australia",
        "country_code": "au"
      },
      "address": "159 Taylors Road, Kingston, Norfolk Island"
    },
    {
      "lat": -29.029646051393417,
      "lon": 167.96041792270594,
      "geoinfo": {
        "display_name": "Hibiscus Regal Apartments, 94, New Cascade Road, Norfolk Island, Burnt Pine, Norfolk Island, 2899, Australia",
        "road": "New Cascade Road",
        "house_number": "94",
        "neighbourhood": null,
        "suburb": null,
        "city_district": "Norfolk Island",
        "city": "Burnt Pine",
        "state": null,
        "postcode": "2899",
        "country": "Australia",
        "country_code": "au"
      },
      "address": "94 New Cascade Road, Kingston, Norfolk Island"
    },
    {
      "lat": -29.05219391199815,
      "lon": 167.93066124691182,
      "geoinfo": {
        "display_name": "Cobby Robinson Road, Norfolk Island, Burnt Pine, Norfolk Island, 2899, Australia",
        "road": "Cobby Robinson Road",
        "house_number": null,
        "neighbourhood": null,
        "suburb": null,
        "city_district": "Norfolk Island",
        "city": "Burnt Pine",
        "state": null,
        "postcode": "2899",
        "country": "Australia",
        "country_code": "au"
      },
      "address": "Cobby Robinson Road, Kingston, Norfolk Island"
    },
    {
      "lat": -29.028123946855324,
      "lon": 167.94738354600028,
      "geoinfo": {
        "display_name": "Daydreamer Apartments, 301, Grassy Road, Norfolk Island, Burnt Pine, Norfolk Island, 2899, Australia",
        "road": "Grassy Road",
        "house_number": "301",
        "neighbourhood": null,
        "suburb": null,
        "city_district": "Norfolk Island",
        "city": "Burnt Pine",
        "state": null,
        "postcode": "2899",
        "country": "Australia",
        "country_code": "au"
      },
      "address": "301 Grassy Road, Kingston, Norfolk Island"
    },
    {
      "lat": -29.026993815962562,
      "lon": 167.94353102089366,
      "geoinfo": {
        "display_name": "Grassy Road, Norfolk Island, Burnt Pine, Norfolk Island, 2899, Australia",
        "road": "Grassy Road",
        "house_number": null,
        "neighbourhood": null,
        "suburb": null,
        "city_district": "Norfolk Island",
        "city": "Burnt Pine",
        "state": null,
        "postcode": "2899",
        "country": "Australia",
        "country_code": "au"
      },
      "address": "Grassy Road, Kingston, Norfolk Island"
    },
    {
      "lat": -29.042820181252868,
      "lon": 167.94639520320678,
      "geoinfo": {
        "display_name": "184I, Ferny Lane, Norfolk Island, Burnt Pine, Norfolk Island, 2899, Australia",
        "road": "Ferny Lane",
        "house_number": "184I",
        "neighbourhood": null,
        "suburb": null,
        "city_district": "Norfolk Island",
        "city": "Burnt Pine",
        "state": null,
        "postcode": "2899",
        "country": "Australia",
        "country_code": "au"
      },
      "address": "184I Ferny Lane, Kingston, Norfolk Island"
    },
    {
      "lat": -29.05391080563933,
      "lon": 167.9620875913924,
      "geoinfo": {
        "display_name": "Rooty Hill Road, Kingston, Norfolk Island, Burnt Pine, Norfolk Island, 2899, Australia",
        "road": "Rooty Hill Road",
        "house_number": null,
        "neighbourhood": null,
        "suburb": null,
        "city_district": "Norfolk Island",
        "city": "Burnt Pine",
        "state": null,
        "postcode": "2899",
        "country": "Australia",
        "country_code": "au"
      },
      "address": "081, Rooty Hill Road, 2899 Kingston, Norfolk Island"
    },
    {
      "lat": -29.037663338823368,
      "lon": 167.93036101786132,
      "geoinfo": {
        "display_name": "3, Douglas Drive, Norfolk Island, Burnt Pine, Norfolk Island, 2899, Australia",
        "road": "Douglas Drive",
        "house_number": "3",
        "neighbourhood": null,
        "suburb": null,
        "city_district": "Norfolk Island",
        "city": "Burnt Pine",
        "state": null,
        "postcode": "2899",
        "country": "Australia",
        "country_code": "au"
      },
      "address": "3, Douglas Drive, 2899 Kingston, Norfolk Island"
    },
    {
      "lat": -29.028749522574472,
      "lon": 167.96172793064423,
      "geoinfo": {
        "display_name": "New Cascade Road, Norfolk Island, Burnt Pine, Norfolk Island, 2899, Australia",
        "road": "New Cascade Road",
        "house_number": null,
        "neighbourhood": null,
        "suburb": null,
        "city_district": "Norfolk Island",
        "city": "Burnt Pine",
        "state": null,
        "postcode": "2899",
        "country": "Australia",
        "country_code": "au"
      },
      "address": "103, New Cascade Road, 2899 Kingston, Norfolk Island"
    },
    {
      "lat": -29.057989671450915,
      "lon": 167.93211728509564,
      "geoinfo": {
        "display_name": "Rocky Point Road, Norfolk Island, Burnt Pine, Norfolk Island, 2899, Australia",
        "road": "Rocky Point Road",
        "house_number": null,
        "neighbourhood": null,
        "suburb": null,
        "city_district": "Norfolk Island",
        "city": "Burnt Pine",
        "state": null,
        "postcode": "2899",
        "country": "Australia",
        "country_code": "au"
      },
      "address": "251, Rocky Point Road, 2899 Kingston, Norfolk Island"
    },
    {
      "lat": -29.043227166715795,
      "lon": 167.94173189490172,
      "geoinfo": {
        "display_name": "Norfolk Island Airport, Captain Quintal Drive, Norfolk Island, Burnt Pine, Norfolk Island, 2899, Australia",
        "road": "Captain Quintal Drive",
        "house_number": null,
        "neighbourhood": null,
        "suburb": null,
        "city_district": "Norfolk Island",
        "city": "Burnt Pine",
        "state": null,
        "postcode": "2899",
        "country": "Australia",
        "country_code": "au"
      },
      "address": "044, Captain Quintal Drive, 2899 Kingston, Norfolk Island"
    },
    {
      "lat": -29.057345986672544,
      "lon": 167.93587606455677,
      "geoinfo": {
        "display_name": "Rocky Point Road, Norfolk Island, Burnt Pine, Norfolk Island, 2899, Australia",
        "road": "Rocky Point Road",
        "house_number": null,
        "neighbourhood": null,
        "suburb": null,
        "city_district": "Norfolk Island",
        "city": "Burnt Pine",
        "state": null,
        "postcode": "2899",
        "country": "Australia",
        "country_code": "au"
      },
      "address": "079, Rocky Point Road, 2899 Kingston, Norfolk Island"
    },
    {
      "lat": -29.03344585765801,
      "lon": 167.97444543930106,
      "geoinfo": {
        "display_name": "Ephraim Christian Road, Norfolk Island, Burnt Pine, Norfolk Island, 2899, Australia",
        "road": "Ephraim Christian Road",
        "house_number": null,
        "neighbourhood": null,
        "suburb": null,
        "city_district": "Norfolk Island",
        "city": "Burnt Pine",
        "state": null,
        "postcode": "2899",
        "country": "Australia",
        "country_code": "au"
      },
      "address": "113, Ephraim Christian Road, 2899 Kingston, Norfolk Island"
    },
    {
      "lat": -29.049914589982286,
      "lon": 167.96632321689597,
      "geoinfo": {
        "display_name": "Rooty Hill Road, Kingston, Norfolk Island, Burnt Pine, Norfolk Island, 2899, Australia",
        "road": "Rooty Hill Road",
        "house_number": null,
        "neighbourhood": null,
        "suburb": null,
        "city_district": "Norfolk Island",
        "city": "Burnt Pine",
        "state": null,
        "postcode": "2899",
        "country": "Australia",
        "country_code": "au"
      },
      "address": "233, Rooty Hill Road, 2899 Kingston, Norfolk Island"
    },
    {
      "lat": -29.033839274858675,
      "lon": 167.9418970958479,
      "geoinfo": {
        "display_name": "Slick & Sons, 22, Douglas Drive, Norfolk Island, Burnt Pine, Norfolk Island, 2899, Australia",
        "road": "Douglas Drive",
        "house_number": "22",
        "neighbourhood": null,
        "suburb": null,
        "city_district": "Norfolk Island",
        "city": "Burnt Pine",
        "state": null,
        "postcode": "2899",
        "country": "Australia",
        "country_code": "au"
      },
      "address": "22, Douglas Drive, 2899 Kingston, Norfolk Island"
    },
    {
      "lat": -29.036994809950084,
      "lon": 167.95611667799156,
      "geoinfo": {
        "display_name": "Fletcher Christian Apartments, 107, Taylors Road, Norfolk Island, Burnt Pine, Norfolk Island, 2899, Australia",
        "road": "Taylors Road",
        "house_number": "107",
        "neighbourhood": null,
        "suburb": null,
        "city_district": "Norfolk Island",
        "city": "Burnt Pine",
        "state": null,
        "postcode": "2899",
        "country": "Australia",
        "country_code": "au"
      },
      "address": "107, Taylors Road, 2899 Kingston, Norfolk Island"
    },
    {
      "lat": -29.053000907953987,
      "lon": 167.91928565467276,
      "geoinfo": {
        "display_name": "New Farm Road, Norfolk Island, Burnt Pine, Norfolk Island, 2899, Australia",
        "road": "New Farm Road",
        "house_number": null,
        "neighbourhood": null,
        "suburb": null,
        "city_district": "Norfolk Island",
        "city": "Burnt Pine",
        "state": null,
        "postcode": "2899",
        "country": "Australia",
        "country_code": "au"
      },
      "address": "274, New Farm Road, 2899 Kingston, Norfolk Island"
    },
    {
      "lat": -29.0333739668026,
      "lon": 167.95287736590186,
      "geoinfo": {
        "display_name": "Norfolk Island Bowling Club, Taylors Road, Norfolk Island, Burnt Pine, Norfolk Island, 2899, Australia",
        "road": "Taylors Road",
        "house_number": null,
        "neighbourhood": null,
        "suburb": null,
        "city_district": "Norfolk Island",
        "city": "Burnt Pine",
        "state": null,
        "postcode": "2899",
        "country": "Australia",
        "country_code": "au"
      },
      "address": "478, Taylors Road, 2899 Kingston, Norfolk Island"
    },
    {
      "lat": -29.03832343067214,
      "lon": 167.94651759275598,
      "geoinfo": {
        "display_name": "Ferny Lane, Norfolk Island, Burnt Pine, Norfolk Island, 2899, Australia",
        "road": "Ferny Lane",
        "house_number": null,
        "neighbourhood": null,
        "suburb": null,
        "city_district": "Norfolk Island",
        "city": "Burnt Pine",
        "state": null,
        "postcode": "2899",
        "country": "Australia",
        "country_code": "au"
      },
      "address": "682, Ferny Lane, 2899 Kingston, Norfolk Island"
    },
    {
      "lat": -29.057537562499967,
      "lon": 167.95931339996903,
      "geoinfo": {
        "display_name": "Bounty Street, Kingston, Norfolk Island, Burnt Pine, Norfolk Island, 2899, Australia",
        "road": "Bounty Street",
        "house_number": null,
        "neighbourhood": null,
        "suburb": null,
        "city_district": "Norfolk Island",
        "city": "Burnt Pine",
        "state": null,
        "postcode": "2899",
        "country": "Australia",
        "country_code": "au"
      },
      "address": "221, Bounty Street, 2899 Kingston, Norfolk Island"
    },
    {
      "lat": -29.01884197712692,
      "lon": 167.97277067411446,
      "geoinfo": {
        "display_name": "Cascade Pier, Cascade Road, Norfolk Island, Burnt Pine, Norfolk Island, 2899, Australia",
        "road": "Cascade Road",
        "house_number": null,
        "neighbourhood": null,
        "suburb": null,
        "city_district": "Norfolk Island",
        "city": "Burnt Pine",
        "state": null,
        "postcode": "2899",
        "country": "Australia",
        "country_code": "au"
      },
      "address": "849, Cascade Road, 2899 Kingston, Norfolk Island"
    },
    {
      "lat": -29.02242988151205,
      "lon": 167.9451501289201,
      "geoinfo": {
        "display_name": "Whispering Pines, 80, Grassy Road, Norfolk Island, Burnt Pine, Norfolk Island, 2899, Australia",
        "road": "Grassy Road",
        "house_number": "80",
        "neighbourhood": null,
        "suburb": null,
        "city_district": "Norfolk Island",
        "city": "Burnt Pine",
        "state": null,
        "postcode": "2899",
        "country": "Australia",
        "country_code": "au"
      },
      "address": "80, Grassy Road, 2899 Kingston, Norfolk Island"
    },
    {
      "lat": -29.053209930047117,
      "lon": 167.92796329101057,
      "geoinfo": {
        "display_name": "Rocky Point Lodge, 215, New Farm Road, Norfolk Island, Burnt Pine, Norfolk Island, 2899, Australia",
        "road": "New Farm Road",
        "house_number": "215",
        "neighbourhood": null,
        "suburb": null,
        "city_district": "Norfolk Island",
        "city": "Burnt Pine",
        "state": null,
        "postcode": "2899",
        "country": "Australia",
        "country_code": "au"
      },
      "address": "215, New Farm Road, 2899 Kingston, Norfolk Island"
    },
    {
      "lat": -29.03058615819458,
      "lon": 167.94935735174684,
      "geoinfo": {
        "display_name": "Taylors Road, Norfolk Island, Burnt Pine, Norfolk Island, 2899, Australia",
        "road": "Taylors Road",
        "house_number": null,
        "neighbourhood": null,
        "suburb": null,
        "city_district": "Norfolk Island",
        "city": "Burnt Pine",
        "state": null,
        "postcode": "2899",
        "country": "Australia",
        "country_code": "au"
      },
      "address": "920, Taylors Road, 2899 Kingston, Norfolk Island"
    },
    {
      "lat": -29.03494920215121,
      "lon": 167.96968952189394,
      "geoinfo": {
        "display_name": "Cascade Road, Norfolk Island, Burnt Pine, Norfolk Island, 2899, Australia",
        "road": "Cascade Road",
        "house_number": null,
        "neighbourhood": null,
        "suburb": null,
        "city_district": "Norfolk Island",
        "city": "Burnt Pine",
        "state": null,
        "postcode": "2899",
        "country": "Australia",
        "country_code": "au"
      },
      "address": "992, Cascade Road, 2899 Kingston, Norfolk Island"
    },
    {
      "lat": -29.038192955335152,
      "lon": 167.94831119154765,
      "geoinfo": {
        "display_name": "Burnt Pine Boutique Apartments, 36, Taylors Road, Norfolk Island, Burnt Pine, Norfolk Island, 2899, Australia",
        "road": "Taylors Road",
        "house_number": "36",
        "neighbourhood": null,
        "suburb": null,
        "city_district": "Norfolk Island",
        "city": "Burnt Pine",
        "state": null,
        "postcode": "2899",
        "country": "Australia",
        "country_code": "au"
      },
      "address": "36, Taylors Road, 2899 Kingston, Norfolk Island"
    },
    {
      "lat": -29.04909807477378,
      "lon": 167.92941242381602,
      "geoinfo": {
        "display_name": "New Farm Road, Norfolk Island, Burnt Pine, Norfolk Island, 2899, Australia",
        "road": "New Farm Road",
        "house_number": null,
        "neighbourhood": null,
        "suburb": null,
        "city_district": "Norfolk Island",
        "city": "Burnt Pine",
        "state": null,
        "postcode": "2899",
        "country": "Australia",
        "country_code": "au"
      },
      "address": "201, New Farm Road, 2899 Kingston, Norfolk Island"
    },
    {
      "lat": -29.05348325906437,
      "lon": 167.9392770380472,
      "geoinfo": {
        "display_name": "Rocky Point Road, Norfolk Island, Burnt Pine, Norfolk Island, 2899, Australia",
        "road": "Rocky Point Road",
        "house_number": null,
        "neighbourhood": null,
        "suburb": null,
        "city_district": "Norfolk Island",
        "city": "Burnt Pine",
        "state": null,
        "postcode": "2899",
        "country": "Australia",
        "country_code": "au"
      },
      "address": "316, Rocky Point Road, 2899 Kingston, Norfolk Island"
    },
    {
      "lat": -29.033665465087644,
      "lon": 167.93189244596246,
      "geoinfo": {
        "display_name": "Douglas Drive, Norfolk Island, Burnt Pine, Norfolk Island, 2899, Australia",
        "road": "Douglas Drive",
        "house_number": null,
        "neighbourhood": null,
        "suburb": null,
        "city_district": "Norfolk Island",
        "city": "Burnt Pine",
        "state": null,
        "postcode": "2899",
        "country": "Australia",
        "country_code": "au"
      },
      "address": "566, Douglas Drive, 2899 Kingston, Norfolk Island"
    },
    {
      "lat": -29.05610990972846,
      "lon": 167.9297069790014,
      "geoinfo": {
        "display_name": "Rocky Point Road, Norfolk Island, Burnt Pine, Norfolk Island, 2899, Australia",
        "road": "Rocky Point Road",
        "house_number": null,
        "neighbourhood": null,
        "suburb": null,
        "city_district": "Norfolk Island",
        "city": "Burnt Pine",
        "state": null,
        "postcode": "2899",
        "country": "Australia",
        "country_code": "au"
      },
      "address": "971, Rocky Point Road, 2899 Kingston, Norfolk Island"
    },
    {
      "lat": -29.04882111111695,
      "lon": 167.9569557120407,
      "geoinfo": {
        "display_name": "Middlegate Road, Kingston, Norfolk Island, Burnt Pine, Norfolk Island, 2899, Australia",
        "road": "Middlegate Road",
        "house_number": null,
        "neighbourhood": null,
        "suburb": null,
        "city_district": "Norfolk Island",
        "city": "Burnt Pine",
        "state": null,
        "postcode": "2899",
        "country": "Australia",
        "country_code": "au"
      },
      "address": "146, Middlegate Road, 2899 Kingston, Norfolk Island"
    },
    {
      "lat": -29.046965285401967,
      "lon": 167.9264227394137,
      "geoinfo": {
        "display_name": "New Farm Road, Norfolk Island, Burnt Pine, Norfolk Island, 2899, Australia",
        "road": "New Farm Road",
        "house_number": null,
        "neighbourhood": null,
        "suburb": null,
        "city_district": "Norfolk Island",
        "city": "Burnt Pine",
        "state": null,
        "postcode": "2899",
        "country": "Australia",
        "country_code": "au"
      },
      "address": "148, New Farm Road, 2899 Kingston, Norfolk Island"
    }
  ],
  "updated_at": "2025-10-19T04:45:07.410389+00:00",
  "_kind": "geo_samples"
}