{
  "country_code": "SL",
  "country": "Sierra Leone",
  "city": "Freetown",
  "geonameid": 2409306,
  "target_addresses": 8,
  "samples": [
    {
      "lat": 8.474776648064582,
      "lon": -13.249976431147442,
      "geoinfo": {
        "display_name": "New London, Congo Town, Freetown, Western Area Urban, Western Area, Sierra Leone",
        "road": null,
        "house_number": null,
        "neighbourhood": "New London",
        "suburb": "Congo Town",
        "city_district": null,
        "city": "Freetown",
        "state": "Western Area Urban",
        "postcode": null,
        "country": "Sierra Leone",
        "country_code": "sl"
      },
      "address": "New London, Freetown, Western Area Urban, Sierra Leone"
    },
    {
      "lat": 8.503599755478174,
      "lon": -13.267958904351866,
      "geoinfo": {
        "display_name": "Salco Wharf, Murray Town, Freetown, Western Area Urban, Western Area, Sierra Leone",
        "road": null,
        "house_number": null,
        "neighbourhood": "Salco Wharf",
        "suburb": "Murray Town",
        "city_district": null,
        "city": "Freetown",
        "state": "Western Area Urban",
        "postcode": null,
        "country": "Sierra Leone",
        "country_code": "sl"
      },
      "address": "Salco Wharf, Freetown, Western Area Urban, Sierra Leone"
    },
    {
      "lat": 8.449371002018111,
      "lon": -13.213382489567083,
      "geoinfo": {
        "display_name": "Loko Town, Gloucester, Western Area Urban, Western Area, Sierra Leone",
        "road": null,
        "house_number": null,
        "neighbourhood": "Loko Town",
        "suburb": null,
        "city_district": null,
        "city": "Gloucester",
        "state": "Western Area Urban",
        "postcode": null,
        "country": "Sierra Leone",
        "country_code": "sl"
      },
      "address": "Loko Town, Freetown, Western Area Urban, Sierra Leone"
    },
    {
      "lat": 8.51204064026751,
      "lon": -13.207731585832875,
      "geoinfo": {
        "display_name": "Cline Town, Freetown, Western Area Urban, Western Area, Sierra Leone",
        "road": null,
        "house_number": null,
        "neighbourhood": null,
        "suburb": "Cline Town",
        "city_district": null,
        "city": "Freetown",
        "state": "Western Area Urban",
        "postcode": null,
        "country": "Sierra Leone",
        "country_code": "sl"
      },
      "address": "Cline Town, Freetown, Western Area Urban, Sierra Leone"
    },
    {
      "lat": 8.484129900741642,
      "lon": -13.243173894828333,
      "geoinfo": {
        "display_name": "Bonzo, Kingtom, Freetown, Western Area Urban, Western Area, Sierra Leone",
        "road": null,
        "house_number": null,
        "neighbourhood": "Bonzo",
        "suburb": "Kingtom",
        "city_district": null,
        "city": "Freetown",
        "state": "Western Area Urban",
        "postcode": null,
        "country": "Sierra Leone",
        "country_code": "sl"
      },
      "address": "Bonzo, Freetown, Western Area Urban, Sierra Leone"
    },
    {
      "lat": 8.51686443170171,
      "lon": -13.226509869588952,
      "geoinfo": {
        "display_name": "Tower Hill, Freetown, Western Area Urban, Western Area, Sierra Leone",
        "road": null,
        "house_number": null,
        "neighbourhood": null,
        "suburb": "Tower Hill",
        "city_district": null,
        "city": "Freetown",
        "state": "Western Area Urban",
        "postcode": null,
        "country": "Sierra Leone",
        "country_code": "sl"
      },
      "address": "Tower Hill, Freetown, Western Area Urban, Sierra Leone"
    },
    {
      "lat": 8.514844752580265,
      "lon": -13.260681954585683,
      "geoinfo": {
        "display_name": "Murray Town, Freetown, Western Area Urban, Western Area, Sierra Leone",
        "road": null,
        "house_number": null,
        "neighbourhood": null,
        "suburb": "Murray Town",
        "city_district": null,
        "city": "Freetown",
        "state": "Western Area Urban",
        "postcode": null,
        "country": "Sierra Leone",
        "country_code": "sl"
      },
      "address": "Murray Town, Freetown, Western Area Urban, Sierra Leone"
    },
    {
      "lat": 8.494243756150171,
      "lon": -13.215211157170765,
      "geoinfo": {
        "display_name": "Lower Savage Square, Queen Elizabeth II Quay, Cline Town, Freetown, Western Area Urban, Western Area, Sierra Leone",
        "road": "Lower Savage Square",
        "house_number": null,
        "neighbourhood": null,
        "suburb": "Cline Town",
        "city_district": null,
        "city": "Freetown",
        "state": "Western Area Urban",
        "postcode": null,
        "country": "Sierra Leone",
        "country_code": "sl"
      },
      "address": "Lower Savage Square, Freetown, Western Area Urban, Sierra Leone"
    },
    {
      "lat": 8.481535712800707,
      "lon": -13.217449636825819,
      "geoinfo": {
        "display_name": "Manfred Lane, Quarry, Mount Aureol, Sumalia Town, Western Area Urban, Western Area, Sierra Leone",
        "road": "Manfred Lane",
        "house_number": null,
        "neighbourhood": "Quarry",
        "suburb": "Mount Aureol",
        "city_district": null,
        "city": "Sumalia Town",
        "state": "Western Area Urban",
        "postcode": null,
        "country": "Sierra Leone",
        "country_code": "sl"
      },
      "address": "615, Manfred Lane, Quarry, Mount Aureol, Sumalia Town, Western Area Urban, 72952 Western Area, Sierra Leone"
    },
    {
      "lat": 8.470441161714387,
      "lon": -13.267509060854504,
      "geoinfo": {
        "display_name": "Bah Drive, Cassava Farm, NDMC Compound, Wilberforce, Freetown, Western Area Urban, Western Area, Sierra Leone",
        "road": "Bah Drive",
        "house_number": null,
        "neighbourhood": "Cassava Farm",
        "suburb": "Wilberforce",
        "city_district": null,
        "city": "Freetown",
        "state": "Western Area Urban",
        "postcode": null,
        "country": "Sierra Leone",
        "country_code": "sl"
      },
      "address": "177, Bah Drive, Cassava Farm, NDMC Compound, Wilberforce, Freetown, Western Area Urban, 22725 Western Area, Sierra Leone"
    },
    {
      "lat": 8.503394193119167,
      "lon": -13.220632280063905,
      "geoinfo": {
        "display_name": "Moe Wharf, Cline Town, Freetown, Western Area Urban, Western Area, Sierra Leone",
        "road": null,
        "house_number": null,
        "neighbourhood": "Moe Wharf",
        "suburb": "Cline Town",
        "city_district": null,
        "city": "Freetown",
        "state": "Western Area Urban",
        "postcode": null,
        "country": "Sierra Leone",
        "country_code": "sl"
      },
      "address": "191, Moe Wharf, Cline Town, Freetown, Western Area Urban, 46724 Western Area, Sierra Leone"
    },
    {
      "lat": 8.522935148768463,
      "lon": -13.24475306049342,
      "geoinfo": {
        "display_name": "Kingtom, Freetown, Western Area Urban, Western Area, Sierra Leone",
        "road": null,
        "house_number": null,
        "neighbourhood": null,
        "suburb": "Kingtom",
        "city_district": null,
        "city": "Freetown",
        "state": "Western Area Urban",
        "postcode": null,
        "country": "Sierra Leone",
        "country_code": "sl"
      },
      "address": "029, Kingtom, Freetown, Western Area Urban, 27576 Western Area, Sierra Leone"
    },
    {
      "lat": 8.453777756315727,
      "lon": -13.20661991633816,
      "geoinfo": {
        "display_name": "Benz Town Community, Gloucester, Western Area Urban, Western Area, Sierra Leone",
        "road": null,
        "house_number": null,
        "neighbourhood": "Benz Town Community",
        "suburb": null,
        "city_district": null,
        "city": "Gloucester",
        "state": "Western Area Urban",
        "postcode": null,
        "country": "Sierra Leone",
        "country_code": "sl"
      },
      "address": "359, Benz Town Community, Gloucester, Western Area Urban, 47005 Western Area, Sierra Leone"
    },
    {
      "lat": 8.483354649665282,
      "lon": -13.27452429376174,
      "geoinfo": {
        "display_name": "Grace Spring Ministry, Byne Lane, Mafegben, Murray Town, Freetown, Western Area Urban, Western Area, Sierra Leone",
        "road": "Byne Lane",
        "house_number": null,
        "neighbourhood": "Mafegben",
        "suburb": "Murray Town",
        "city_district": null,
        "city": "Freetown",
        "state": "Western Area Urban",
        "postcode": null,
        "country": "Sierra Leone",
        "country_code": "sl"
      },
      "address": "506, Byne Lane, Freetown, 64150 Western Area Urban, Sierra Leone"
    },
    {
      "lat": 8.47869901229368,
      "lon": -13.211106617074234,
      "geoinfo": {
        "display_name": "Blackhall Road, Ashobi Corner, Cline Town, Sumalia Town, Western Area Urban, Western Area, Sierra Leone",
        "road": "Blackhall Road",
        "house_number": null,
        "neighbourhood": "Ashobi Corner",
        "suburb": "Cline Town",
        "city_district": null,
        "city": "Sumalia Town",
        "state": "Western Area Urban",
        "postcode": null,
        "country": "Sierra Leone",
        "country_code": "sl"
      },
      "address": "864, Blackhall Road, Ashobi Corner, Cline Town, Sumalia Town, Western Area Urban, 83105 Western Area, Sierra Leone"
    },
    {
      "lat": 8.524253910929934,
      "lon": -13.245846863243878,
      "geoinfo": {
        "display_name": "Kingtom, Freetown, Western Area Urban, Western Area, Sierra Leone",
        "road": null,
        "house_number": null,
        "neighbourhood": null,
        "suburb": "Kingtom",
        "city_district": null,
        "city": "Freetown",
        "state": "Western Area Urban",
        "postcode": null,
        "country": "Sierra Leone",
        "country_code": "sl"
      },
      "address": "838, Kingtom, Freetown, Western Area Urban, 14261 Western Area, Sierra Leone"
    }
  ],
  "updated_at": "2025-10-19T07:00:56.035063+00:00",
  "_kind": "geo_samples"
}