{
  "country_code": "SL",
  "country": "Sierra Leone",
  "city": "Goderich",
  "geonameid": 9191693,
  "target_addresses": 8,
  "samples": [
    {
      "lat": 8.426664513174362,
      "lon": -13.319214274564837,
      "geoinfo": {
        "display_name": "Goderich, Freetown, Western Area Urban, Western Area, Sierra Leone",
        "road": null,
        "house_number": null,
        "neighbourhood": null,
        "suburb": "Goderich",
        "city_district": null,
        "city": "Freetown",
        "state": "Western Area Urban",
        "postcode": null,
        "country": "Sierra Leone",
        "country_code": "sl"
      },
      "address": "Goderich, Goderich, Western Area Urban, Sierra Leone"
    },
    {
      "lat": 8.44974342932964,
      "lon": -13.260243155586943,
      "geoinfo": {
        "display_name": "Mirimboe, Freetown, Western Area Urban, Western Area, Sierra Leone",
        "road": null,
        "house_number": null,
        "neighbourhood": null,
        "suburb": null,
        "city_district": null,
        "city": "Freetown",
        "state": "Western Area Urban",
        "postcode": null,
        "country": "Sierra Leone",
        "country_code": "sl"
      },
      "address": "Goderich, Western Area Urban, Sierra Leone"
    },
    {
      "lat": 8.413943457666376,
      "lon": -13.290382136913935,
      "geoinfo": {
        "display_name": "Gbendebu, Goderich, Freetown, Western Area Urban, Western Area, Sierra Leone",
        "road": null,
        "house_number": null,
        "neighbourhood": "Gbendebu",
        "suburb": "Goderich",
        "city_district": null,
        "city": "Freetown",
        "state": "Western Area Urban",
        "postcode": null,
        "country": "Sierra Leone",
        "country_code": "sl"
      },
      "address": "Gbendebu, Goderich, Western Area Urban, Sierra Leone"
    },
    {
      "lat": 8.449756076764961,
      "lon": -13.291051030077226,
      "geoinfo": {
        "display_name": "Funkia Slum, Goderich, Freetown, Western Area Urban, Western Area, Sierra Leone",
        "road": null,
        "house_number": null,
        "neighbourhood": "Funkia Slum",
        "suburb": "Goderich",
        "city_district": null,
        "city": "Freetown",
        "state": "Western Area Urban",
        "postcode": null,
        "country": "Sierra Leone",
        "country_code": "sl"
      },
      "address": "Funkia Slum, Goderich, Western Area Urban, Sierra Leone"
    },
    {
      "lat": 8.423799659156733,
      "lon": -13.29512632441416,
      "geoinfo": {
        "display_name": "Jarrett Street, Oku Town, Goderich, Freetown, Western Area Urban, Western Area, Sierra Leone",
        "road": "Jarrett Street",
        "house_number": null,
        "neighbourhood": "Oku Town",
        "suburb": "Goderich",
        "city_district": null,
        "city": "Freetown",
        "state": "Western Area Urban",
        "postcode": null,
        "country": "Sierra Leone",
        "country_code": "sl"
      },
      "address": "Jarrett Street, Goderich, Western Area Urban, Sierra Leone"
    },
    {
      "lat": 8.427134301507216,
      "lon": -13.310306228617545,
      "geoinfo": {
        "display_name": "Oku Town, Goderich, Freetown, Western Area Urban, Western Area, Sierra Leone",
        "road": null,
        "house_number": null,
        "neighbourhood": "Oku Town",
        "suburb": "Goderich",
        "city_district": null,
        "city": "Freetown",
        "state": "Western Area Urban",
        "postcode": null,
        "country": "Sierra Leone",
        "country_code": "sl"
      },
      "address": "Oku Town, Goderich, Western Area Urban, Sierra Leone"
    },
    {
      "lat": 8.419975499983126,
      "lon": -13.288169314288435,
      "geoinfo": {
        "display_name": "Gbendebu, Goderich, Freetown, Western Area Urban, Western Area, Sierra Leone",
        "road": null,
        "house_number": null,
        "neighbourhood": "Gbendebu",
        "suburb": "Goderich",
        "city_district": null,
        "city": "Freetown",
        "state": "Western Area Urban",
        "postcode": null,
        "country": "Sierra Leone",
        "country_code": "sl"
      },
      "address": "779, Gbendebu, Goderich, Freetown, Western Area Urban, 32343 Western Area, Sierra Leone"
    },
    {
      "lat": 8.441775821173435,
      "lon": -13.301827326427524,
      "geoinfo": {
        "display_name": "Funkia Slum, Goderich, Freetown, Western Area Urban, Western Area, Sierra Leone",
        "road": null,
        "house_number": null,
        "neighbourhood": "Funkia Slum",
        "suburb": "Goderich",
        "city_district": null,
        "city": "Freetown",
        "state": "Western Area Urban",
        "postcode": null,
        "country": "Sierra Leone",
        "country_code": "sl"
      },
      "address": "747, Funkia Slum, Goderich, Freetown, Western Area Urban, 89009 Western Area, Sierra Leone"
    },
    {
      "lat": 8.448163201265585,
      "lon": -13.286073865759372,
      "geoinfo": {
        "display_name": "Crab Town, Gbendembu, Freetown, Western Area Urban, Western Area, Sierra Leone",
        "road": null,
        "house_number": null,
        "neighbourhood": "Crab Town",
        "suburb": "Gbendembu",
        "city_district": null,
        "city": "Freetown",
        "state": "Western Area Urban",
        "postcode": null,
        "country": "Sierra Leone",
        "country_code": "sl"
      },
      "address": "228, Crab Town, Gbendembu, Freetown, Western Area Urban, 70553 Western Area, Sierra Leone"
    },
    {
      "lat": 8.445989590291047,
      "lon": -13.27752357898069,
      "geoinfo": {
        "display_name": "Portor, Gbendembu, Freetown, Western Area Urban, Western Area, Sierra Leone",
        "road": null,
        "house_number": null,
        "neighbourhood": "Portor",
        "suburb": "Gbendembu",
        "city_district": null,
        "city": "Freetown",
        "state": "Western Area Urban",
        "postcode": null,
        "country": "Sierra Leone",
        "country_code": "sl"
      },
      "address": "554, Portor, Gbendembu, Freetown, Western Area Urban, 81288 Western Area, Sierra Leone"
    },
    {
      "lat": 8.401559271931326,
      "lon": -13.26412304581068,
      "geoinfo": {
        "display_name": "K-Bangs Drive, Upper Laka Village, Ogoo Farm, Angola Town, Western Area Urban, Western Area, Sierra Leone",
        "road": "K-Bangs Drive",
        "house_number": null,
        "neighbourhood": "Upper Laka Village",
        "suburb": null,
        "city_district": null,
        "city": "Angola Town",
        "state": "Western Area Urban",
        "postcode": null,
        "country": "Sierra Leone",
        "country_code": "sl"
      },
      "address": "388, K-Bangs Drive, Upper Laka Village, Ogoo Farm, Angola Town, Western Area Urban, 42839 Western Area, Sierra Leone"
    },
    {
      "lat": 8.432769125233182,
      "lon": -13.29852368685503,
      "geoinfo": {
        "display_name": "Funkia Slum, Goderich, Freetown, Western Area Urban, Western Area, Sierra Leone",
        "road": null,
        "house_number": null,
        "neighbourhood": "Funkia Slum",
        "suburb": "Goderich",
        "city_district": null,
        "city": "Freetown",
        "state": "Western Area Urban",
        "postcode": null,
        "country": "Sierra Leone",
        "country_code": "sl"
      },
      "address": "793, Funkia Slum, Goderich, Freetown, Western Area Urban, 49392 Western Area, Sierra Leone"
    },
    {
      "lat": 8.426112572440033,
      "lon": -13.296262232908301,
      "geoinfo": {
        "display_name": "Jarrett Street, Oku Town, Goderich, Freetown, Western Area Urban, Western Area, Sierra Leone",
        "road": "Jarrett Street",
        "house_number": null,
        "neighbourhood": "Oku Town",
        "suburb": "Goderich",
        "city_district": null,
        "city": "Freetown",
        "state": "Western Area Urban",
        "postcode": null,
        "country": "Sierra Leone",
        "country_code": "sl"
      },
      "address": "364, Jarrett Street, Oku Town, Goderich, Freetown, Western Area Urban, 20009 Western Area, Sierra Leone"
    },
    {
      "lat": 8.409862096607787,
      "lon": -13.246627534610816,
      "geoinfo": {
        "display_name": "Angola Town, Western Area Urban, Western Area, Sierra Leone",
        "road": null,
        "house_number": null,
        "neighbourhood": null,
        "suburb": null,
        "city_district": null,
        "city": "Angola Town",
        "state": "Western Area Urban",
        "postcode": null,
        "country": "Sierra Leone",
        "country_code": "sl"
      },
      "address": "435, Angola Town, Western Area Urban, 52064 Western Area, Sierra Leone"
    }
  ],
  "updated_at": "2025-10-19T04:50:23.676002+00:00",
  "_kind": "geo_samples"
}