{
  "country_code": "SL",
  "country": "Sierra Leone",
  "city": "Koidu",
  "geonameid": 2407656,
  "target_addresses": 8,
  "samples": [
    {
      "lat": 8.617132509191157,
      "lon": -10.949550255978005,
      "geoinfo": {
        "display_name": "Koidu, Kono District, Eastern Province, Sierra Leone",
        "road": null,
        "house_number": null,
        "neighbourhood": null,
        "suburb": null,
        "city_district": null,
        "city": "Koidu",
        "state": "Kono District",
        "postcode": null,
        "country": "Sierra Leone",
        "country_code": "sl"
      },
      "address": "Koidu, Kono District, Sierra Leone"
    },
    {
      "lat": 8.636345705947706,
      "lon": -10.931100331407077,
      "geoinfo": {
        "display_name": "Kwelo, Koidu, Kono District, Eastern Province, Sierra Leone",
        "road": null,
        "house_number": null,
        "neighbourhood": null,
        "suburb": "Kwelo",
        "city_district": null,
        "city": "Koidu",
        "state": "Kono District",
        "postcode": null,
        "country": "Sierra Leone",
        "country_code": "sl"
      },
      "address": "Kwelo, Koidu, Kono District, Sierra Leone"
    },
    {
      "lat": 8.645590257841613,
      "lon": -11.009606227892956,
      "geoinfo": {
        "display_name": "14A, Tombodu Road, Sefadu, Koidu, Kono District, Eastern Province, Sierra Leone",
        "road": "Tombodu Road",
        "house_number": "14A",
        "neighbourhood": null,
        "suburb": null,
        "city_district": null,
        "city": "Koidu",
        "state": "Kono District",
        "postcode": null,
        "country": "Sierra Leone",
        "country_code": "sl"
      },
      "address": "14A Tombodu Road, Koidu, Kono District, Sierra Leone"
    },
    {
      "lat": 8.612337660212146,
      "lon": -10.956088199563409,
      "geoinfo": {
        "display_name": "C43, Resettlement Road, Koidu, Kono District, Eastern Province, Sierra Leone",
        "road": "Resettlement Road",
        "house_number": "C43",
        "neighbourhood": null,
        "suburb": null,
        "city_district": null,
        "city": "Koidu",
        "state": "Kono District",
        "postcode": null,
        "country": "Sierra Leone",
        "country_code": "sl"
      },
      "address": "C43 Resettlement Road, Koidu, Kono District, Sierra Leone"
    },
    {
      "lat": 8.637906746530321,
      "lon": -10.987637457927134,
      "geoinfo": {
        "display_name": "Kinse, Koidu, Kono District, Eastern Province, Sierra Leone",
        "road": null,
        "house_number": null,
        "neighbourhood": null,
        "suburb": "Kinse",
        "city_district": null,
        "city": "Koidu",
        "state": "Kono District",
        "postcode": null,
        "country": "Sierra Leone",
        "country_code": "sl"
      },
      "address": "Kinse, Koidu, Kono District, Sierra Leone"
    },
    {
      "lat": 8.636501138540833,
      "lon": -10.971119796783126,
      "geoinfo": {
        "display_name": "Konoboy Saquee Street, Koidu, Kono District, Eastern Province, Sierra Leone",
        "road": "Konoboy Saquee Street",
        "house_number": null,
        "neighbourhood": null,
        "suburb": null,
        "city_district": null,
        "city": "Koidu",
        "state": "Kono District",
        "postcode": null,
        "country": "Sierra Leone",
        "country_code": "sl"
      },
      "address": "Konoboy Saquee Street, Koidu, Kono District, Sierra Leone"
    },
    {
      "lat": 8.67071539421137,
      "lon": -10.971688556554286,
      "geoinfo": {
        "display_name": "Kamadu, Koidu, Kono District, Eastern Province, Sierra Leone",
        "road": null,
        "house_number": null,
        "neighbourhood": null,
        "suburb": "Kamadu",
        "city_district": null,
        "city": "Koidu",
        "state": "Kono District",
        "postcode": null,
        "country": "Sierra Leone",
        "country_code": "sl"
      },
      "address": "Kamadu, Koidu, Kono District, Sierra Leone"
    },
    {
      "lat": 8.619483325750199,
      "lon": -10.981709524075086,
      "geoinfo": {
        "display_name": "11, Yorgboma Road, Kinse, Koidu, Kono District, Eastern Province, Sierra Leone",
        "road": "Yorgboma Road",
        "house_number": "11",
        "neighbourhood": null,
        "suburb": "Kinse",
        "city_district": null,
        "city": "Koidu",
        "state": "Kono District",
        "postcode": null,
        "country": "Sierra Leone",
        "country_code": "sl"
      },
      "address": "11 Yorgboma Road, Koidu, Kono District, Sierra Leone"
    },
    {
      "lat": 8.659077770023048,
      "lon": -10.948167679709785,
      "geoinfo": {
        "display_name": "Kwelo, Koidu, Kono District, Eastern Province, Sierra Leone",
        "road": null,
        "house_number": null,
        "neighbourhood": null,
        "suburb": "Kwelo",
        "city_district": null,
        "city": "Koidu",
        "state": "Kono District",
        "postcode": null,
        "country": "Sierra Leone",
        "country_code": "sl"
      },
      "address": "339, Kwelo, Koidu, Kono District, 21394 Eastern Province, Sierra Leone"
    },
    {
      "lat": 8.642163597542794,
      "lon": -10.942534180977757,
      "geoinfo": {
        "display_name": "Kwelo, Koidu, Kono District, Eastern Province, Sierra Leone",
        "road": null,
        "house_number": null,
        "neighbourhood": null,
        "suburb": "Kwelo",
        "city_district": null,
        "city": "Koidu",
        "state": "Kono District",
        "postcode": null,
        "country": "Sierra Leone",
        "country_code": "sl"
      },
      "address": "300, Kwelo, Koidu, Kono District, 66172 Eastern Province, Sierra Leone"
    },
    {
      "lat": 8.61157302516964,
      "lon": -10.95175144889811,
      "geoinfo": {
        "display_name": "Manjamadu, Moima, Kono District, Eastern Province, Sierra Leone",
        "road": null,
        "house_number": null,
        "neighbourhood": null,
        "suburb": null,
        "city_district": null,
        "city": "Moima",
        "state": "Kono District",
        "postcode": null,
        "country": "Sierra Leone",
        "country_code": "sl"
      },
      "address": "557, Koidu, 06770 Kono District, Sierra Leone"
    },
    {
      "lat": 8.604664921846123,
      "lon": -10.958617375815454,
      "geoinfo": {
        "display_name": "Sengema, Koidu, Kono District, Eastern Province, Sierra Leone",
        "road": null,
        "house_number": null,
        "neighbourhood": null,
        "suburb": null,
        "city_district": null,
        "city": "Koidu",
        "state": "Kono District",
        "postcode": null,
        "country": "Sierra Leone",
        "country_code": "sl"
      },
      "address": "596, Sengema, Koidu, Kono District, 11673 Eastern Province, Sierra Leone"
    },
    {
      "lat": 8.66865690398164,
      "lon": -10.954951237813109,
      "geoinfo": {
        "display_name": "Boma, Koidu, Kono District, Eastern Province, Sierra Leone",
        "road": null,
        "house_number": null,
        "neighbourhood": null,
        "suburb": null,
        "city_district": null,
        "city": "Koidu",
        "state": "Kono District",
        "postcode": null,
        "country": "Sierra Leone",
        "country_code": "sl"
      },
      "address": "053, Boma, Koidu, Kono District, 28820 Eastern Province, Sierra Leone"
    },
    {
      "lat": 8.647424911608454,
      "lon": -10.981939411950764,
      "geoinfo": {
        "display_name": "Kamadu, Koidu, Kono District, Eastern Province, Sierra Leone",
        "road": null,
        "house_number": null,
        "neighbourhood": null,
        "suburb": "Kamadu",
        "city_district": null,
        "city": "Koidu",
        "state": "Kono District",
        "postcode": null,
        "country": "Sierra Leone",
        "country_code": "sl"
      },
      "address": "162, Kamadu, Koidu, Kono District, 90478 Eastern Province, Sierra Leone"
    },
    {
      "lat": 8.628671004340404,
      "lon": -10.99439019255301,
      "geoinfo": {
        "display_name": "Mansaray Drive, Kinse, Koidu, Kono District, Eastern Province, Sierra Leone",
        "road": "Mansaray Drive",
        "house_number": null,
        "neighbourhood": null,
        "suburb": "Kinse",
        "city_district": null,
        "city": "Koidu",
        "state": "Kono District",
        "postcode": null,
        "country": "Sierra Leone",
        "country_code": "sl"
      },
      "address": "572, Mansaray Drive, Kinse, Koidu, Kono District, 88321 Eastern Province, Sierra Leone"
    },
    {
      "lat": 8.640920167188016,
      "lon": -10.992198776758544,
      "geoinfo": {
        "display_name": "Kinse, Koidu, Kono District, Eastern Province, Sierra Leone",
        "road": null,
        "house_number": null,
        "neighbourhood": null,
        "suburb": "Kinse",
        "city_district": null,
        "city": "Koidu",
        "state": "Kono District",
        "postcode": null,
        "country": "Sierra Leone",
        "country_code": "sl"
      },
      "address": "901, Kinse, Koidu, Kono District, 55726 Eastern Province, Sierra Leone"
    }
  ],
  "updated_at": "2025-10-19T07:00:24.235065+00:00",
  "_kind": "geo_samples"
}