{
  "country_code": "SL",
  "country": "Sierra Leone",
  "city": "Makeni",
  "geonameid": 2406407,
  "target_addresses": 8,
  "samples": [
    {
      "lat": 8.876962378401997,
      "lon": -12.005760377158797,
      "geoinfo": {
        "display_name": "Teko Road, Buia, Makeni, Bombali District, Northern Province, Sierra Leone, Sierra Leone",
        "road": "Teko Road",
        "house_number": null,
        "neighbourhood": null,
        "suburb": null,
        "city_district": null,
        "city": "Makeni",
        "state": "Bombali District",
        "postcode": null,
        "country": "Sierra Leone",
        "country_code": "sl"
      },
      "address": "Teko Road, Makeni, Bombali District, Sierra Leone"
    },
    {
      "lat": 8.913384095011581,
      "lon": -12.0099522395995,
      "geoinfo": {
        "display_name": "Rosint, Mano, Bombali District, Northern Province, Sierra Leone, Sierra Leone",
        "road": null,
        "house_number": null,
        "neighbourhood": null,
        "suburb": null,
        "city_district": null,
        "city": "Mano",
        "state": "Bombali District",
        "postcode": null,
        "country": "Sierra Leone",
        "country_code": "sl"
      },
      "address": "Makeni, Bombali District, Sierra Leone"
    },
    {
      "lat": 8.908497167218227,
      "lon": -12.064767273231368,
      "geoinfo": {
        "display_name": "New London, Mafonike, Makeni, Bombali District, Northern Province, Sierra Leone, Sierra Leone",
        "road": null,
        "house_number": null,
        "neighbourhood": "New London",
        "suburb": null,
        "city_district": null,
        "city": "Makeni",
        "state": "Bombali District",
        "postcode": null,
        "country": "Sierra Leone",
        "country_code": "sl"
      },
      "address": "New London, Makeni, Bombali District, Sierra Leone"
    },
    {
      "lat": 8.882802780250984,
      "lon": -12.038200116205775,
      "geoinfo": {
        "display_name": "Conteh Street, Robani, Makeni, Bombali District, Northern Province, Sierra Leone, Sierra Leone",
        "road": "Conteh Street",
        "house_number": null,
        "neighbourhood": null,
        "suburb": "Robani",
        "city_district": null,
        "city": "Makeni",
        "state": "Bombali District",
        "postcode": null,
        "country": "Sierra Leone",
        "country_code": "sl"
      },
      "address": "Conteh Street, Makeni, Bombali District, Sierra Leone"
    },
    {
      "lat": 8.902118075739882,
      "lon": -12.035150548942706,
      "geoinfo": {
        "display_name": "Kabala Highway, Mankane, Binkolo, Bombali District, Northern Province, Sierra Leone, Sierra Leone",
        "road": "Kabala Highway",
        "house_number": null,
        "neighbourhood": null,
        "suburb": null,
        "city_district": null,
        "city": "Binkolo",
        "state": "Bombali District",
        "postcode": null,
        "country": "Sierra Leone",
        "country_code": "sl"
      },
      "address": "Kabala Highway, Makeni, Bombali District, Sierra Leone"
    },
    {
      "lat": 8.899404268109269,
      "lon": -12.047988214789322,
      "geoinfo": {
        "display_name": "Water Rocks Road, New London, Robani, Makeni, Bombali District, Northern Province, Sierra Leone, Sierra Leone",
        "road": "Water Rocks Road",
        "house_number": null,
        "neighbourhood": "New London",
        "suburb": "Robani",
        "city_district": null,
        "city": "Makeni",
        "state": "Bombali District",
        "postcode": null,
        "country": "Sierra Leone",
        "country_code": "sl"
      },
      "address": "Water Rocks Road, Makeni, Bombali District, Sierra Leone"
    },
    {
      "lat": 8.855383341016179,
      "lon": -12.05186298161324,
      "geoinfo": {
        "display_name": "Makama, Makeni, Bombali District, Northern Province, Sierra Leone, Sierra Leone",
        "road": null,
        "house_number": null,
        "neighbourhood": null,
        "suburb": "Makama",
        "city_district": null,
        "city": "Makeni",
        "state": "Bombali District",
        "postcode": null,
        "country": "Sierra Leone",
        "country_code": "sl"
      },
      "address": "Makama, Makeni, Bombali District, Sierra Leone"
    },
    {
      "lat": 8.906448063515647,
      "lon": -12.028095956211809,
      "geoinfo": {
        "display_name": "Spar Drive, Mankane, Makeni, Bombali District, Northern Province, Sierra Leone, Sierra Leone",
        "road": "Spar Drive",
        "house_number": null,
        "neighbourhood": null,
        "suburb": null,
        "city_district": null,
        "city": "Makeni",
        "state": "Bombali District",
        "postcode": null,
        "country": "Sierra Leone",
        "country_code": "sl"
      },
      "address": "Spar Drive, Makeni, Bombali District, Sierra Leone"
    },
    {
      "lat": 8.905419670202571,
      "lon": -12.013593333263263,
      "geoinfo": {
        "display_name": "Robani, Makeni, Bombali District, Northern Province, Sierra Leone, Sierra Leone",
        "road": null,
        "house_number": null,
        "neighbourhood": null,
        "suburb": "Robani",
        "city_district": null,
        "city": "Makeni",
        "state": "Bombali District",
        "postcode": null,
        "country": "Sierra Leone",
        "country_code": "sl"
      },
      "address": "583, Robani, Makeni, Bombali District, Northern Province, 76603 Sierra Leone, Sierra Leone"
    },
    {
      "lat": 8.903078669416077,
      "lon": -12.070734352194266,
      "geoinfo": {
        "display_name": "Makeni, Bombali District, Northern Province, Sierra Leone, Sierra Leone",
        "road": null,
        "house_number": null,
        "neighbourhood": null,
        "suburb": null,
        "city_district": null,
        "city": "Makeni",
        "state": "Bombali District",
        "postcode": null,
        "country": "Sierra Leone",
        "country_code": "sl"
      },
      "address": "064, Makeni, Bombali District, Northern Province, 56810 Sierra Leone, Sierra Leone"
    },
    {
      "lat": 8.879140659563314,
      "lon": -12.017172489402538,
      "geoinfo": {
        "display_name": "Teko Road, Buia, Makeni, Bombali District, Northern Province, Sierra Leone, Sierra Leone",
        "road": "Teko Road",
        "house_number": null,
        "neighbourhood": null,
        "suburb": null,
        "city_district": null,
        "city": "Makeni",
        "state": "Bombali District",
        "postcode": null,
        "country": "Sierra Leone",
        "country_code": "sl"
      },
      "address": "234, Teko Road, Buia, Makeni, Bombali District, Northern Province, 44947 Sierra Leone, Sierra Leone"
    },
    {
      "lat": 8.849632711402272,
      "lon": -12.021487296654673,
      "geoinfo": {
        "display_name": "Teko, Bombali District, Northern Province, Sierra Leone, Sierra Leone",
        "road": null,
        "house_number": null,
        "neighbourhood": null,
        "suburb": null,
        "city_district": null,
        "city": "Teko",
        "state": "Bombali District",
        "postcode": null,
        "country": "Sierra Leone",
        "country_code": "sl"
      },
      "address": "830, Makeni, 17408 Bombali District, Sierra Leone"
    },
    {
      "lat": 8.91569037985994,
      "lon": -12.07816847300453,
      "geoinfo": {
        "display_name": "Makeni, Bombali District, Northern Province, Sierra Leone, Sierra Leone",
        "road": null,
        "house_number": null,
        "neighbourhood": null,
        "suburb": null,
        "city_district": null,
        "city": "Makeni",
        "state": "Bombali District",
        "postcode": null,
        "country": "Sierra Leone",
        "country_code": "sl"
      },
      "address": "898, Makeni, Bombali District, Northern Province, 59614 Sierra Leone, Sierra Leone"
    },
    {
      "lat": 8.865765531800827,
      "lon": -12.020833091184612,
      "geoinfo": {
        "display_name": "Makeni, Bombali District, Northern Province, Sierra Leone, Sierra Leone",
        "road": null,
        "house_number": null,
        "neighbourhood": null,
        "suburb": null,
        "city_district": null,
        "city": "Makeni",
        "state": "Bombali District",
        "postcode": null,
        "country": "Sierra Leone",
        "country_code": "sl"
      },
      "address": "476, Makeni, Bombali District, Northern Province, 76886 Sierra Leone, Sierra Leone"
    },
    {
      "lat": 8.887117566893627,
      "lon": -11.999321531028569,
      "geoinfo": {
        "display_name": "Our Lay Of Fatima school-fo, Teko Road, Buia, Makeni, Bombali District, Northern Province, Sierra Leone, Sierra Leone",
        "road": "Teko Road",
        "house_number": null,
        "neighbourhood": null,
        "suburb": null,
        "city_district": null,
        "city": "Makeni",
        "state": "Bombali District",
        "postcode": null,
        "country": "Sierra Leone",
        "country_code": "sl"
      },
      "address": "157, Teko Road, Makeni, 65365 Bombali District, Sierra Leone"
    },
    {
      "lat": 8.846078078186173,
      "lon": -12.042213549630743,
      "geoinfo": {
        "display_name": "Makeni, Bombali District, Northern Province, Sierra Leone, Sierra Leone",
        "road": null,
        "house_number": null,
        "neighbourhood": null,
        "suburb": null,
        "city_district": null,
        "city": "Makeni",
        "state": "Bombali District",
        "postcode": null,
        "country": "Sierra Leone",
        "country_code": "sl"
      },
      "address": "108, Makeni, Bombali District, Northern Province, 90531 Sierra Leone, Sierra Leone"
    }
  ],
  "updated_at": "2025-10-19T09:59:57.471173+00:00",
  "_kind": "geo_samples"
}