{
  "country_code": "SL",
  "country": "Sierra Leone",
  "city": "Njala",
  "geonameid": 2404837,
  "target_addresses": 8,
  "samples": [
    {
      "lat": 8.262373798495203,
      "lon": -12.022140766603924,
      "geoinfo": {
        "display_name": "Taiama, Moyamba District, Sierra Leone",
        "road": null,
        "house_number": null,
        "neighbourhood": null,
        "suburb": null,
        "city_district": null,
        "city": "Taiama",
        "state": "Moyamba District",
        "postcode": null,
        "country": "Sierra Leone",
        "country_code": "sl"
      },
      "address": "Njala, Moyamba District, Sierra Leone"
    },
    {
      "lat": 8.196114746833771,
      "lon": -12.036113572144096,
      "geoinfo": {
        "display_name": "Yonibana-Bo, Taiama, Moyamba District, Sierra Leone",
        "road": "Yonibana-Bo",
        "house_number": null,
        "neighbourhood": null,
        "suburb": null,
        "city_district": null,
        "city": "Taiama",
        "state": "Moyamba District",
        "postcode": null,
        "country": "Sierra Leone",
        "country_code": "sl"
      },
      "address": "371, Yonibana-Bo, Njala, 14574 Moyamba District, Sierra Leone"
    },
    {
      "lat": 8.231256936156571,
      "lon": -12.051264994061874,
      "geoinfo": {
        "display_name": "Vaama, Moyamba District, Sierra Leone",
        "road": null,
        "house_number": null,
        "neighbourhood": null,
        "suburb": null,
        "city_district": null,
        "city": null,
        "state": "Moyamba District",
        "postcode": null,
        "country": "Sierra Leone",
        "country_code": "sl"
      },
      "address": "626, Njala, 58564 Moyamba District, Sierra Leone"
    },
    {
      "lat": 8.210041933766375,
      "lon": -11.998109776305423,
      "geoinfo": {
        "display_name": "Foinda, Moyamba District, Sierra Leone",
        "road": null,
        "house_number": null,
        "neighbourhood": null,
        "suburb": null,
        "city_district": null,
        "city": null,
        "state": "Moyamba District",
        "postcode": null,
        "country": "Sierra Leone",
        "country_code": "sl"
      },
      "address": "495, Njala, 92772 Moyamba District, Sierra Leone"
    },
    {
      "lat": 8.238291404593733,
      "lon": -12.018539981858693,
      "geoinfo": {
        "display_name": "Njala, Moyamba District, Sierra Leone",
        "road": null,
        "house_number": null,
        "neighbourhood": null,
        "suburb": null,
        "city_district": null,
        "city": null,
        "state": "Moyamba District",
        "postcode": null,
        "country": "Sierra Leone",
        "country_code": "sl"
      },
      "address": "610, Njala, 20293 Moyamba District, Sierra Leone"
    },
    {
      "lat": 8.20168681718271,
      "lon": -12.04600062212001,
      "geoinfo": {
        "display_name": "Mokoli, Taiama, Moyamba District, Sierra Leone",
        "road": null,
        "house_number": null,
        "neighbourhood": null,
        "suburb": null,
        "city_district": null,
        "city": "Taiama",
        "state": "Moyamba District",
        "postcode": null,
        "country": "Sierra Leone",
        "country_code": "sl"
      },
      "address": "286, Njala, 51732 Moyamba District, Sierra Leone"
    },
    {
      "lat": 8.2235493814124,
      "lon": -12.00592392206918,
      "geoinfo": {
        "display_name": "Kowehun, Moyamba District, Sierra Leone",
        "road": null,
        "house_number": null,
        "neighbourhood": null,
        "suburb": null,
        "city_district": null,
        "city": null,
        "state": "Moyamba District",
        "postcode": null,
        "country": "Sierra Leone",
        "country_code": "sl"
      },
      "address": "964, Njala, 96172 Moyamba District, Sierra Leone"
    },
    {
      "lat": 8.21908552248238,
      "lon": -12.0540225886225,
      "geoinfo": {
        "display_name": "Taiama, Moyamba District, Sierra Leone",
        "road": null,
        "house_number": null,
        "neighbourhood": null,
        "suburb": null,
        "city_district": null,
        "city": "Taiama",
        "state": "Moyamba District",
        "postcode": null,
        "country": "Sierra Leone",
        "country_code": "sl"
      },
      "address": "044, Njala, 87687 Moyamba District, Sierra Leone"
    },
    {
      "lat": 8.217907497272364,
      "lon": -12.007351066247722,
      "geoinfo": {
        "display_name": "Kowehun, Moyamba District, Sierra Leone",
        "road": null,
        "house_number": null,
        "neighbourhood": null,
        "suburb": null,
        "city_district": null,
        "city": null,
        "state": "Moyamba District",
        "postcode": null,
        "country": "Sierra Leone",
        "country_code": "sl"
      },
      "address": "926, Njala, 95342 Moyamba District, Sierra Leone"
    }
  ],
  "updated_at": "2025-10-19T09:59:07.035603+00:00",
  "_kind": "geo_samples"
}