{
  "country_code": "BG",
  "country": "Bulgaria",
  "city": "Burgas",
  "geonameid": 732770,
  "target_addresses": 10,
  "samples": [
    {
      "lat": 42.50170061069503,
      "lon": 27.433336074455013,
      "geoinfo": {
        "display_name": "kv. Akaciite, Burgas, 8002, Bulgaria",
        "road": null,
        "house_number": null,
        "neighbourhood": null,
        "suburb": "kv. Akaciite",
        "city_district": null,
        "city": "Burgas",
        "state": "Burgas",
        "postcode": "8002",
        "country": "Bulgaria",
        "country_code": "bg"
      },
      "address": "kv. Akaciite, Burgas, Burgas, Bulgaria"
    },
    {
      "lat": 42.525795687704274,
      "lon": 27.455525410462766,
      "geoinfo": {
        "display_name": "бл. 4, ж.к Изгрев, Izgrev, Burgas, 8000, Bulgaria",
        "road": null,
        "house_number": "бл. 4",
        "neighbourhood": null,
        "suburb": "Izgrev",
        "city_district": null,
        "city": "Burgas",
        "state": "Burgas",
        "postcode": "8000",
        "country": "Bulgaria",
        "country_code": "bg"
      },
      "address": "Izgrev, Burgas, Burgas, Bulgaria"
    },
    {
      "lat": 42.506383948260044,
      "lon": 27.48838209632434,
      "geoinfo": {
        "display_name": "Остров Бали, Kraybrezhna Aleya, Lazur, Burgas, 8001, Bulgaria",
        "road": "Kraybrezhna Aleya",
        "house_number": null,
        "neighbourhood": null,
        "suburb": "Lazur",
        "city_district": null,
        "city": "Burgas",
        "state": "Burgas",
        "postcode": "8001",
        "country": "Bulgaria",
        "country_code": "bg"
      },
      "address": "Kraybrezhna Aleya, Burgas, 40485 Burgas, Bulgaria"
    },
    {
      "lat": 42.53506561506548,
      "lon": 27.504105409074736,
      "geoinfo": {
        "display_name": "кв. Сарафово, Burgas, 8016, Bulgaria",
        "road": null,
        "house_number": null,
        "neighbourhood": null,
        "suburb": "кв. Сарафово",
        "city_district": null,
        "city": "Burgas",
        "state": "Burgas",
        "postcode": "8016",
        "country": "Bulgaria",
        "country_code": "bg"
      },
      "address": "кв. Сарафово, Burgas, 05195 Burgas, Bulgaria"
    },
    {
      "lat": 42.513418966437094,
      "lon": 27.506646999766733,
      "geoinfo": {
        "display_name": "Lazur, Burgas, 8001, Bulgaria",
        "road": null,
        "house_number": null,
        "neighbourhood": null,
        "suburb": "Lazur",
        "city_district": null,
        "city": "Burgas",
        "state": "Burgas",
        "postcode": "8001",
        "country": "Bulgaria",
        "country_code": "bg"
      },
      "address": "465, Lazur, Burgas, 8001 Burgas, Bulgaria"
    },
    {
      "lat": 42.48585494657903,
      "lon": 27.463416410566015,
      "geoinfo": {
        "display_name": "Ivan Vazov Blvd, Vazrazhdane, Burgas, 8000, Bulgaria",
        "road": "Ivan Vazov Blvd",
        "house_number": null,
        "neighbourhood": null,
        "suburb": "Vazrazhdane",
        "city_district": null,
        "city": "Burgas",
        "state": "Burgas",
        "postcode": "8000",
        "country": "Bulgaria",
        "country_code": "bg"
      },
      "address": "774, Ivan Vazov Blvd, Vazrazhdane, Burgas, 8000, Bulgaria"
    },
    {
      "lat": 42.509520073713915,
      "lon": 27.429842558269964,
      "geoinfo": {
        "display_name": "Krayezerna, Industrial Zone - North, Burgas, 8010, Bulgaria",
        "road": "Krayezerna",
        "house_number": null,
        "neighbourhood": null,
        "suburb": "Industrial Zone - North",
        "city_district": null,
        "city": "Burgas",
        "state": "Burgas",
        "postcode": "8010",
        "country": "Bulgaria",
        "country_code": "bg"
      },
      "address": "759, Krayezerna, Burgas, 8010 Burgas, Bulgaria"
    },
    {
      "lat": 42.47406252427242,
      "lon": 27.472427428938794,
      "geoinfo": {
        "display_name": "нос Форос, Burgas, 8014, Bulgaria",
        "road": null,
        "house_number": null,
        "neighbourhood": null,
        "suburb": null,
        "city_district": null,
        "city": "Burgas",
        "state": "Burgas",
        "postcode": "8014",
        "country": "Bulgaria",
        "country_code": "bg"
      },
      "address": "806, нос Форос, Burgas, 8014, Bulgaria"
    },
    {
      "lat": 42.53248369499966,
      "lon": 27.511156178921976,
      "geoinfo": {
        "display_name": "кв. Сарафово, Burgas, 8016, Bulgaria",
        "road": null,
        "house_number": null,
        "neighbourhood": null,
        "suburb": "кв. Сарафово",
        "city_district": null,
        "city": "Burgas",
        "state": "Burgas",
        "postcode": "8016",
        "country": "Bulgaria",
        "country_code": "bg"
      },
      "address": "506, кв. Сарафово, Burgas, 8016, Bulgaria"
    },
    {
      "lat": 42.53310165604278,
      "lon": 27.50884835723017,
      "geoinfo": {
        "display_name": "кв. Сарафово, Burgas, 8016, Bulgaria",
        "road": null,
        "house_number": null,
        "neighbourhood": null,
        "suburb": "кв. Сарафово",
        "city_district": null,
        "city": "Burgas",
        "state": "Burgas",
        "postcode": "8016",
        "country": "Bulgaria",
        "country_code": "bg"
      },
      "address": "800, кв. Сарафово, Burgas, 8016, Bulgaria"
    }
  ],
  "updated_at": "2025-10-19T03:27:21.565748+00:00",
  "_kind": "geo_samples"
}