{
  "country_code": "BG",
  "country": "Bulgaria",
  "city": "Kazanlak",
  "geonameid": 730496,
  "target_addresses": 2,
  "samples": [
    {
      "lat": 42.61570148668945,
      "lon": 25.42783611899133,
      "geoinfo": {
        "display_name": "5;6, Kazanlak, Stara Zagora, 6102, Bulgaria",
        "road": "5;6",
        "house_number": null,
        "neighbourhood": null,
        "suburb": null,
        "city_district": null,
        "city": "Kazanlak",
        "state": "Stara Zagora",
        "postcode": "6102",
        "country": "Bulgaria",
        "country_code": "bg"
      },
      "address": "5;6, Kazanlak, Stara Zagora, Bulgaria"
    },
    {
      "lat": 42.595134654095745,
      "lon": 25.43799341286703,
      "geoinfo": {
        "display_name": "Ovoshtnik, Kazanlak, Stara Zagora, Bulgaria",
        "road": null,
        "house_number": null,
        "neighbourhood": null,
        "suburb": null,
        "city_district": null,
        "city": "Ovoshtnik",
        "state": "Stara Zagora",
        "postcode": null,
        "country": "Bulgaria",
        "country_code": "bg"
      },
      "address": "Kazanlak, Stara Zagora, Bulgaria"
    },
    {
      "lat": 42.58870090643558,
      "lon": 25.385230559811486,
      "geoinfo": {
        "display_name": "Арсенал, Kazanlak, Stara Zagora, Bulgaria",
        "road": null,
        "house_number": null,
        "neighbourhood": null,
        "suburb": null,
        "city_district": null,
        "city": "Kazanlak",
        "state": "Stara Zagora",
        "postcode": null,
        "country": "Bulgaria",
        "country_code": "bg"
      },
      "address": "058, Арсенал, Kazanlak, 60404 Stara Zagora, Bulgaria"
    },
    {
      "lat": 42.61934191775526,
      "lon": 25.38311055820014,
      "geoinfo": {
        "display_name": "102, 23-ти пехотен шипченски полк, ж.к. Васил Левски, Kazanlak, Stara Zagora, 6100, Bulgaria",
        "road": "23-ти пехотен шипченски полк",
        "house_number": "102",
        "neighbourhood": "ж.к. Васил Левски",
        "suburb": null,
        "city_district": null,
        "city": "Kazanlak",
        "state": "Stara Zagora",
        "postcode": "6100",
        "country": "Bulgaria",
        "country_code": "bg"
      },
      "address": "102, 23-ти пехотен шипченски полк, ж.к. Васил Левски, Kazanlak, Stara Zagora, 6100, Bulgaria"
    }
  ],
  "updated_at": "2025-10-19T02:46:32.129511+00:00",
  "_kind": "geo_samples"
}