{
  "country_code": "BG",
  "country": "Bulgaria",
  "city": "Pleven",
  "geonameid": 728203,
  "target_addresses": 2,
  "samples": [
    {
      "lat": 43.37863297563532,
      "lon": 24.64715849069668,
      "geoinfo": {
        "display_name": "Вилна зона, Strazha, Pleven, 5703, Bulgaria",
        "road": null,
        "house_number": null,
        "neighbourhood": null,
        "suburb": null,
        "city_district": null,
        "city": "Pleven",
        "state": "Pleven",
        "postcode": "5703",
        "country": "Bulgaria",
        "country_code": "bg"
      },
      "address": "Pleven, Pleven, Bulgaria"
    },
    {
      "lat": 43.40447193617619,
      "lon": 24.65608094433785,
      "geoinfo": {
        "display_name": "Druzhba 3, zhk. Druzhba, Pleven, 5703, Bulgaria",
        "road": null,
        "house_number": null,
        "neighbourhood": "Druzhba 3",
        "suburb": "zhk. Druzhba",
        "city_district": null,
        "city": "Pleven",
        "state": "Pleven",
        "postcode": "5703",
        "country": "Bulgaria",
        "country_code": "bg"
      },
      "address": "Druzhba 3, Pleven, Pleven, Bulgaria"
    },
    {
      "lat": 43.460192499308214,
      "lon": 24.607952577872503,
      "geoinfo": {
        "display_name": "Pleven, 5839, Bulgaria",
        "road": null,
        "house_number": null,
        "neighbourhood": null,
        "suburb": null,
        "city_district": null,
        "city": "Pleven",
        "state": "Pleven",
        "postcode": "5839",
        "country": "Bulgaria",
        "country_code": "bg"
      },
      "address": "091, Pleven, 5839 Pleven, Bulgaria"
    },
    {
      "lat": 43.43018694059428,
      "lon": 24.615731109151017,
      "geoinfo": {
        "display_name": "3, zhk. Storgozia, Pleven, 5803, Bulgaria",
        "road": "3",
        "house_number": null,
        "neighbourhood": null,
        "suburb": "zhk. Storgozia",
        "city_district": null,
        "city": "Pleven",
        "state": "Pleven",
        "postcode": "5803",
        "country": "Bulgaria",
        "country_code": "bg"
      },
      "address": "3, zhk. Storgozia, Pleven, 5803, Bulgaria"
    }
  ],
  "updated_at": "2025-10-19T01:04:10.960886+00:00",
  "_kind": "geo_samples"
}