{
  "country_code": "BG",
  "country": "Bulgaria",
  "city": "Sliven",
  "geonameid": 727079,
  "target_addresses": 2,
  "samples": [
    {
      "lat": 42.71275409540882,
      "lon": 26.32337075792981,
      "geoinfo": {
        "display_name": "Old bara, SLV2061, Селището, кв. Република, Sliven, 8802, Bulgaria",
        "road": "SLV2061",
        "house_number": null,
        "neighbourhood": null,
        "suburb": "кв. Република",
        "city_district": null,
        "city": "Sliven",
        "state": "Sliven",
        "postcode": "8802",
        "country": "Bulgaria",
        "country_code": "bg"
      },
      "address": "SLV2061, Sliven, Sliven, Bulgaria"
    },
    {
      "lat": 42.69279087300587,
      "lon": 26.339264012804307,
      "geoinfo": {
        "display_name": "м. Градището, кв. Българка, Sliven, 8802, Bulgaria",
        "road": null,
        "house_number": null,
        "neighbourhood": null,
        "suburb": "кв. Българка",
        "city_district": null,
        "city": "Sliven",
        "state": "Sliven",
        "postcode": "8802",
        "country": "Bulgaria",
        "country_code": "bg"
      },
      "address": "кв. Българка, Sliven, Sliven, Bulgaria"
    },
    {
      "lat": 42.69723560721014,
      "lon": 26.35593367003853,
      "geoinfo": {
        "display_name": "Andreeva Cheshma, Villa Zone Sliven, Sliven, 8800, Bulgaria",
        "road": null,
        "house_number": null,
        "neighbourhood": null,
        "suburb": "Villa Zone Sliven",
        "city_district": null,
        "city": "Sliven",
        "state": "Sliven",
        "postcode": "8800",
        "country": "Bulgaria",
        "country_code": "bg"
      },
      "address": "348, Andreeva Cheshma, Villa Zone Sliven, Sliven, 8800, Bulgaria"
    },
    {
      "lat": 42.69147606823466,
      "lon": 26.30182997427866,
      "geoinfo": {
        "display_name": "Сross, Път към кръста (45 мин), кв. Комлука, Sliven, 8801, Bulgaria",
        "road": "Път към кръста (45 мин)",
        "house_number": null,
        "neighbourhood": null,
        "suburb": "кв. Комлука",
        "city_district": null,
        "city": "Sliven",
        "state": "Sliven",
        "postcode": "8801",
        "country": "Bulgaria",
        "country_code": "bg"
      },
      "address": "Сross, Път към кръста (45 мин), кв. Комлука, Sliven, 8801, Bulgaria"
    }
  ],
  "updated_at": "2025-10-19T02:58:32.500169+00:00",
  "_kind": "geo_samples"
}