{
  "country_code": "BG",
  "country": "Bulgaria",
  "city": "Troyan",
  "geonameid": 726320,
  "target_addresses": 10,
  "samples": [
    {
      "lat": 42.921546581439216,
      "lon": 24.670078152907205,
      "geoinfo": {
        "display_name": "Kaleytsa, Troyan, Lovech, 5615, Bulgaria",
        "road": null,
        "house_number": null,
        "neighbourhood": null,
        "suburb": null,
        "city_district": null,
        "city": "Kaleytsa",
        "state": "Lovech",
        "postcode": "5615",
        "country": "Bulgaria",
        "country_code": "bg"
      },
      "address": "Troyan, Lovech, Bulgaria"
    },
    {
      "lat": 42.89410443838723,
      "lon": 24.691729997118735,
      "geoinfo": {
        "display_name": "LOV1137, Гъбарска махала, Gabarska, Balabansko, Troyan, Lovech, 5600, Bulgaria",
        "road": "LOV1137",
        "house_number": null,
        "neighbourhood": "Гъбарска махала",
        "suburb": null,
        "city_district": null,
        "city": "Balabansko",
        "state": "Lovech",
        "postcode": "5600",
        "country": "Bulgaria",
        "country_code": "bg"
      },
      "address": "LOV1137, Troyan, Lovech, Bulgaria"
    },
    {
      "lat": 42.882557843017,
      "lon": 24.769241535275466,
      "geoinfo": {
        "display_name": "Родно изкуство, Stara planina, Раков дол, Oreshak, Troyan, Lovech, 5630, Bulgaria",
        "road": "Stara planina",
        "house_number": null,
        "neighbourhood": "Раков дол",
        "suburb": null,
        "city_district": null,
        "city": "Oreshak",
        "state": "Lovech",
        "postcode": "5630",
        "country": "Bulgaria",
        "country_code": "bg"
      },
      "address": "Stara planina, Troyan, 72073 Lovech, Bulgaria"
    },
    {
      "lat": 42.897174698439265,
      "lon": 24.74369933659284,
      "geoinfo": {
        "display_name": "357, Хитровска, Troyan, Lovech, 5600, Bulgaria",
        "road": "357",
        "house_number": null,
        "neighbourhood": "Хитровска",
        "suburb": null,
        "city_district": null,
        "city": "Troyan",
        "state": "Lovech",
        "postcode": "5600",
        "country": "Bulgaria",
        "country_code": "bg"
      },
      "address": "357, Troyan, 02444 Lovech, Bulgaria"
    },
    {
      "lat": 42.89490023697775,
      "lon": 24.67744020569292,
      "geoinfo": {
        "display_name": "Гъбарска махала, Balabansko, Troyan, Lovech, 5601, Bulgaria",
        "road": null,
        "house_number": null,
        "neighbourhood": "Гъбарска махала",
        "suburb": null,
        "city_district": null,
        "city": "Balabansko",
        "state": "Lovech",
        "postcode": "5601",
        "country": "Bulgaria",
        "country_code": "bg"
      },
      "address": "778, Гъбарска махала, Balabansko, Troyan, Lovech, 5601, Bulgaria"
    },
    {
      "lat": 42.93114383525489,
      "lon": 24.716563847477513,
      "geoinfo": {
        "display_name": "Селището, Belish, Troyan, Lovech, 5600, Bulgaria",
        "road": null,
        "house_number": null,
        "neighbourhood": null,
        "suburb": null,
        "city_district": null,
        "city": "Belish",
        "state": "Lovech",
        "postcode": "5600",
        "country": "Bulgaria",
        "country_code": "bg"
      },
      "address": "434, Селището, Belish, Troyan, Lovech, 5600, Bulgaria"
    },
    {
      "lat": 42.89527193102046,
      "lon": 24.763559312354133,
      "geoinfo": {
        "display_name": "Иван Павлов, Раков дол, Oreshak, Troyan, Lovech, 5630, Bulgaria",
        "road": "Иван Павлов",
        "house_number": null,
        "neighbourhood": "Раков дол",
        "suburb": null,
        "city_district": null,
        "city": "Oreshak",
        "state": "Lovech",
        "postcode": "5630",
        "country": "Bulgaria",
        "country_code": "bg"
      },
      "address": "210, Иван Павлов, Раков дол, Oreshak, Troyan, Lovech, 5630, Bulgaria"
    },
    {
      "lat": 42.9128950845463,
      "lon": 24.734104506941808,
      "geoinfo": {
        "display_name": "Belish, Troyan, Lovech, Bulgaria",
        "road": null,
        "house_number": null,
        "neighbourhood": null,
        "suburb": null,
        "city_district": null,
        "city": "Belish",
        "state": "Lovech",
        "postcode": null,
        "country": "Bulgaria",
        "country_code": "bg"
      },
      "address": "936, Belish, Troyan, 93863 Lovech, Bulgaria"
    },
    {
      "lat": 42.87600588560332,
      "lon": 24.731809689336913,
      "geoinfo": {
        "display_name": "Neycho Voyvoda, Босевска, Troyan, Lovech, 5600, Bulgaria",
        "road": "Neycho Voyvoda",
        "house_number": null,
        "neighbourhood": "Босевска",
        "suburb": null,
        "city_district": null,
        "city": "Troyan",
        "state": "Lovech",
        "postcode": "5600",
        "country": "Bulgaria",
        "country_code": "bg"
      },
      "address": "116, Neycho Voyvoda, Босевска, Troyan, Lovech, 5600, Bulgaria"
    },
    {
      "lat": 42.859265358492706,
      "lon": 24.71217432496827,
      "geoinfo": {
        "display_name": "м. Ненковото - Черешов дял, Troyan, Lovech, 5601, Bulgaria",
        "road": "м. Ненковото - Черешов дял",
        "house_number": null,
        "neighbourhood": null,
        "suburb": null,
        "city_district": null,
        "city": "Troyan",
        "state": "Lovech",
        "postcode": "5601",
        "country": "Bulgaria",
        "country_code": "bg"
      },
      "address": "022, м. Ненковото - Черешов дял, Troyan, Lovech, 5601, Bulgaria"
    }
  ],
  "updated_at": "2025-10-19T03:26:17.134440+00:00",
  "_kind": "geo_samples"
}