{
  "country_code": "NG",
  "country": "Nigeria",
  "city": "Inisa",
  "geonameid": 2337490,
  "target_addresses": 3,
  "samples": [
    {
      "lat": 7.8682781359133305,
      "lon": 4.307090097875419,
      "geoinfo": {
        "display_name": "Isundunrin, Ejigbo, Osun State, Nigeria",
        "road": null,
        "house_number": null,
        "neighbourhood": null,
        "suburb": null,
        "city_district": null,
        "city": "Ejigbo",
        "state": "Osun State",
        "postcode": null,
        "country": "Nigeria",
        "country_code": "ng"
      },
      "address": "Inisa, Osun State, Nigeria"
    },
    {
      "lat": 7.874686660902267,
      "lon": 4.366517616574529,
      "geoinfo": {
        "display_name": "Ogo Oluwa, Oyo State, Nigeria",
        "road": null,
        "house_number": null,
        "neighbourhood": null,
        "suburb": null,
        "city_district": null,
        "city": null,
        "state": "Oyo State",
        "postcode": null,
        "country": "Nigeria",
        "country_code": "ng"
      },
      "address": "120, Ogo Oluwa, 76582 Oyo State, Nigeria"
    },
    {
      "lat": 7.866310291018708,
      "lon": 4.319844758667422,
      "geoinfo": {
        "display_name": "Ejigbo, Osun State, 232118, Nigeria",
        "road": null,
        "house_number": null,
        "neighbourhood": null,
        "suburb": null,
        "city_district": null,
        "city": "Ejigbo",
        "state": "Osun State",
        "postcode": "232118",
        "country": "Nigeria",
        "country_code": "ng"
      },
      "address": "698, Ejigbo, Osun State, 232118, Nigeria"
    }
  ],
  "updated_at": "2025-10-19T05:56:52.158559+00:00",
  "_kind": "geo_samples"
}