{
  "country_code": "GI",
  "country": "Gibraltar",
  "city": "Gibraltar",
  "geonameid": 2411585,
  "target_addresses": 100,
  "samples": [
    {
      "lat": 36.119949462933214,
      "lon": -5.377652975760467,
      "geoinfo": {
        "display_name": "South Mole, Gibraltar, GX11 1AA, Gibraltar",
        "road": null,
        "house_number": null,
        "neighbourhood": null,
        "suburb": null,
        "city_district": null,
        "city": "Gibraltar",
        "state": null,
        "postcode": "GX11 1AA",
        "country": "Gibraltar",
        "country_code": "gi"
      },
      "address": "Gibraltar, Gibraltar"
    },
    {
      "lat": 36.15914620680421,
      "lon": -5.318459285091154,
      "geoinfo": {
        "display_name": "El Zabal Bajo, La Línea de la Concepción, Campo de Gibraltar, Cádiz, Andalusia, 11315, Spain",
        "road": null,
        "house_number": null,
        "neighbourhood": null,
        "suburb": null,
        "city_district": null,
        "city": "La Línea de la Concepción",
        "state": "Andalusia",
        "postcode": "11315",
        "country": "Spain",
        "country_code": "es"
      },
      "address": "Gibraltar, Andalusia, Gibraltar"
    },
    {
      "lat": 36.18420030918678,
      "lon": -5.368909853225586,
      "geoinfo": {
        "display_name": "Avenida de Granada, Polígono Industrial Incosur, Campamento, San Roque, Campo de Gibraltar, Cádiz, Andalusia, 11314, Spain",
        "road": "Avenida de Granada",
        "house_number": null,
        "neighbourhood": null,
        "suburb": null,
        "city_district": null,
        "city": "San Roque",
        "state": "Andalusia",
        "postcode": "11314",
        "country": "Spain",
        "country_code": "es"
      },
      "address": "Avenida de Granada, Gibraltar, Andalusia, Gibraltar"
    },
    {
      "lat": 36.170142278823036,
      "lon": -5.331851014698875,
      "geoinfo": {
        "display_name": "Paseo del Mediterráneo, San Bernardo, La Línea de la Concepción, Campo de Gibraltar, Cádiz, Andalusia, 11300, Spain",
        "road": "Paseo del Mediterráneo",
        "house_number": null,
        "neighbourhood": "San Bernardo",
        "suburb": null,
        "city_district": null,
        "city": "La Línea de la Concepción",
        "state": "Andalusia",
        "postcode": "11300",
        "country": "Spain",
        "country_code": "es"
      },
      "address": "Paseo del Mediterráneo, Gibraltar, Andalusia, Gibraltar"
    },
    {
      "lat": 36.1838943437834,
      "lon": -5.329418216142904,
      "geoinfo": {
        "display_name": "Puerto Pesquero de La Atunara, Calle Canarias, La Línea de la Concepción, La Atunara, El Zabal Bajo, La Línea de la Concepción, Campo de Gibraltar, Cádiz, Andalusia, 11300, Spain",
        "road": "Calle Canarias",
        "house_number": null,
        "neighbourhood": "La Atunara",
        "suburb": null,
        "city_district": null,
        "city": "La Línea de la Concepción",
        "state": "Andalusia",
        "postcode": "11300",
        "country": "Spain",
        "country_code": "es"
      },
      "address": "Calle Canarias, Gibraltar, Andalusia, Gibraltar"
    },
    {
      "lat": 36.17357060954206,
      "lon": -5.345539112191746,
      "geoinfo": {
        "display_name": "45-75, Calle Arenal, La Línea de la Concepción, Barriada Manuel de Falla, El Zabal Bajo, La Línea de la Concepción, Campo de Gibraltar, Cádiz, Andalusia, 11300, Spain",
        "road": "Calle Arenal",
        "house_number": "45-75",
        "neighbourhood": "Barriada Manuel de Falla",
        "suburb": null,
        "city_district": null,
        "city": "La Línea de la Concepción",
        "state": "Andalusia",
        "postcode": "11300",
        "country": "Spain",
        "country_code": "es"
      },
      "address": "45-75 Calle Arenal, Gibraltar, Andalusia, Gibraltar"
    },
    {
      "lat": 36.162187885566475,
      "lon": -5.349368481655727,
      "geoinfo": {
        "display_name": "Multiópticas, 16, Calle San Pablo, La Línea de la Concepción, Santiago, La Línea de la Concepción, Campo de Gibraltar, Cádiz, Andalusia, 11300, Spain",
        "road": "Calle San Pablo",
        "house_number": "16",
        "neighbourhood": "Santiago",
        "suburb": null,
        "city_district": null,
        "city": "La Línea de la Concepción",
        "state": "Andalusia",
        "postcode": "11300",
        "country": "Spain",
        "country_code": "es"
      },
      "address": "16 Calle San Pablo, Gibraltar, Andalusia, Gibraltar"
    },
    {
      "lat": 36.167843386268004,
      "lon": -5.3581148881351,
      "geoinfo": {
        "display_name": "Barriada Sagrado Corazón de Jesús (Zona 3), La Línea de la Concepción, Barriada Manuel de Falla, La Línea de la Concepción, Campo de Gibraltar, Cádiz, Andalusia, 11300, Spain",
        "road": "Barriada Sagrado Corazón de Jesús (Zona 3)",
        "house_number": null,
        "neighbourhood": "Barriada Manuel de Falla",
        "suburb": null,
        "city_district": null,
        "city": "La Línea de la Concepción",
        "state": "Andalusia",
        "postcode": "11300",
        "country": "Spain",
        "country_code": "es"
      },
      "address": "Barriada Sagrado Corazón de Jesús (Zona 3), Gibraltar, Andalusia, Gibraltar"
    },
    {
      "lat": 36.162310168453146,
      "lon": -5.370169098874558,
      "geoinfo": {
        "display_name": "Puerto Chico, Los Navegantes, La Línea de la Concepción, Campo de Gibraltar, Cádiz, Andalusia, 11300, Spain",
        "road": "Puerto Chico",
        "house_number": null,
        "neighbourhood": "Los Navegantes",
        "suburb": null,
        "city_district": null,
        "city": "La Línea de la Concepción",
        "state": "Andalusia",
        "postcode": "11300",
        "country": "Spain",
        "country_code": "es"
      },
      "address": "Puerto Chico, Gibraltar, Andalusia, Gibraltar"
    },
    {
      "lat": 36.162456641859656,
      "lon": -5.378159330785658,
      "geoinfo": {
        "display_name": "Carretera Sur, Instalaciones Portuarias de Campamento, Campamento, San Roque, Campo de Gibraltar, Cádiz, Andalusia, 11314, Spain",
        "road": "Carretera Sur",
        "house_number": null,
        "neighbourhood": null,
        "suburb": null,
        "city_district": null,
        "city": "San Roque",
        "state": "Andalusia",
        "postcode": "11314",
        "country": "Spain",
        "country_code": "es"
      },
      "address": "Carretera Sur, Gibraltar, Andalusia, Gibraltar"
    },
    {
      "lat": 36.17430820823658,
      "lon": -5.342316572595072,
      "geoinfo": {
        "display_name": "Plaza Alta, La Línea de la Concepción, Barriada Paraíso - Manuel González, El Zabal Bajo, La Línea de la Concepción, Campo de Gibraltar, Cádiz, Andalusia, 11300, Spain",
        "road": "Plaza Alta",
        "house_number": null,
        "neighbourhood": "Barriada Paraíso - Manuel González",
        "suburb": null,
        "city_district": null,
        "city": "La Línea de la Concepción",
        "state": "Andalusia",
        "postcode": "11300",
        "country": "Spain",
        "country_code": "es"
      },
      "address": "Plaza Alta, Gibraltar, Andalusia, Gibraltar"
    },
    {
      "lat": 36.175352585720276,
      "lon": -5.375830438511599,
      "geoinfo": {
        "display_name": "Calle Las Mimosas, Distrito Bahía, Cortijo Benalife, Campamento, San Roque, Campo de Gibraltar, Cádiz, Andalusia, 11314, Spain",
        "road": "Calle Las Mimosas",
        "house_number": null,
        "neighbourhood": "Cortijo Benalife",
        "suburb": null,
        "city_district": null,
        "city": "San Roque",
        "state": "Andalusia",
        "postcode": "11314",
        "country": "Spain",
        "country_code": "es"
      },
      "address": "Calle Las Mimosas, Gibraltar, Andalusia, Gibraltar"
    },
    {
      "lat": 36.173642996073255,
      "lon": -5.347544082669173,
      "geoinfo": {
        "display_name": "Avenida María Guerrero, La Línea de la Concepción, Santa Isabel, El Zabal Bajo, La Línea de la Concepción, Campo de Gibraltar, Cádiz, Andalusia, 11300, Spain",
        "road": "Avenida María Guerrero",
        "house_number": null,
        "neighbourhood": "Santa Isabel",
        "suburb": null,
        "city_district": null,
        "city": "La Línea de la Concepción",
        "state": "Andalusia",
        "postcode": "11300",
        "country": "Spain",
        "country_code": "es"
      },
      "address": "Avenida María Guerrero, Gibraltar, Andalusia, Gibraltar"
    },
    {
      "lat": 36.15858254472276,
      "lon": -5.343004261401075,
      "geoinfo": {
        "display_name": "Mercadillo Municipal El Piojito, Paseo Juan Ayala, La Línea de la Concepción, Bellavista, La Línea de la Concepción, Campo de Gibraltar, Cádiz, Andalusia, 11300, Spain",
        "road": "Paseo Juan Ayala",
        "house_number": null,
        "neighbourhood": "Bellavista",
        "suburb": null,
        "city_district": null,
        "city": "La Línea de la Concepción",
        "state": "Andalusia",
        "postcode": "11300",
        "country": "Spain",
        "country_code": "es"
      },
      "address": "Paseo Juan Ayala, Gibraltar, Andalusia, Gibraltar"
    },
    {
      "lat": 36.17078594834762,
      "lon": -5.37256797361966,
      "geoinfo": {
        "display_name": "Calle La Línea de la Concepción, Distrito Bahía, Cortijo Benalife, Campamento, San Roque, Campo de Gibraltar, Cádiz, Andalusia, 11314, Spain",
        "road": "Calle La Línea de la Concepción",
        "house_number": null,
        "neighbourhood": "Cortijo Benalife",
        "suburb": null,
        "city_district": null,
        "city": "San Roque",
        "state": "Andalusia",
        "postcode": "11314",
        "country": "Spain",
        "country_code": "es"
      },
      "address": "Calle La Línea de la Concepción, Gibraltar, Andalusia, Gibraltar"
    },
    {
      "lat": 36.16445674400331,
      "lon": -5.348910475629531,
      "geoinfo": {
        "display_name": "15, Calle Granada, La Línea de la Concepción, San Bernardo, La Línea de la Concepción, Campo de Gibraltar, Cádiz, Andalusia, 11300, Spain",
        "road": "Calle Granada",
        "house_number": "15",
        "neighbourhood": "San Bernardo",
        "suburb": null,
        "city_district": null,
        "city": "La Línea de la Concepción",
        "state": "Andalusia",
        "postcode": "11300",
        "country": "Spain",
        "country_code": "es"
      },
      "address": "15 Calle Granada, Gibraltar, Andalusia, Gibraltar"
    },
    {
      "lat": 36.16944521750777,
      "lon": -5.345887321215251,
      "geoinfo": {
        "display_name": "2-6, Pasaje Alarcón, La Línea de la Concepción, El Conchal-El Castillo, La Línea de la Concepción, Campo de Gibraltar, Cádiz, Andalusia, 11300, Spain",
        "road": "Pasaje Alarcón",
        "house_number": "2-6",
        "neighbourhood": "El Conchal-El Castillo",
        "suburb": null,
        "city_district": null,
        "city": "La Línea de la Concepción",
        "state": "Andalusia",
        "postcode": "11300",
        "country": "Spain",
        "country_code": "es"
      },
      "address": "2-6 Pasaje Alarcón, Gibraltar, Andalusia, Gibraltar"
    },
    {
      "lat": 36.179573532181024,
      "lon": -5.321179444424299,
      "geoinfo": {
        "display_name": "Las Anclas, El Zabal Bajo, La Línea de la Concepción, Campo de Gibraltar, Cádiz, Andalusia, 11300, Spain",
        "road": null,
        "house_number": null,
        "neighbourhood": "Las Anclas",
        "suburb": null,
        "city_district": null,
        "city": "La Línea de la Concepción",
        "state": "Andalusia",
        "postcode": "11300",
        "country": "Spain",
        "country_code": "es"
      },
      "address": "Las Anclas, Gibraltar, Andalusia, Gibraltar"
    },
    {
      "lat": 36.1689495608335,
      "lon": -5.349400251817936,
      "geoinfo": {
        "display_name": "4, Calle Gabriel Miró, La Línea de la Concepción, Santiago, La Línea de la Concepción, Campo de Gibraltar, Cádiz, Andalusia, 11300, Spain",
        "road": "Calle Gabriel Miró",
        "house_number": "4",
        "neighbourhood": "Santiago",
        "suburb": null,
        "city_district": null,
        "city": "La Línea de la Concepción",
        "state": "Andalusia",
        "postcode": "11300",
        "country": "Spain",
        "country_code": "es"
      },
      "address": "4 Calle Gabriel Miró, Gibraltar, Andalusia, Gibraltar"
    },
    {
      "lat": 36.17528028221109,
      "lon": -5.324785966805189,
      "geoinfo": {
        "display_name": "La Atunara, El Zabal Bajo, La Línea de la Concepción, Campo de Gibraltar, Cádiz, Andalusia, 11300, Spain",
        "road": null,
        "house_number": null,
        "neighbourhood": "La Atunara",
        "suburb": null,
        "city_district": null,
        "city": "La Línea de la Concepción",
        "state": "Andalusia",
        "postcode": "11300",
        "country": "Spain",
        "country_code": "es"
      },
      "address": "La Atunara, Gibraltar, Andalusia, Gibraltar"
    },
    {
      "lat": 36.16720111514514,
      "lon": -5.344413027662637,
      "geoinfo": {
        "display_name": "Calle Mateo Inurria, La Línea de la Concepción, Centro Ciudad, La Línea de la Concepción, Campo de Gibraltar, Cádiz, Andalusia, 11300, Spain",
        "road": "Calle Mateo Inurria",
        "house_number": null,
        "neighbourhood": "Centro Ciudad",
        "suburb": null,
        "city_district": null,
        "city": "La Línea de la Concepción",
        "state": "Andalusia",
        "postcode": "11300",
        "country": "Spain",
        "country_code": "es"
      },
      "address": "Calle Mateo Inurria, Gibraltar, Andalusia, Gibraltar"
    },
    {
      "lat": 36.166429415804856,
      "lon": -5.365859397668053,
      "geoinfo": {
        "display_name": "Paseo Marítimo de Poniente, Mondéjar, La Línea de la Concepción, Campo de Gibraltar, Cádiz, Andalusia, 11300, Spain",
        "road": "Paseo Marítimo de Poniente",
        "house_number": null,
        "neighbourhood": "Mondéjar",
        "suburb": null,
        "city_district": null,
        "city": "La Línea de la Concepción",
        "state": "Andalusia",
        "postcode": "11300",
        "country": "Spain",
        "country_code": "es"
      },
      "address": "Paseo Marítimo de Poniente, Gibraltar, Andalusia, Gibraltar"
    },
    {
      "lat": 36.15775860005617,
      "lon": -5.3455138050731,
      "geoinfo": {
        "display_name": "Calle Alcalde Francisco Niebla Molina, La Línea de la Concepción, San Felipe, La Línea de la Concepción, Campo de Gibraltar, Cádiz, Andalusia, 11300, Spain",
        "road": "Calle Alcalde Francisco Niebla Molina",
        "house_number": null,
        "neighbourhood": "San Felipe",
        "suburb": null,
        "city_district": null,
        "city": "La Línea de la Concepción",
        "state": "Andalusia",
        "postcode": "11300",
        "country": "Spain",
        "country_code": "es"
      },
      "address": "Calle Alcalde Francisco Niebla Molina, Gibraltar, Andalusia, Gibraltar"
    },
    {
      "lat": 36.155767748964195,
      "lon": -5.346525496503763,
      "geoinfo": {
        "display_name": "Avenida Príncipe de Asturias, San Felipe, La Línea de la Concepción, Campo de Gibraltar, Cádiz, Andalusia, 11300, Spain",
        "road": "Avenida Príncipe de Asturias",
        "house_number": null,
        "neighbourhood": "San Felipe",
        "suburb": null,
        "city_district": null,
        "city": "La Línea de la Concepción",
        "state": "Andalusia",
        "postcode": "11300",
        "country": "Spain",
        "country_code": "es"
      },
      "address": "Avenida Príncipe de Asturias, Gibraltar, Andalusia, Gibraltar"
    },
    {
      "lat": 36.16861662966747,
      "lon": -5.340211631792533,
      "geoinfo": {
        "display_name": "Calle Joaquín Ruiz Morito, La Línea de la Concepción, Huerta Fava, La Línea de la Concepción, Campo de Gibraltar, Cádiz, Andalusia, 11300, Spain",
        "road": "Calle Joaquín Ruiz Morito",
        "house_number": null,
        "neighbourhood": "Huerta Fava",
        "suburb": null,
        "city_district": null,
        "city": "La Línea de la Concepción",
        "state": "Andalusia",
        "postcode": "11300",
        "country": "Spain",
        "country_code": "es"
      },
      "address": "Calle Joaquín Ruiz Morito, Gibraltar, Andalusia, Gibraltar"
    },
    {
      "lat": 36.180784484973046,
      "lon": -5.358725605166826,
      "geoinfo": {
        "display_name": "Camino el Tejar, Las Palomeras, La Línea de la Concepción, Campo de Gibraltar, Cádiz, Andalusia, 11300, Spain",
        "road": "Camino el Tejar",
        "house_number": null,
        "neighbourhood": "Las Palomeras",
        "suburb": null,
        "city_district": null,
        "city": "La Línea de la Concepción",
        "state": "Andalusia",
        "postcode": "11300",
        "country": "Spain",
        "country_code": "es"
      },
      "address": "Camino el Tejar, Gibraltar, Andalusia, Gibraltar"
    },
    {
      "lat": 36.167698768114775,
      "lon": -5.35146570735144,
      "geoinfo": {
        "display_name": "18, Calle Venezuela, La Línea de la Concepción, Las Palomeras, La Línea de la Concepción, Campo de Gibraltar, Cádiz, Andalusia, 11300, Spain",
        "road": "Calle Venezuela",
        "house_number": "18",
        "neighbourhood": "Las Palomeras",
        "suburb": null,
        "city_district": null,
        "city": "La Línea de la Concepción",
        "state": "Andalusia",
        "postcode": "11300",
        "country": "Spain",
        "country_code": "es"
      },
      "address": "18 Calle Venezuela, Gibraltar, Andalusia, Gibraltar"
    },
    {
      "lat": 36.170003126090016,
      "lon": -5.390161948922011,
      "geoinfo": {
        "display_name": "Plaza de la Constitución, Distrito Bahía, Barriada Nazaret, Puente Mayorga, San Roque, Campo de Gibraltar, Cádiz, Andalusia, 11314, Spain",
        "road": null,
        "house_number": null,
        "neighbourhood": "Barriada Nazaret",
        "suburb": null,
        "city_district": null,
        "city": "San Roque",
        "state": "Andalusia",
        "postcode": "11314",
        "country": "Spain",
        "country_code": "es"
      },
      "address": "Barriada Nazaret, Gibraltar, Andalusia, Gibraltar"
    },
    {
      "lat": 36.170357036832456,
      "lon": -5.3416375039353765,
      "geoinfo": {
        "display_name": "Antiguo Hospital de La Línea de la Concepción, Pasaje Doctor Gómez Ulla, La Línea de la Concepción, Barriada Manuel de Falla, La Línea de la Concepción, Campo de Gibraltar, Cádiz, Andalusia, 11300, Spain",
        "road": "Pasaje Doctor Gómez Ulla",
        "house_number": null,
        "neighbourhood": "Barriada Manuel de Falla",
        "suburb": null,
        "city_district": null,
        "city": "La Línea de la Concepción",
        "state": "Andalusia",
        "postcode": "11300",
        "country": "Spain",
        "country_code": "es"
      },
      "address": "Pasaje Doctor Gómez Ulla, Gibraltar, Andalusia, Gibraltar"
    },
    {
      "lat": 36.1686805501618,
      "lon": -5.340728538595692,
      "geoinfo": {
        "display_name": "Avenida Menéndez Pelayo, La Línea de la Concepción, San Bernardo, La Línea de la Concepción, Campo de Gibraltar, Cádiz, Andalusia, 11300, Spain",
        "road": "Avenida Menéndez Pelayo",
        "house_number": null,
        "neighbourhood": "San Bernardo",
        "suburb": null,
        "city_district": null,
        "city": "La Línea de la Concepción",
        "state": "Andalusia",
        "postcode": "11300",
        "country": "Spain",
        "country_code": "es"
      },
      "address": "Avenida Menéndez Pelayo, Gibraltar, Andalusia, Gibraltar"
    },
    {
      "lat": 36.17466412141249,
      "lon": -5.371283961233363,
      "geoinfo": {
        "display_name": "Avenida de Zaragoza, Distrito Bahía, Polígono Industrial Incosur, Campamento, San Roque, Campo de Gibraltar, Cádiz, Andalusia, 11314, Spain",
        "road": "Avenida de Zaragoza",
        "house_number": null,
        "neighbourhood": null,
        "suburb": null,
        "city_district": null,
        "city": "San Roque",
        "state": "Andalusia",
        "postcode": "11314",
        "country": "Spain",
        "country_code": "es"
      },
      "address": "Avenida de Zaragoza, Gibraltar, Andalusia, Gibraltar"
    },
    {
      "lat": 36.16231787839362,
      "lon": -5.328320686737323,
      "geoinfo": {
        "display_name": "El Conchal-El Castillo, La Línea de la Concepción, Campo de Gibraltar, Cádiz, Andalusia, 11300, Spain",
        "road": null,
        "house_number": null,
        "neighbourhood": "El Conchal-El Castillo",
        "suburb": null,
        "city_district": null,
        "city": "La Línea de la Concepción",
        "state": "Andalusia",
        "postcode": "11300",
        "country": "Spain",
        "country_code": "es"
      },
      "address": "El Conchal-El Castillo, Gibraltar, Andalusia, Gibraltar"
    },
    {
      "lat": 36.1653968687891,
      "lon": -5.3395336947252945,
      "geoinfo": {
        "display_name": "Calle Pontevedra, La Línea de la Concepción, Barriada Santa Bárbara, La Línea de la Concepción, Campo de Gibraltar, Cádiz, Andalusia, 11300, Spain",
        "road": "Calle Pontevedra",
        "house_number": null,
        "neighbourhood": "Barriada Santa Bárbara",
        "suburb": null,
        "city_district": null,
        "city": "La Línea de la Concepción",
        "state": "Andalusia",
        "postcode": "11300",
        "country": "Spain",
        "country_code": "es"
      },
      "address": "Calle Pontevedra, Gibraltar, Andalusia, Gibraltar"
    },
    {
      "lat": 36.16773845747779,
      "lon": -5.340238526061006,
      "geoinfo": {
        "display_name": "Calle Manilva, La Línea de la Concepción, Huerta Fava, La Línea de la Concepción, Campo de Gibraltar, Cádiz, Andalusia, 11300, Spain",
        "road": "Calle Manilva",
        "house_number": null,
        "neighbourhood": "Huerta Fava",
        "suburb": null,
        "city_district": null,
        "city": "La Línea de la Concepción",
        "state": "Andalusia",
        "postcode": "11300",
        "country": "Spain",
        "country_code": "es"
      },
      "address": "Calle Manilva, Gibraltar, Andalusia, Gibraltar"
    },
    {
      "lat": 36.17771521343301,
      "lon": -5.339918790917376,
      "geoinfo": {
        "display_name": "Avenida Cartagena, La Atunara, El Zabal Bajo, La Línea de la Concepción, Campo de Gibraltar, Cádiz, Andalusia, 11300, Spain",
        "road": "Avenida Cartagena",
        "house_number": null,
        "neighbourhood": "La Atunara",
        "suburb": null,
        "city_district": null,
        "city": "La Línea de la Concepción",
        "state": "Andalusia",
        "postcode": "11300",
        "country": "Spain",
        "country_code": "es"
      },
      "address": "Avenida Cartagena, Gibraltar, Andalusia, Gibraltar"
    },
    {
      "lat": 36.187000877005886,
      "lon": -5.356752708081947,
      "geoinfo": {
        "display_name": "Camino de la Ermita, Zabal Industrial I, El Zabal Bajo, La Línea de la Concepción, Campo de Gibraltar, Cádiz, Andalusia, 11315, Spain",
        "road": "Camino de la Ermita",
        "house_number": null,
        "neighbourhood": null,
        "suburb": null,
        "city_district": null,
        "city": "La Línea de la Concepción",
        "state": "Andalusia",
        "postcode": "11315",
        "country": "Spain",
        "country_code": "es"
      },
      "address": "Camino de la Ermita, Gibraltar, Andalusia, Gibraltar"
    },
    {
      "lat": 36.180819850002436,
      "lon": -5.348321944333886,
      "geoinfo": {
        "display_name": "Camino del Canal, Zabal Industrial I, El Zabal Bajo, La Línea de la Concepción, Campo de Gibraltar, Cádiz, Andalusia, 11300, Spain",
        "road": "Camino del Canal",
        "house_number": null,
        "neighbourhood": null,
        "suburb": null,
        "city_district": null,
        "city": "La Línea de la Concepción",
        "state": "Andalusia",
        "postcode": "11300",
        "country": "Spain",
        "country_code": "es"
      },
      "address": "Camino del Canal, Gibraltar, Andalusia, Gibraltar"
    },
    {
      "lat": 36.171088547212065,
      "lon": -5.355911110902491,
      "geoinfo": {
        "display_name": "Colegio de Educación Infantil y Primaria Santa Ana, Calle Pedreras, La Línea de la Concepción, Barriada Paraíso - Manuel González, La Línea de la Concepción, Campo de Gibraltar, Cádiz, Andalusia, 11300, Spain",
        "road": "Calle Pedreras",
        "house_number": null,
        "neighbourhood": "Barriada Paraíso - Manuel González",
        "suburb": null,
        "city_district": null,
        "city": "La Línea de la Concepción",
        "state": "Andalusia",
        "postcode": "11300",
        "country": "Spain",
        "country_code": "es"
      },
      "address": "Calle Pedreras, Gibraltar, Andalusia, Gibraltar"
    },
    {
      "lat": 36.17517689097268,
      "lon": -5.338869130203855,
      "geoinfo": {
        "display_name": "Calle Santa Clara, La Línea de la Concepción, Periáñez, El Zabal Bajo, La Línea de la Concepción, Campo de Gibraltar, Cádiz, Andalusia, 11300, Spain",
        "road": "Calle Santa Clara",
        "house_number": null,
        "neighbourhood": "Periáñez",
        "suburb": null,
        "city_district": null,
        "city": "La Línea de la Concepción",
        "state": "Andalusia",
        "postcode": "11300",
        "country": "Spain",
        "country_code": "es"
      },
      "address": "Calle Santa Clara, Gibraltar, Andalusia, Gibraltar"
    },
    {
      "lat": 36.17655186175254,
      "lon": -5.3513702071486495,
      "geoinfo": {
        "display_name": "Pasaje San Diego, La Línea de la Concepción, Periáñez, El Zabal Bajo, La Línea de la Concepción, Campo de Gibraltar, Cádiz, Andalusia, 11300, Spain",
        "road": "Pasaje San Diego",
        "house_number": null,
        "neighbourhood": "Periáñez",
        "suburb": null,
        "city_district": null,
        "city": "La Línea de la Concepción",
        "state": "Andalusia",
        "postcode": "11300",
        "country": "Spain",
        "country_code": "es"
      },
      "address": "Pasaje San Diego, Gibraltar, Andalusia, Gibraltar"
    },
    {
      "lat": 36.15928663318323,
      "lon": -5.3801803260389445,
      "geoinfo": {
        "display_name": "Punta Mala, Cortijo Benalife, Campamento, San Roque, Campo de Gibraltar, Cádiz, Andalusia, 11314, Spain",
        "road": null,
        "house_number": null,
        "neighbourhood": "Cortijo Benalife",
        "suburb": null,
        "city_district": null,
        "city": "San Roque",
        "state": "Andalusia",
        "postcode": "11314",
        "country": "Spain",
        "country_code": "es"
      },
      "address": "Cortijo Benalife, Gibraltar, Andalusia, Gibraltar"
    },
    {
      "lat": 36.16458312199257,
      "lon": -5.345932163992186,
      "geoinfo": {
        "display_name": "12, Calle Sagunto, La Línea de la Concepción, San Bernardo, La Línea de la Concepción, Campo de Gibraltar, Cádiz, Andalusia, 11300, Spain",
        "road": "Calle Sagunto",
        "house_number": "12",
        "neighbourhood": "San Bernardo",
        "suburb": null,
        "city_district": null,
        "city": "La Línea de la Concepción",
        "state": "Andalusia",
        "postcode": "11300",
        "country": "Spain",
        "country_code": "es"
      },
      "address": "12 Calle Sagunto, Gibraltar, Andalusia, Gibraltar"
    },
    {
      "lat": 36.1689838610114,
      "lon": -5.348394839398846,
      "geoinfo": {
        "display_name": "Lope de Vega, 16, Calle Lope de Vega, La Línea de la Concepción, El Conchal-El Castillo, La Línea de la Concepción, Campo de Gibraltar, Cádiz, Andalusia, 11300, Spain",
        "road": "Calle Lope de Vega",
        "house_number": "16",
        "neighbourhood": "El Conchal-El Castillo",
        "suburb": null,
        "city_district": null,
        "city": "La Línea de la Concepción",
        "state": "Andalusia",
        "postcode": "11300",
        "country": "Spain",
        "country_code": "es"
      },
      "address": "16 Calle Lope de Vega, Gibraltar, Andalusia, Gibraltar"
    },
    {
      "lat": 36.173953238229,
      "lon": -5.382906554981557,
      "geoinfo": {
        "display_name": "Carretera Este - Norte, Instalaciones Portuarias de Campamento, Campamento, San Roque, Campo de Gibraltar, Cádiz, Andalusia, 11314, Spain",
        "road": "Carretera Este - Norte",
        "house_number": null,
        "neighbourhood": null,
        "suburb": null,
        "city_district": null,
        "city": "San Roque",
        "state": "Andalusia",
        "postcode": "11314",
        "country": "Spain",
        "country_code": "es"
      },
      "address": "Carretera Este - Norte, Gibraltar, Andalusia, Gibraltar"
    },
    {
      "lat": 36.171578953984536,
      "lon": -5.363978741943515,
      "geoinfo": {
        "display_name": "Linense Tenis Club, Callejón de la Pizarra, La Línea de la Concepción, Mondéjar, La Línea de la Concepción, Campo de Gibraltar, Cádiz, Andalusia, 11300, Spain",
        "road": "Callejón de la Pizarra",
        "house_number": null,
        "neighbourhood": "Mondéjar",
        "suburb": null,
        "city_district": null,
        "city": "La Línea de la Concepción",
        "state": "Andalusia",
        "postcode": "11300",
        "country": "Spain",
        "country_code": "es"
      },
      "address": "Callejón de la Pizarra, Gibraltar, Andalusia, Gibraltar"
    },
    {
      "lat": 36.17900550255436,
      "lon": -5.382607785994049,
      "geoinfo": {
        "display_name": "Acera de la Marina, Distrito Bahía, Barriada Cepsa, Puente Mayorga, San Roque, Campo de Gibraltar, Cádiz, Andalusia, 11314, Spain",
        "road": "Acera de la Marina",
        "house_number": null,
        "neighbourhood": "Barriada Cepsa",
        "suburb": null,
        "city_district": null,
        "city": "San Roque",
        "state": "Andalusia",
        "postcode": "11314",
        "country": "Spain",
        "country_code": "es"
      },
      "address": "Acera de la Marina, Gibraltar, Andalusia, Gibraltar"
    },
    {
      "lat": 36.162310275398916,
      "lon": -5.340218170752572,
      "geoinfo": {
        "display_name": "Depósito Municipal de Vehículos, La Línea de la Concepción, Depósito Municipal de Vehículos, La Línea de la Concepción, Campo de Gibraltar, Cádiz, Andalusia, 11300, Spain",
        "road": "Depósito Municipal de Vehículos",
        "house_number": null,
        "neighbourhood": null,
        "suburb": null,
        "city_district": null,
        "city": "La Línea de la Concepción",
        "state": "Andalusia",
        "postcode": "11300",
        "country": "Spain",
        "country_code": "es"
      },
      "address": "Depósito Municipal de Vehículos, Gibraltar, Andalusia, Gibraltar"
    },
    {
      "lat": 36.16162249693868,
      "lon": -5.353802063279144,
      "geoinfo": {
        "display_name": "Calle Moreno de Mora, La Línea de la Concepción, Barriada Santa Bárbara, La Línea de la Concepción, Campo de Gibraltar, Cádiz, Andalusia, 11300, Spain",
        "road": "Calle Moreno de Mora",
        "house_number": null,
        "neighbourhood": "Barriada Santa Bárbara",
        "suburb": null,
        "city_district": null,
        "city": "La Línea de la Concepción",
        "state": "Andalusia",
        "postcode": "11300",
        "country": "Spain",
        "country_code": "es"
      },
      "address": "Calle Moreno de Mora, Gibraltar, Andalusia, Gibraltar"
    },
    {
      "lat": 36.1740400251238,
      "lon": -5.35310950226584,
      "geoinfo": {
        "display_name": "Hospital Universitario de La Línea de la Concepción, 101, Calle Gabriel Miró, La Línea de la Concepción, Las Palomeras, El Zabal Bajo, La Línea de la Concepción, Campo de Gibraltar, Cádiz, Andalusia, 11300, Spain",
        "road": "Calle Gabriel Miró",
        "house_number": "101",
        "neighbourhood": "Las Palomeras",
        "suburb": null,
        "city_district": null,
        "city": "La Línea de la Concepción",
        "state": "Andalusia",
        "postcode": "11300",
        "country": "Spain",
        "country_code": "es"
      },
      "address": "101 Calle Gabriel Miró, Gibraltar, Andalusia, Gibraltar"
    },
    {
      "lat": 36.17073738230004,
      "lon": -5.385925200855063,
      "geoinfo": {
        "display_name": "Muelle Sur de Campamento, Instalaciones Portuarias de Campamento, Campamento, San Roque, Campo de Gibraltar, Cádiz, Andalusia, 11314, Spain",
        "road": "Muelle Sur de Campamento",
        "house_number": null,
        "neighbourhood": null,
        "suburb": null,
        "city_district": null,
        "city": "San Roque",
        "state": "Andalusia",
        "postcode": "11314",
        "country": "Spain",
        "country_code": "es"
      },
      "address": "Muelle Sur de Campamento, Gibraltar, Andalusia, Gibraltar"
    },
    {
      "lat": 36.17678244971095,
      "lon": -5.359211911133298,
      "geoinfo": {
        "display_name": "Camino de Santiago, Las Palomeras, La Línea de la Concepción, Campo de Gibraltar, Cádiz, Andalusia, 11300, Spain",
        "road": "Camino de Santiago",
        "house_number": null,
        "neighbourhood": "Las Palomeras",
        "suburb": null,
        "city_district": null,
        "city": "La Línea de la Concepción",
        "state": "Andalusia",
        "postcode": "11300",
        "country": "Spain",
        "country_code": "es"
      },
      "address": "Camino de Santiago, Gibraltar, Andalusia, Gibraltar"
    },
    {
      "lat": 36.18614216921847,
      "lon": -5.372680374851825,
      "geoinfo": {
        "display_name": "Carretera Cuartel de Buenavista, Cortijo Benalife, Campamento, San Roque, Campo de Gibraltar, Cádiz, Andalusia, 11314, Spain",
        "road": "Carretera Cuartel de Buenavista",
        "house_number": null,
        "neighbourhood": "Cortijo Benalife",
        "suburb": null,
        "city_district": null,
        "city": "San Roque",
        "state": "Andalusia",
        "postcode": "11314",
        "country": "Spain",
        "country_code": "es"
      },
      "address": "Carretera Cuartel de Buenavista, Gibraltar, Andalusia, Gibraltar"
    },
    {
      "lat": 36.17654792822161,
      "lon": -5.388914866957635,
      "geoinfo": {
        "display_name": "Puerto Deportivo de Puente Mayorga, Callejón del Mar, Distrito Bahía, Barriada Cepsa, Puente Mayorga, San Roque, Campo de Gibraltar, Cádiz, Andalusia, 11314, Spain",
        "road": "Callejón del Mar",
        "house_number": null,
        "neighbourhood": "Barriada Cepsa",
        "suburb": null,
        "city_district": null,
        "city": "San Roque",
        "state": "Andalusia",
        "postcode": "11314",
        "country": "Spain",
        "country_code": "es"
      },
      "address": "Callejón del Mar, Gibraltar, Andalusia, Gibraltar"
    },
    {
      "lat": 36.16813159727588,
      "lon": -5.345375656983231,
      "geoinfo": {
        "display_name": "17, Calle Mateo Inurria, La Línea de la Concepción, Pisos de Los Maestros, La Línea de la Concepción, Campo de Gibraltar, Cádiz, Andalusia, 11300, Spain",
        "road": "Calle Mateo Inurria",
        "house_number": "17",
        "neighbourhood": null,
        "suburb": null,
        "city_district": null,
        "city": "La Línea de la Concepción",
        "state": "Andalusia",
        "postcode": "11300",
        "country": "Spain",
        "country_code": "es"
      },
      "address": "17 Calle Mateo Inurria, Gibraltar, Andalusia, Gibraltar"
    },
    {
      "lat": 36.17636661456217,
      "lon": -5.333607759613762,
      "geoinfo": {
        "display_name": "Plaza Guillermo Chaminade, La Línea de la Concepción, Nueva Línea, El Zabal Bajo, La Línea de la Concepción, Campo de Gibraltar, Cádiz, Andalusia, 11300, Spain",
        "road": "Plaza Guillermo Chaminade",
        "house_number": null,
        "neighbourhood": "Nueva Línea",
        "suburb": null,
        "city_district": null,
        "city": "La Línea de la Concepción",
        "state": "Andalusia",
        "postcode": "11300",
        "country": "Spain",
        "country_code": "es"
      },
      "address": "Plaza Guillermo Chaminade, Gibraltar, Andalusia, Gibraltar"
    },
    {
      "lat": 36.17864541019007,
      "lon": -5.3494644495915935,
      "geoinfo": {
        "display_name": "Pasaje Perales, Zabal Industrial I, El Zabal Bajo, La Línea de la Concepción, Campo de Gibraltar, Cádiz, Andalusia, 11300, Spain",
        "road": "Pasaje Perales",
        "house_number": null,
        "neighbourhood": null,
        "suburb": null,
        "city_district": null,
        "city": "La Línea de la Concepción",
        "state": "Andalusia",
        "postcode": "11300",
        "country": "Spain",
        "country_code": "es"
      },
      "address": "Pasaje Perales, Gibraltar, Andalusia, Gibraltar"
    },
    {
      "lat": 36.15497422890931,
      "lon": -5.355815124656548,
      "geoinfo": {
        "display_name": "Avenida de los Yates, Julián Besteiro, La Línea de la Concepción, Campo de Gibraltar, Cádiz, Andalusia, 11300, Spain",
        "road": "Avenida de los Yates",
        "house_number": null,
        "neighbourhood": "Julián Besteiro",
        "suburb": null,
        "city_district": null,
        "city": "La Línea de la Concepción",
        "state": "Andalusia",
        "postcode": "11300",
        "country": "Spain",
        "country_code": "es"
      },
      "address": "Avenida de los Yates, Gibraltar, Andalusia, Gibraltar"
    },
    {
      "lat": 36.17279054905122,
      "lon": -5.355633944479246,
      "geoinfo": {
        "display_name": "Camino de San Roque, La Línea de la Concepción, Barriada Manuel de Falla, El Zabal Bajo, La Línea de la Concepción, Campo de Gibraltar, Cádiz, Andalusia, 11300, Spain",
        "road": "Camino de San Roque",
        "house_number": null,
        "neighbourhood": "Barriada Manuel de Falla",
        "suburb": null,
        "city_district": null,
        "city": "La Línea de la Concepción",
        "state": "Andalusia",
        "postcode": "11300",
        "country": "Spain",
        "country_code": "es"
      },
      "address": "Camino de San Roque, Gibraltar, Andalusia, Gibraltar"
    },
    {
      "lat": 36.172853448318094,
      "lon": -5.333994753736953,
      "geoinfo": {
        "display_name": "Rotonda de la Marina, La Línea de la Concepción, Periáñez, El Zabal Bajo, La Línea de la Concepción, Campo de Gibraltar, Cádiz, Andalusia, 11300, Spain",
        "road": "Rotonda de la Marina",
        "house_number": null,
        "neighbourhood": "Periáñez",
        "suburb": null,
        "city_district": null,
        "city": "La Línea de la Concepción",
        "state": "Andalusia",
        "postcode": "11300",
        "country": "Spain",
        "country_code": "es"
      },
      "address": "Rotonda de la Marina, Gibraltar, Andalusia, Gibraltar"
    },
    {
      "lat": 36.179060090330765,
      "lon": -5.3382637957174905,
      "geoinfo": {
        "display_name": "50-60, Camino de Torrenueva, La Línea de la Concepción, Nueva Línea, El Zabal Bajo, La Línea de la Concepción, Campo de Gibraltar, Cádiz, Andalusia, 11300, Spain",
        "road": "Camino de Torrenueva",
        "house_number": "50-60",
        "neighbourhood": "Nueva Línea",
        "suburb": null,
        "city_district": null,
        "city": "La Línea de la Concepción",
        "state": "Andalusia",
        "postcode": "11300",
        "country": "Spain",
        "country_code": "es"
      },
      "address": "50-60 Camino de Torrenueva, Gibraltar, Andalusia, Gibraltar"
    },
    {
      "lat": 36.16855561714088,
      "lon": -5.348509757807116,
      "geoinfo": {
        "display_name": "Calle José de Mesa, La Línea de la Concepción, Los Navegantes, La Línea de la Concepción, Campo de Gibraltar, Cádiz, Andalusia, 11300, Spain",
        "road": "Calle José de Mesa",
        "house_number": null,
        "neighbourhood": "Los Navegantes",
        "suburb": null,
        "city_district": null,
        "city": "La Línea de la Concepción",
        "state": "Andalusia",
        "postcode": "11300",
        "country": "Spain",
        "country_code": "es"
      },
      "address": "Calle José de Mesa, Gibraltar, Andalusia, Gibraltar"
    },
    {
      "lat": 36.15443214220332,
      "lon": -5.3429910083400936,
      "geoinfo": {
        "display_name": "Calle Feriantes, San Felipe, La Línea de la Concepción, Campo de Gibraltar, Cádiz, Andalusia, 11300, Spain",
        "road": "Calle Feriantes",
        "house_number": null,
        "neighbourhood": "San Felipe",
        "suburb": null,
        "city_district": null,
        "city": "La Línea de la Concepción",
        "state": "Andalusia",
        "postcode": "11300",
        "country": "Spain",
        "country_code": "es"
      },
      "address": "Calle Feriantes, Gibraltar, Andalusia, Gibraltar"
    },
    {
      "lat": 36.17017991679008,
      "lon": -5.329683835935597,
      "geoinfo": {
        "display_name": "San Bernardo, La Línea de la Concepción, Campo de Gibraltar, Cádiz, Andalusia, 11300, Spain",
        "road": null,
        "house_number": null,
        "neighbourhood": "San Bernardo",
        "suburb": null,
        "city_district": null,
        "city": "La Línea de la Concepción",
        "state": "Andalusia",
        "postcode": "11300",
        "country": "Spain",
        "country_code": "es"
      },
      "address": "San Bernardo, Gibraltar, Andalusia, Gibraltar"
    },
    {
      "lat": 36.18079601663202,
      "lon": -5.383196097091773,
      "geoinfo": {
        "display_name": "Glorieta La Bola, Distrito Bahía, Barriada Nazaret, Puente Mayorga, San Roque, Campo de Gibraltar, Cádiz, Andalusia, 11314, Spain",
        "road": "Glorieta La Bola",
        "house_number": null,
        "neighbourhood": "Barriada Nazaret",
        "suburb": null,
        "city_district": null,
        "city": "San Roque",
        "state": "Andalusia",
        "postcode": "11314",
        "country": "Spain",
        "country_code": "es"
      },
      "address": "Glorieta La Bola, Gibraltar, Andalusia, Gibraltar"
    },
    {
      "lat": 36.17257516118845,
      "lon": -5.3724858475349695,
      "geoinfo": {
        "display_name": "Elefante Azul, 79, Calle Real (Campamento), Distrito Bahía, Campamento, San Roque, Campo de Gibraltar, Cádiz, Andalusia, 11314, Spain",
        "road": "Calle Real (Campamento)",
        "house_number": "79",
        "neighbourhood": null,
        "suburb": null,
        "city_district": null,
        "city": "San Roque",
        "state": "Andalusia",
        "postcode": "11314",
        "country": "Spain",
        "country_code": "es"
      },
      "address": "79 Calle Real (Campamento), Gibraltar, Andalusia, Gibraltar"
    },
    {
      "lat": 36.167125765090695,
      "lon": -5.335785761240969,
      "geoinfo": {
        "display_name": "La Línea de la Concepción, Periáñez, La Línea de la Concepción, Campo de Gibraltar, Cádiz, Andalusia, 11300, Spain",
        "road": null,
        "house_number": null,
        "neighbourhood": "Periáñez",
        "suburb": null,
        "city_district": null,
        "city": "La Línea de la Concepción",
        "state": "Andalusia",
        "postcode": "11300",
        "country": "Spain",
        "country_code": "es"
      },
      "address": "Periáñez, Gibraltar, Andalusia, Gibraltar"
    },
    {
      "lat": 36.171220219754,
      "lon": -5.368738538315248,
      "geoinfo": {
        "display_name": "Calle Cachón, Distrito Bahía, Campamento, San Roque, Campo de Gibraltar, Cádiz, Andalusia, 11314, Spain",
        "road": "Calle Cachón",
        "house_number": null,
        "neighbourhood": null,
        "suburb": null,
        "city_district": null,
        "city": "San Roque",
        "state": "Andalusia",
        "postcode": "11314",
        "country": "Spain",
        "country_code": "es"
      },
      "address": "Calle Cachón, Gibraltar, Andalusia, Gibraltar"
    },
    {
      "lat": 36.17927461733079,
      "lon": -5.3743700032281545,
      "geoinfo": {
        "display_name": "Avenida de Sevilla, Polígono Industrial Incosur, Campamento, San Roque, Campo de Gibraltar, Cádiz, Andalusia, 11314, Spain",
        "road": "Avenida de Sevilla",
        "house_number": null,
        "neighbourhood": null,
        "suburb": null,
        "city_district": null,
        "city": "San Roque",
        "state": "Andalusia",
        "postcode": "11314",
        "country": "Spain",
        "country_code": "es"
      },
      "address": "Avenida de Sevilla, Gibraltar, Andalusia, Gibraltar"
    },
    {
      "lat": 36.17691249323108,
      "lon": -5.381286977307321,
      "geoinfo": {
        "display_name": "Playa de Campamento, Cortijo Benalife, Puente Mayorga, San Roque, Campo de Gibraltar, Cádiz, Andalusia, 11314, Spain",
        "road": "Playa de Campamento",
        "house_number": null,
        "neighbourhood": "Cortijo Benalife",
        "suburb": null,
        "city_district": null,
        "city": "San Roque",
        "state": "Andalusia",
        "postcode": "11314",
        "country": "Spain",
        "country_code": "es"
      },
      "address": "Playa de Campamento, Gibraltar, Andalusia, Gibraltar"
    },
    {
      "lat": 36.16870376132571,
      "lon": -5.361822680953763,
      "geoinfo": {
        "display_name": "Calle Virgen de la Luz, La Línea de la Concepción, Mondéjar, La Línea de la Concepción, Campo de Gibraltar, Cádiz, Andalusia, 11300, Spain",
        "road": "Calle Virgen de la Luz",
        "house_number": null,
        "neighbourhood": "Mondéjar",
        "suburb": null,
        "city_district": null,
        "city": "La Línea de la Concepción",
        "state": "Andalusia",
        "postcode": "11300",
        "country": "Spain",
        "country_code": "es"
      },
      "address": "Calle Virgen de la Luz, Gibraltar, Andalusia, Gibraltar"
    },
    {
      "lat": 36.17571691183437,
      "lon": -5.356866880807917,
      "geoinfo": {
        "display_name": "Camino Lucas, Barriada Manuel de Falla, El Zabal Bajo, La Línea de la Concepción, Campo de Gibraltar, Cádiz, Andalusia, 11300, Spain",
        "road": "Camino Lucas",
        "house_number": null,
        "neighbourhood": "Barriada Manuel de Falla",
        "suburb": null,
        "city_district": null,
        "city": "La Línea de la Concepción",
        "state": "Andalusia",
        "postcode": "11300",
        "country": "Spain",
        "country_code": "es"
      },
      "address": "Camino Lucas, Gibraltar, Andalusia, Gibraltar"
    },
    {
      "lat": 36.17238174087577,
      "lon": -5.338901529434299,
      "geoinfo": {
        "display_name": "Calle Lepanto, La Línea de la Concepción, Nuevo El Conchal, El Zabal Bajo, La Línea de la Concepción, Campo de Gibraltar, Cádiz, Andalusia, 11300, Spain",
        "road": "Calle Lepanto",
        "house_number": null,
        "neighbourhood": "Nuevo El Conchal",
        "suburb": null,
        "city_district": null,
        "city": "La Línea de la Concepción",
        "state": "Andalusia",
        "postcode": "11300",
        "country": "Spain",
        "country_code": "es"
      },
      "address": "Calle Lepanto, Gibraltar, Andalusia, Gibraltar"
    },
    {
      "lat": 36.17306500708179,
      "lon": -5.345838244701635,
      "geoinfo": {
        "display_name": "Calle Arenal, La Línea de la Concepción, Barriada Manuel de Falla, El Zabal Bajo, La Línea de la Concepción, Campo de Gibraltar, Cádiz, Andalusia, 11300, Spain",
        "road": "Calle Arenal",
        "house_number": null,
        "neighbourhood": "Barriada Manuel de Falla",
        "suburb": null,
        "city_district": null,
        "city": "La Línea de la Concepción",
        "state": "Andalusia",
        "postcode": "11300",
        "country": "Spain",
        "country_code": "es"
      },
      "address": "Calle Arenal, Gibraltar, Andalusia, Gibraltar"
    },
    {
      "lat": 36.17364851596282,
      "lon": -5.349227599844232,
      "geoinfo": {
        "display_name": "2, Calle Manuel de Falla, La Línea de la Concepción, Barriada Manuel de Falla, El Zabal Bajo, La Línea de la Concepción, Campo de Gibraltar, Cádiz, Andalusia, 11300, Spain",
        "road": "Calle Manuel de Falla",
        "house_number": "2",
        "neighbourhood": "Barriada Manuel de Falla",
        "suburb": null,
        "city_district": null,
        "city": "La Línea de la Concepción",
        "state": "Andalusia",
        "postcode": "11300",
        "country": "Spain",
        "country_code": "es"
      },
      "address": "2 Calle Manuel de Falla, Gibraltar, Andalusia, Gibraltar"
    },
    {
      "lat": 36.17510148225745,
      "lon": -5.3604701826068055,
      "geoinfo": {
        "display_name": "Estación de Servicio Campo de Gibraltar, 40, Carretera de las Industrias, Las Palomeras, La Línea de la Concepción, Campo de Gibraltar, Cádiz, Andalusia, 11300, Spain",
        "road": "Carretera de las Industrias",
        "house_number": "40",
        "neighbourhood": "Las Palomeras",
        "suburb": null,
        "city_district": null,
        "city": "La Línea de la Concepción",
        "state": "Andalusia",
        "postcode": "11300",
        "country": "Spain",
        "country_code": "es"
      },
      "address": "40 Carretera de las Industrias, Gibraltar, Andalusia, Gibraltar"
    },
    {
      "lat": 36.174996986568146,
      "lon": -5.391389124751729,
      "geoinfo": {
        "display_name": "Carril Bici Puente Maryorga - Guadarranque, Puente Mayorga, San Roque, Campo de Gibraltar, Cádiz, Andalusia, 11313, Spain",
        "road": "Carril Bici Puente Maryorga - Guadarranque",
        "house_number": null,
        "neighbourhood": null,
        "suburb": null,
        "city_district": null,
        "city": "San Roque",
        "state": "Andalusia",
        "postcode": "11313",
        "country": "Spain",
        "country_code": "es"
      },
      "address": "Carril Bici Puente Maryorga - Guadarranque, Gibraltar, Andalusia, Gibraltar"
    },
    {
      "lat": 36.174725714126104,
      "lon": -5.338224000121172,
      "geoinfo": {
        "display_name": "Calle Villaverde, La Línea de la Concepción, Periáñez, El Zabal Bajo, La Línea de la Concepción, Campo de Gibraltar, Cádiz, Andalusia, 11300, Spain",
        "road": "Calle Villaverde",
        "house_number": null,
        "neighbourhood": "Periáñez",
        "suburb": null,
        "city_district": null,
        "city": "La Línea de la Concepción",
        "state": "Andalusia",
        "postcode": "11300",
        "country": "Spain",
        "country_code": "es"
      },
      "address": "Calle Villaverde, Gibraltar, Andalusia, Gibraltar"
    },
    {
      "lat": 36.16561164935404,
      "lon": -5.339054941471,
      "geoinfo": {
        "display_name": "Calle Juan Sebastián Elcano, La Línea de la Concepción, Barriada Santa Bárbara, La Línea de la Concepción, Campo de Gibraltar, Cádiz, Andalusia, 11300, Spain",
        "road": "Calle Juan Sebastián Elcano",
        "house_number": null,
        "neighbourhood": "Barriada Santa Bárbara",
        "suburb": null,
        "city_district": null,
        "city": "La Línea de la Concepción",
        "state": "Andalusia",
        "postcode": "11300",
        "country": "Spain",
        "country_code": "es"
      },
      "address": "Calle Juan Sebastián Elcano, Gibraltar, Andalusia, Gibraltar"
    },
    {
      "lat": 36.1797308873391,
      "lon": -5.3758507186323055,
      "geoinfo": {
        "display_name": "7, Calle Isabel Pérez Morales, Distrito Bahía, Polígono Industrial Incosur, Campamento, San Roque, Campo de Gibraltar, Cádiz, Andalusia, 11314, Spain",
        "road": "Calle Isabel Pérez Morales",
        "house_number": "7",
        "neighbourhood": null,
        "suburb": null,
        "city_district": null,
        "city": "San Roque",
        "state": "Andalusia",
        "postcode": "11314",
        "country": "Spain",
        "country_code": "es"
      },
      "address": "7 Calle Isabel Pérez Morales, Gibraltar, Andalusia, Gibraltar"
    },
    {
      "lat": 36.17789342027518,
      "lon": -5.374902473183186,
      "geoinfo": {
        "display_name": "2, Calle Isabel Pérez Morales, Distrito Bahía, Polígono Industrial Incosur, Campamento, San Roque, Campo de Gibraltar, Cádiz, Andalusia, 11314, Spain",
        "road": "Calle Isabel Pérez Morales",
        "house_number": "2",
        "neighbourhood": null,
        "suburb": null,
        "city_district": null,
        "city": "San Roque",
        "state": "Andalusia",
        "postcode": "11314",
        "country": "Spain",
        "country_code": "es"
      },
      "address": "2 Calle Isabel Pérez Morales, Gibraltar, Andalusia, Gibraltar"
    },
    {
      "lat": 36.18118798864624,
      "lon": -5.328395903940857,
      "geoinfo": {
        "display_name": "Puerto Pesquero de La Atunara, Calle Las Anclas, La Línea de la Concepción, La Atunara, El Zabal Bajo, La Línea de la Concepción, Campo de Gibraltar, Cádiz, Andalusia, 11300, Spain",
        "road": "Calle Las Anclas",
        "house_number": null,
        "neighbourhood": "La Atunara",
        "suburb": null,
        "city_district": null,
        "city": "La Línea de la Concepción",
        "state": "Andalusia",
        "postcode": "11300",
        "country": "Spain",
        "country_code": "es"
      },
      "address": "Calle Las Anclas, Gibraltar, Andalusia, Gibraltar"
    },
    {
      "lat": 36.18031051150616,
      "lon": -5.3823274623509585,
      "geoinfo": {
        "display_name": "Piscina La Regata, Carga y Descarga Lidl, Distrito Bahía, Barriada Cepsa, Puente Mayorga, San Roque, Campo de Gibraltar, Cádiz, Andalusia, 11314, Spain",
        "road": "Carga y Descarga Lidl",
        "house_number": null,
        "neighbourhood": "Barriada Cepsa",
        "suburb": null,
        "city_district": null,
        "city": "San Roque",
        "state": "Andalusia",
        "postcode": "11314",
        "country": "Spain",
        "country_code": "es"
      },
      "address": "Carga y Descarga Lidl, Gibraltar, Andalusia, Gibraltar"
    },
    {
      "lat": 36.17095106504766,
      "lon": -5.370056724784007,
      "geoinfo": {
        "display_name": "Venta La Guita, Calle Real (Campamento), Distrito Bahía, Campamento, San Roque, Campo de Gibraltar, Cádiz, Andalusia, 11314, Spain",
        "road": "Calle Real (Campamento)",
        "house_number": null,
        "neighbourhood": null,
        "suburb": null,
        "city_district": null,
        "city": "San Roque",
        "state": "Andalusia",
        "postcode": "11314",
        "country": "Spain",
        "country_code": "es"
      },
      "address": "Calle Real (Campamento), Gibraltar, Andalusia, Gibraltar"
    },
    {
      "lat": 36.17320897869726,
      "lon": -5.342721084609785,
      "geoinfo": {
        "display_name": "Paseo de la Habana, La Línea de la Concepción, Barriada Paraíso - Manuel González, El Zabal Bajo, La Línea de la Concepción, Campo de Gibraltar, Cádiz, Andalusia, 11300, Spain",
        "road": "Paseo de la Habana",
        "house_number": null,
        "neighbourhood": "Barriada Paraíso - Manuel González",
        "suburb": null,
        "city_district": null,
        "city": "La Línea de la Concepción",
        "state": "Andalusia",
        "postcode": "11300",
        "country": "Spain",
        "country_code": "es"
      },
      "address": "Paseo de la Habana, Gibraltar, Andalusia, Gibraltar"
    },
    {
      "lat": 36.166337389721136,
      "lon": -5.349189633337966,
      "geoinfo": {
        "display_name": "Calle Feria, La Línea de la Concepción, Barriada San Pedro, La Línea de la Concepción, Campo de Gibraltar, Cádiz, Andalusia, 11300, Spain",
        "road": "Calle Feria",
        "house_number": null,
        "neighbourhood": "Barriada San Pedro",
        "suburb": null,
        "city_district": null,
        "city": "La Línea de la Concepción",
        "state": "Andalusia",
        "postcode": "11300",
        "country": "Spain",
        "country_code": "es"
      },
      "address": "Calle Feria, Gibraltar, Andalusia, Gibraltar"
    },
    {
      "lat": 36.16438658403724,
      "lon": -5.342486608723476,
      "geoinfo": {
        "display_name": "Calle Federico García Lorca, La Línea de la Concepción, Santiago, La Línea de la Concepción, Campo de Gibraltar, Cádiz, Andalusia, 11300, Spain",
        "road": "Calle Federico García Lorca",
        "house_number": null,
        "neighbourhood": "Santiago",
        "suburb": null,
        "city_district": null,
        "city": "La Línea de la Concepción",
        "state": "Andalusia",
        "postcode": "11300",
        "country": "Spain",
        "country_code": "es"
      },
      "address": "Calle Federico García Lorca, Gibraltar, Andalusia, Gibraltar"
    },
    {
      "lat": 36.14479936612614,
      "lon": -5.374702857254493,
      "geoinfo": {
        "display_name": "Western Arm, Gibraltar, GX11 1AA, Gibraltar",
        "road": null,
        "house_number": null,
        "neighbourhood": null,
        "suburb": null,
        "city_district": null,
        "city": "Gibraltar",
        "state": null,
        "postcode": "GX11 1AA",
        "country": "Gibraltar",
        "country_code": "gi"
      },
      "address": "Western Arm, Gibraltar, GX11 1AA, Gibraltar"
    },
    {
      "lat": 36.182837255116226,
      "lon": -5.332071897478944,
      "geoinfo": {
        "display_name": "Puerto Pesquero de La Atunara, Calle Canarias, La Línea de la Concepción, La Atunara, El Zabal Bajo, La Línea de la Concepción, Campo de Gibraltar, Cádiz, Andalusia, 11300, Spain",
        "road": "Calle Canarias",
        "house_number": null,
        "neighbourhood": "La Atunara",
        "suburb": null,
        "city_district": null,
        "city": "La Línea de la Concepción",
        "state": "Andalusia",
        "postcode": "11300",
        "country": "Spain",
        "country_code": "es"
      },
      "address": "666, Calle Canarias, Gibraltar, 11300 Andalusia, Gibraltar"
    },
    {
      "lat": 36.15668407328683,
      "lon": -5.315296141592345,
      "geoinfo": {
        "display_name": "El Zabal Bajo, La Línea de la Concepción, Campo de Gibraltar, Cádiz, Andalusia, 11315, Spain",
        "road": null,
        "house_number": null,
        "neighbourhood": null,
        "suburb": null,
        "city_district": null,
        "city": "La Línea de la Concepción",
        "state": "Andalusia",
        "postcode": "11315",
        "country": "Spain",
        "country_code": "es"
      },
      "address": "493, Gibraltar, 11315 Andalusia, Gibraltar"
    },
    {
      "lat": 36.147921006517166,
      "lon": -5.406645001654123,
      "geoinfo": {
        "display_name": "Puente Mayorga, San Roque, Campo de Gibraltar, Cádiz, Andalusia, 11313, Spain",
        "road": null,
        "house_number": null,
        "neighbourhood": null,
        "suburb": null,
        "city_district": null,
        "city": "San Roque",
        "state": "Andalusia",
        "postcode": "11313",
        "country": "Spain",
        "country_code": "es"
      },
      "address": "632, Gibraltar, 11313 Andalusia, Gibraltar"
    },
    {
      "lat": 36.1604737023746,
      "lon": -5.361740987529069,
      "geoinfo": {
        "display_name": "Puerto Chico, Los Navegantes, La Línea de la Concepción, Campo de Gibraltar, Cádiz, Andalusia, 11300, Spain",
        "road": "Puerto Chico",
        "house_number": null,
        "neighbourhood": "Los Navegantes",
        "suburb": null,
        "city_district": null,
        "city": "La Línea de la Concepción",
        "state": "Andalusia",
        "postcode": "11300",
        "country": "Spain",
        "country_code": "es"
      },
      "address": "585, Puerto Chico, Gibraltar, 11300 Andalusia, Gibraltar"
    },
    {
      "lat": 36.1743600510732,
      "lon": -5.334391942072634,
      "geoinfo": {
        "display_name": "Paseo Maritimo, La Línea de la Concepción, Periáñez, El Zabal Bajo, La Línea de la Concepción, Campo de Gibraltar, Cádiz, Andalusia, 11300, Spain",
        "road": "Paseo Maritimo",
        "house_number": null,
        "neighbourhood": "Periáñez",
        "suburb": null,
        "city_district": null,
        "city": "La Línea de la Concepción",
        "state": "Andalusia",
        "postcode": "11300",
        "country": "Spain",
        "country_code": "es"
      },
      "address": "839, Paseo Maritimo, Gibraltar, 11300 Andalusia, Gibraltar"
    },
    {
      "lat": 36.16675755651779,
      "lon": -5.351665959478999,
      "geoinfo": {
        "display_name": "Calle Colón, La Línea de la Concepción, Nueva Línea, La Línea de la Concepción, Campo de Gibraltar, Cádiz, Andalusia, 11300, Spain",
        "road": "Calle Colón",
        "house_number": null,
        "neighbourhood": "Nueva Línea",
        "suburb": null,
        "city_district": null,
        "city": "La Línea de la Concepción",
        "state": "Andalusia",
        "postcode": "11300",
        "country": "Spain",
        "country_code": "es"
      },
      "address": "613, Calle Colón, Gibraltar, 11300 Andalusia, Gibraltar"
    },
    {
      "lat": 36.109106922313124,
      "lon": -5.349206731705427,
      "geoinfo": {
        "display_name": "Shrine Walk, Europa Flats, Gibraltar, GX11 1AA, Gibraltar",
        "road": "Shrine Walk",
        "house_number": null,
        "neighbourhood": null,
        "suburb": "Europa Flats",
        "city_district": null,
        "city": "Gibraltar",
        "state": null,
        "postcode": "GX11 1AA",
        "country": "Gibraltar",
        "country_code": "gi"
      },
      "address": "Shrine Walk, Europa Flats, Gibraltar, GX11 1AA, Gibraltar"
    },
    {
      "lat": 36.13095159111167,
      "lon": -5.363294835376066,
      "geoinfo": {
        "display_name": "The Island Street, Gibraltar, GX11 1AA, Gibraltar",
        "road": "The Island Street",
        "house_number": null,
        "neighbourhood": null,
        "suburb": null,
        "city_district": null,
        "city": "Gibraltar",
        "state": null,
        "postcode": "GX11 1AA",
        "country": "Gibraltar",
        "country_code": "gi"
      },
      "address": "The Island Street, Gibraltar, GX11 1AA, Gibraltar"
    },
    {
      "lat": 36.17570120590868,
      "lon": -5.339785589649067,
      "geoinfo": {
        "display_name": "Centro de Menores La Concepción, Calle Santa Clara, La Línea de la Concepción, Barriada Paraíso - Manuel González, El Zabal Bajo, La Línea de la Concepción, Campo de Gibraltar, Cádiz, Andalusia, 11300, Spain",
        "road": "Calle Santa Clara",
        "house_number": null,
        "neighbourhood": "Barriada Paraíso - Manuel González",
        "suburb": null,
        "city_district": null,
        "city": "La Línea de la Concepción",
        "state": "Andalusia",
        "postcode": "11300",
        "country": "Spain",
        "country_code": "es"
      },
      "address": "920, Calle Santa Clara, Gibraltar, 11300 Andalusia, Gibraltar"
    },
    {
      "lat": 36.13202467626157,
      "lon": -5.371473234737321,
      "geoinfo": {
        "display_name": "South Mole, Gibraltar, GX11 1AA, Gibraltar",
        "road": null,
        "house_number": null,
        "neighbourhood": null,
        "suburb": null,
        "city_district": null,
        "city": "Gibraltar",
        "state": null,
        "postcode": "GX11 1AA",
        "country": "Gibraltar",
        "country_code": "gi"
      },
      "address": "South Mole, Gibraltar, GX11 1AA, Gibraltar"
    },
    {
      "lat": 36.18686704746826,
      "lon": -5.348048860640285,
      "geoinfo": {
        "display_name": "Camino del Cuervo, Zona Norte, El Zabal Bajo, La Línea de la Concepción, Campo de Gibraltar, Cádiz, Andalusia, 11315, Spain",
        "road": "Camino del Cuervo",
        "house_number": null,
        "neighbourhood": null,
        "suburb": null,
        "city_district": null,
        "city": "La Línea de la Concepción",
        "state": "Andalusia",
        "postcode": "11315",
        "country": "Spain",
        "country_code": "es"
      },
      "address": "603, Camino del Cuervo, Gibraltar, 11315 Andalusia, Gibraltar"
    },
    {
      "lat": 36.1103025532238,
      "lon": -5.331189305188956,
      "geoinfo": {
        "display_name": "Windmill Hill, Gibraltar, GX11 1AA, Gibraltar",
        "road": null,
        "house_number": null,
        "neighbourhood": null,
        "suburb": null,
        "city_district": null,
        "city": "Gibraltar",
        "state": null,
        "postcode": "GX11 1AA",
        "country": "Gibraltar",
        "country_code": "gi"
      },
      "address": "Windmill Hill, Gibraltar, GX11 1AA, Gibraltar"
    },
    {
      "lat": 36.14954214702137,
      "lon": -5.350488864625793,
      "geoinfo": {
        "display_name": "Victoria Stadium, Bayside Road Cycle Path, Ocean Village, Gibraltar, GX11 1AA, Gibraltar",
        "road": "Bayside Road Cycle Path",
        "house_number": null,
        "neighbourhood": "Ocean Village",
        "suburb": null,
        "city_district": null,
        "city": "Gibraltar",
        "state": null,
        "postcode": "GX11 1AA",
        "country": "Gibraltar",
        "country_code": "gi"
      },
      "address": "Victoria Stadium, Bayside Road Cycle Path, Ocean Village, Gibraltar, GX11 1AA, Gibraltar"
    },
    {
      "lat": 36.14609800035532,
      "lon": -5.338484465073049,
      "geoinfo": {
        "display_name": "Eastern Beach Play Park, Eastern Beach Road, Catalan Bay, Gibraltar, GX11 1AA, Gibraltar",
        "road": "Eastern Beach Road",
        "house_number": null,
        "neighbourhood": null,
        "suburb": null,
        "city_district": null,
        "city": "Gibraltar",
        "state": null,
        "postcode": "GX11 1AA",
        "country": "Gibraltar",
        "country_code": "gi"
      },
      "address": "Eastern Beach Play Park, Eastern Beach Road, Catalan Bay, Gibraltar, GX11 1AA, Gibraltar"
    },
    {
      "lat": 36.157896325031494,
      "lon": -5.364921819576909,
      "geoinfo": {
        "display_name": "Puerto Chico, Los Navegantes, La Línea de la Concepción, Campo de Gibraltar, Cádiz, Andalusia, 11300, Spain",
        "road": "Puerto Chico",
        "house_number": null,
        "neighbourhood": "Los Navegantes",
        "suburb": null,
        "city_district": null,
        "city": "La Línea de la Concepción",
        "state": "Andalusia",
        "postcode": "11300",
        "country": "Spain",
        "country_code": "es"
      },
      "address": "905, Puerto Chico, Gibraltar, 11300 Andalusia, Gibraltar"
    },
    {
      "lat": 36.149316505010326,
      "lon": -5.357265559490398,
      "geoinfo": {
        "display_name": "Marina Bay, Varyl Begg Estate, Gibraltar, GX11 1AA, Gibraltar",
        "road": "Varyl Begg Estate",
        "house_number": null,
        "neighbourhood": null,
        "suburb": null,
        "city_district": null,
        "city": "Gibraltar",
        "state": null,
        "postcode": "GX11 1AA",
        "country": "Gibraltar",
        "country_code": "gi"
      },
      "address": "Marina Bay, Varyl Begg Estate, Gibraltar, GX11 1AA, Gibraltar"
    },
    {
      "lat": 36.15671906185242,
      "lon": -5.356876038630888,
      "geoinfo": {
        "display_name": "Alcaidesa Marina, Avenida de los Yates, Los Navegantes, La Línea de la Concepción, Campo de Gibraltar, Cádiz, Andalusia, 11300, Spain",
        "road": "Avenida de los Yates",
        "house_number": null,
        "neighbourhood": "Los Navegantes",
        "suburb": null,
        "city_district": null,
        "city": "La Línea de la Concepción",
        "state": "Andalusia",
        "postcode": "11300",
        "country": "Spain",
        "country_code": "es"
      },
      "address": "024, Avenida de los Yates, Gibraltar, 11300 Andalusia, Gibraltar"
    },
    {
      "lat": 36.156431414035644,
      "lon": -5.382863179036573,
      "geoinfo": {
        "display_name": "Punta Mala, Cortijo Benalife, Campamento, San Roque, Campo de Gibraltar, Cádiz, Andalusia, 11314, Spain",
        "road": null,
        "house_number": null,
        "neighbourhood": "Cortijo Benalife",
        "suburb": null,
        "city_district": null,
        "city": "San Roque",
        "state": "Andalusia",
        "postcode": "11314",
        "country": "Spain",
        "country_code": "es"
      },
      "address": "208, Cortijo Benalife, Gibraltar, 11314 Andalusia, Gibraltar"
    },
    {
      "lat": 36.1322344897957,
      "lon": -5.362379809645001,
      "geoinfo": {
        "display_name": "The Island Street, Gibraltar, GX11 1AA, Gibraltar",
        "road": "The Island Street",
        "house_number": null,
        "neighbourhood": null,
        "suburb": null,
        "city_district": null,
        "city": "Gibraltar",
        "state": null,
        "postcode": "GX11 1AA",
        "country": "Gibraltar",
        "country_code": "gi"
      },
      "address": "161, The Island Street, GX11 1AA Gibraltar, Gibraltar"
    },
    {
      "lat": 36.17055009915896,
      "lon": -5.313798053207835,
      "geoinfo": {
        "display_name": "El Zabal Bajo, La Línea de la Concepción, Campo de Gibraltar, Cádiz, Andalusia, 11315, Spain",
        "road": null,
        "house_number": null,
        "neighbourhood": null,
        "suburb": null,
        "city_district": null,
        "city": "La Línea de la Concepción",
        "state": "Andalusia",
        "postcode": "11315",
        "country": "Spain",
        "country_code": "es"
      },
      "address": "369, Gibraltar, 11315 Andalusia, Gibraltar"
    },
    {
      "lat": 36.18450711859904,
      "lon": -5.35170371172266,
      "geoinfo": {
        "display_name": "Calle Balandro, Zabal Industrial I, El Zabal Bajo, La Línea de la Concepción, Campo de Gibraltar, Cádiz, Andalusia, 11300, Spain",
        "road": "Calle Balandro",
        "house_number": null,
        "neighbourhood": null,
        "suburb": null,
        "city_district": null,
        "city": "La Línea de la Concepción",
        "state": "Andalusia",
        "postcode": "11300",
        "country": "Spain",
        "country_code": "es"
      },
      "address": "201, Calle Balandro, Gibraltar, 11300 Andalusia, Gibraltar"
    },
    {
      "lat": 36.17880011712779,
      "lon": -5.344500297188571,
      "geoinfo": {
        "display_name": "Camino Paulina, Zona Sur, El Zabal Bajo, La Línea de la Concepción, Campo de Gibraltar, Cádiz, Andalusia, 11300, Spain",
        "road": "Camino Paulina",
        "house_number": null,
        "neighbourhood": null,
        "suburb": null,
        "city_district": null,
        "city": "La Línea de la Concepción",
        "state": "Andalusia",
        "postcode": "11300",
        "country": "Spain",
        "country_code": "es"
      },
      "address": "906, Camino Paulina, Gibraltar, 11300 Andalusia, Gibraltar"
    },
    {
      "lat": 36.13044626201572,
      "lon": -5.355937168574652,
      "geoinfo": {
        "display_name": "HM Naval Base Gibraltar, Ordnance Wharf, Gibraltar, GX11 1AA, Gibraltar",
        "road": "Ordnance Wharf",
        "house_number": null,
        "neighbourhood": null,
        "suburb": null,
        "city_district": null,
        "city": "Gibraltar",
        "state": null,
        "postcode": "GX11 1AA",
        "country": "Gibraltar",
        "country_code": "gi"
      },
      "address": "HM Naval Base Gibraltar, Ordnance Wharf, Gibraltar, GX11 1AA, Gibraltar"
    },
    {
      "lat": 36.11193995303641,
      "lon": -5.354715235189848,
      "geoinfo": {
        "display_name": "West Walk, Europa Flats, Gibraltar, GX11 1AA, Gibraltar",
        "road": "West Walk",
        "house_number": null,
        "neighbourhood": null,
        "suburb": "Europa Flats",
        "city_district": null,
        "city": "Gibraltar",
        "state": null,
        "postcode": "GX11 1AA",
        "country": "Gibraltar",
        "country_code": "gi"
      },
      "address": "West Walk, Europa Flats, Gibraltar, GX11 1AA, Gibraltar"
    },
    {
      "lat": 36.16653214059423,
      "lon": -5.3720134790758145,
      "geoinfo": {
        "display_name": "Carretera Sur, Instalaciones Portuarias de Campamento, Campamento, San Roque, Campo de Gibraltar, Cádiz, Andalusia, 11314, Spain",
        "road": "Carretera Sur",
        "house_number": null,
        "neighbourhood": null,
        "suburb": null,
        "city_district": null,
        "city": "San Roque",
        "state": "Andalusia",
        "postcode": "11314",
        "country": "Spain",
        "country_code": "es"
      },
      "address": "098, Carretera Sur, Gibraltar, 11314 Andalusia, Gibraltar"
    },
    {
      "lat": 36.182911367149856,
      "lon": -5.353257906462255,
      "geoinfo": {
        "display_name": "Calle del Navío, Zabal Industrial I, El Zabal Bajo, La Línea de la Concepción, Campo de Gibraltar, Cádiz, Andalusia, 11300, Spain",
        "road": "Calle del Navío",
        "house_number": null,
        "neighbourhood": null,
        "suburb": null,
        "city_district": null,
        "city": "La Línea de la Concepción",
        "state": "Andalusia",
        "postcode": "11300",
        "country": "Spain",
        "country_code": "es"
      },
      "address": "664, Calle del Navío, Gibraltar, 11300 Andalusia, Gibraltar"
    },
    {
      "lat": 36.15127945980004,
      "lon": -5.340503447896427,
      "geoinfo": {
        "display_name": "Gibraltar Airport, Mons Calpe Road, Waterport Terraces, Gibraltar, GX11 1AA, Gibraltar",
        "road": "Mons Calpe Road",
        "house_number": null,
        "neighbourhood": null,
        "suburb": null,
        "city_district": null,
        "city": "Gibraltar",
        "state": null,
        "postcode": "GX11 1AA",
        "country": "Gibraltar",
        "country_code": "gi"
      },
      "address": "Gibraltar Airport, Mons Calpe Road, Waterport Terraces, Gibraltar, GX11 1AA, Gibraltar"
    },
    {
      "lat": 36.151499315740516,
      "lon": -5.365252932203323,
      "geoinfo": {
        "display_name": "Mons Calpe Road, Gibraltar, GX11 1AA, Gibraltar",
        "road": "Mons Calpe Road",
        "house_number": null,
        "neighbourhood": null,
        "suburb": null,
        "city_district": null,
        "city": "Gibraltar",
        "state": null,
        "postcode": "GX11 1AA",
        "country": "Gibraltar",
        "country_code": "gi"
      },
      "address": "Mons Calpe Road, Gibraltar, GX11 1AA, Gibraltar"
    },
    {
      "lat": 36.13547252557562,
      "lon": -5.3799703423310685,
      "geoinfo": {
        "display_name": "South Mole, Gibraltar, GX11 1AA, Gibraltar",
        "road": null,
        "house_number": null,
        "neighbourhood": null,
        "suburb": null,
        "city_district": null,
        "city": "Gibraltar",
        "state": null,
        "postcode": "GX11 1AA",
        "country": "Gibraltar",
        "country_code": "gi"
      },
      "address": "213, GX11 1AA Gibraltar, Gibraltar"
    },
    {
      "lat": 36.137580347620556,
      "lon": -5.32253810840352,
      "geoinfo": {
        "display_name": "Catalan Bay, Gibraltar, GX11 1AA, Gibraltar",
        "road": null,
        "house_number": null,
        "neighbourhood": null,
        "suburb": null,
        "city_district": null,
        "city": "Gibraltar",
        "state": null,
        "postcode": "GX11 1AA",
        "country": "Gibraltar",
        "country_code": "gi"
      },
      "address": "Catalan Bay, Gibraltar, GX11 1AA, Gibraltar"
    },
    {
      "lat": 36.16107637875589,
      "lon": -5.3977715128490695,
      "geoinfo": {
        "display_name": "Puente Mayorga, San Roque, Campo de Gibraltar, Cádiz, Andalusia, 11313, Spain",
        "road": null,
        "house_number": null,
        "neighbourhood": null,
        "suburb": null,
        "city_district": null,
        "city": "San Roque",
        "state": "Andalusia",
        "postcode": "11313",
        "country": "Spain",
        "country_code": "es"
      },
      "address": "068, Gibraltar, 11313 Andalusia, Gibraltar"
    },
    {
      "lat": 36.16952682077121,
      "lon": -5.37050876978844,
      "geoinfo": {
        "display_name": "Puente Príncipe Alfonso, La Colonia, La Línea de la Concepción, Campo de Gibraltar, Cádiz, Andalusia, 11314, Spain",
        "road": "Puente Príncipe Alfonso",
        "house_number": null,
        "neighbourhood": "La Colonia",
        "suburb": null,
        "city_district": null,
        "city": "La Línea de la Concepción",
        "state": "Andalusia",
        "postcode": "11314",
        "country": "Spain",
        "country_code": "es"
      },
      "address": "587, Puente Príncipe Alfonso, Gibraltar, 11314 Andalusia, Gibraltar"
    },
    {
      "lat": 36.12376764677535,
      "lon": -5.336708971757433,
      "geoinfo": {
        "display_name": "Brian Navarro Way, Gibraltar, GX11 1AA, Gibraltar",
        "road": "Brian Navarro Way",
        "house_number": null,
        "neighbourhood": null,
        "suburb": null,
        "city_district": null,
        "city": "Gibraltar",
        "state": null,
        "postcode": "GX11 1AA",
        "country": "Gibraltar",
        "country_code": "gi"
      },
      "address": "Brian Navarro Way, Gibraltar, GX11 1AA, Gibraltar"
    },
    {
      "lat": 36.15484926099409,
      "lon": -5.364129866559943,
      "geoinfo": {
        "display_name": "Puerto Chico, Los Navegantes, La Línea de la Concepción, Campo de Gibraltar, Cádiz, Andalusia, 11300, Spain",
        "road": "Puerto Chico",
        "house_number": null,
        "neighbourhood": "Los Navegantes",
        "suburb": null,
        "city_district": null,
        "city": "La Línea de la Concepción",
        "state": "Andalusia",
        "postcode": "11300",
        "country": "Spain",
        "country_code": "es"
      },
      "address": "770, Puerto Chico, Gibraltar, 11300 Andalusia, Gibraltar"
    },
    {
      "lat": 36.17616773183574,
      "lon": -5.376022962498827,
      "geoinfo": {
        "display_name": "Callejón Benalife, Distrito Bahía, Cortijo Benalife, Campamento, San Roque, Campo de Gibraltar, Cádiz, Andalusia, 11314, Spain",
        "road": "Callejón Benalife",
        "house_number": null,
        "neighbourhood": "Cortijo Benalife",
        "suburb": null,
        "city_district": null,
        "city": "San Roque",
        "state": "Andalusia",
        "postcode": "11314",
        "country": "Spain",
        "country_code": "es"
      },
      "address": "930, Callejón Benalife, Gibraltar, 11314 Andalusia, Gibraltar"
    },
    {
      "lat": 36.18268638476344,
      "lon": -5.346457733991449,
      "geoinfo": {
        "display_name": "Camino del Canal, Zabal Industrial I, El Zabal Bajo, La Línea de la Concepción, Campo de Gibraltar, Cádiz, Andalusia, 11300, Spain",
        "road": "Camino del Canal",
        "house_number": null,
        "neighbourhood": null,
        "suburb": null,
        "city_district": null,
        "city": "La Línea de la Concepción",
        "state": "Andalusia",
        "postcode": "11300",
        "country": "Spain",
        "country_code": "es"
      },
      "address": "064, Camino del Canal, Gibraltar, 11300 Andalusia, Gibraltar"
    },
    {
      "lat": 36.15853726721126,
      "lon": -5.388494474892864,
      "geoinfo": {
        "display_name": "Punta Mala, Cortijo Benalife, Campamento, San Roque, Campo de Gibraltar, Cádiz, Andalusia, 11314, Spain",
        "road": null,
        "house_number": null,
        "neighbourhood": "Cortijo Benalife",
        "suburb": null,
        "city_district": null,
        "city": "San Roque",
        "state": "Andalusia",
        "postcode": "11314",
        "country": "Spain",
        "country_code": "es"
      },
      "address": "790, Cortijo Benalife, Gibraltar, 11314 Andalusia, Gibraltar"
    },
    {
      "lat": 36.1796822221944,
      "lon": -5.32361830083548,
      "geoinfo": {
        "display_name": "Las Anclas, El Zabal Bajo, La Línea de la Concepción, Campo de Gibraltar, Cádiz, Andalusia, 11300, Spain",
        "road": null,
        "house_number": null,
        "neighbourhood": "Las Anclas",
        "suburb": null,
        "city_district": null,
        "city": "La Línea de la Concepción",
        "state": "Andalusia",
        "postcode": "11300",
        "country": "Spain",
        "country_code": "es"
      },
      "address": "159, Las Anclas, Gibraltar, 11300 Andalusia, Gibraltar"
    },
    {
      "lat": 36.1895039758468,
      "lon": -5.35394889369232,
      "geoinfo": {
        "display_name": "Camino de la Ermita, Zabal Industrial I, El Zabal Bajo, La Línea de la Concepción, Campo de Gibraltar, Cádiz, Andalusia, 11315, Spain",
        "road": "Camino de la Ermita",
        "house_number": null,
        "neighbourhood": null,
        "suburb": null,
        "city_district": null,
        "city": "La Línea de la Concepción",
        "state": "Andalusia",
        "postcode": "11315",
        "country": "Spain",
        "country_code": "es"
      },
      "address": "674, Camino de la Ermita, Gibraltar, 11315 Andalusia, Gibraltar"
    },
    {
      "lat": 36.16132460404825,
      "lon": -5.324069653139329,
      "geoinfo": {
        "display_name": "El Conchal-El Castillo, La Línea de la Concepción, Campo de Gibraltar, Cádiz, Andalusia, 11300, Spain",
        "road": null,
        "house_number": null,
        "neighbourhood": "El Conchal-El Castillo",
        "suburb": null,
        "city_district": null,
        "city": "La Línea de la Concepción",
        "state": "Andalusia",
        "postcode": "11300",
        "country": "Spain",
        "country_code": "es"
      },
      "address": "769, El Conchal-El Castillo, Gibraltar, 11300 Andalusia, Gibraltar"
    },
    {
      "lat": 36.12010694226255,
      "lon": -5.355993992395139,
      "geoinfo": {
        "display_name": "Rosia Mole, Gibraltar, GX11 1AA, Gibraltar",
        "road": "Rosia Mole",
        "house_number": null,
        "neighbourhood": null,
        "suburb": null,
        "city_district": null,
        "city": "Gibraltar",
        "state": null,
        "postcode": "GX11 1AA",
        "country": "Gibraltar",
        "country_code": "gi"
      },
      "address": "Rosia Mole, Gibraltar, GX11 1AA, Gibraltar"
    },
    {
      "lat": 36.15472299743767,
      "lon": -5.371148002309354,
      "geoinfo": {
        "display_name": "Puerto Chico, Los Navegantes, La Línea de la Concepción, Campo de Gibraltar, Cádiz, Andalusia, 11300, Spain",
        "road": "Puerto Chico",
        "house_number": null,
        "neighbourhood": "Los Navegantes",
        "suburb": null,
        "city_district": null,
        "city": "La Línea de la Concepción",
        "state": "Andalusia",
        "postcode": "11300",
        "country": "Spain",
        "country_code": "es"
      },
      "address": "623, Puerto Chico, Gibraltar, 11300 Andalusia, Gibraltar"
    },
    {
      "lat": 36.1666012480131,
      "lon": -5.347813420014874,
      "geoinfo": {
        "display_name": "Paseo Compañía de Teatro Benavente, La Línea de la Concepción, El Conchal-El Castillo, La Línea de la Concepción, Campo de Gibraltar, Cádiz, Andalusia, 11300, Spain",
        "road": "Paseo Compañía de Teatro Benavente",
        "house_number": null,
        "neighbourhood": "El Conchal-El Castillo",
        "suburb": null,
        "city_district": null,
        "city": "La Línea de la Concepción",
        "state": "Andalusia",
        "postcode": "11300",
        "country": "Spain",
        "country_code": "es"
      },
      "address": "431, Paseo Compañía de Teatro Benavente, Gibraltar, 11300 Andalusia, Gibraltar"
    },
    {
      "lat": 36.13780174002531,
      "lon": -5.365233874228336,
      "geoinfo": {
        "display_name": "Peter Isola Promenade, Villa Vieja, Gibraltar, GX11 1AA, Gibraltar",
        "road": "Peter Isola Promenade",
        "house_number": null,
        "neighbourhood": "Villa Vieja",
        "suburb": null,
        "city_district": null,
        "city": "Gibraltar",
        "state": null,
        "postcode": "GX11 1AA",
        "country": "Gibraltar",
        "country_code": "gi"
      },
      "address": "Peter Isola Promenade, Villa Vieja, Gibraltar, GX11 1AA, Gibraltar"
    },
    {
      "lat": 36.1291100649304,
      "lon": -5.338420177256067,
      "geoinfo": {
        "display_name": "Sir Herbert Road, Gibraltar, GX11 1AA, Gibraltar",
        "road": "Sir Herbert Road",
        "house_number": null,
        "neighbourhood": null,
        "suburb": null,
        "city_district": null,
        "city": "Gibraltar",
        "state": null,
        "postcode": "GX11 1AA",
        "country": "Gibraltar",
        "country_code": "gi"
      },
      "address": "Sir Herbert Road, Gibraltar, GX11 1AA, Gibraltar"
    },
    {
      "lat": 36.137554502757105,
      "lon": -5.341728399976454,
      "geoinfo": {
        "display_name": "Sir Herbert Road, Catalan Bay, Gibraltar, GX11 1AA, Gibraltar",
        "road": "Sir Herbert Road",
        "house_number": null,
        "neighbourhood": null,
        "suburb": null,
        "city_district": null,
        "city": "Gibraltar",
        "state": null,
        "postcode": "GX11 1AA",
        "country": "Gibraltar",
        "country_code": "gi"
      },
      "address": "Sir Herbert Road, Catalan Bay, Gibraltar, GX11 1AA, Gibraltar"
    },
    {
      "lat": 36.18203712333448,
      "lon": -5.336238528705606,
      "geoinfo": {
        "display_name": "La Línea de la Concepción, Urb. Las Anclas, El Zabal Bajo, La Línea de la Concepción, Campo de Gibraltar, Cádiz, Andalusia, 11300, Spain",
        "road": null,
        "house_number": null,
        "neighbourhood": null,
        "suburb": null,
        "city_district": null,
        "city": "La Línea de la Concepción",
        "state": "Andalusia",
        "postcode": "11300",
        "country": "Spain",
        "country_code": "es"
      },
      "address": "797, Gibraltar, 11300 Andalusia, Gibraltar"
    },
    {
      "lat": 36.142133528877864,
      "lon": -5.3637527129753115,
      "geoinfo": {
        "display_name": "Peter Isola Promenade, Villa Vieja, Gibraltar, GX11 1AA, Gibraltar",
        "road": "Peter Isola Promenade",
        "house_number": null,
        "neighbourhood": "Villa Vieja",
        "suburb": null,
        "city_district": null,
        "city": "Gibraltar",
        "state": null,
        "postcode": "GX11 1AA",
        "country": "Gibraltar",
        "country_code": "gi"
      },
      "address": "945, Peter Isola Promenade, GX11 1AA Gibraltar, Gibraltar"
    },
    {
      "lat": 36.13482368646234,
      "lon": -5.351469638622822,
      "geoinfo": {
        "display_name": "Charles V Ramp, Gibraltar, GX11 1AA, Gibraltar",
        "road": "Charles V Ramp",
        "house_number": null,
        "neighbourhood": null,
        "suburb": null,
        "city_district": null,
        "city": "Gibraltar",
        "state": null,
        "postcode": "GX11 1AA",
        "country": "Gibraltar",
        "country_code": "gi"
      },
      "address": "Charles V Ramp, Gibraltar, GX11 1AA, Gibraltar"
    },
    {
      "lat": 36.15635494253793,
      "lon": -5.331266913246289,
      "geoinfo": {
        "display_name": "El Conchal-El Castillo, La Línea de la Concepción, Campo de Gibraltar, Cádiz, Andalusia, 11300, Spain",
        "road": null,
        "house_number": null,
        "neighbourhood": "El Conchal-El Castillo",
        "suburb": null,
        "city_district": null,
        "city": "La Línea de la Concepción",
        "state": "Andalusia",
        "postcode": "11300",
        "country": "Spain",
        "country_code": "es"
      },
      "address": "502, El Conchal-El Castillo, Gibraltar, 11300 Andalusia, Gibraltar"
    },
    {
      "lat": 36.131184273904616,
      "lon": -5.34056088082811,
      "geoinfo": {
        "display_name": "Sir Herbert Road, Catalan Bay, Gibraltar, GX11 1AA, Gibraltar",
        "road": "Sir Herbert Road",
        "house_number": null,
        "neighbourhood": null,
        "suburb": null,
        "city_district": null,
        "city": "Gibraltar",
        "state": null,
        "postcode": "GX11 1AA",
        "country": "Gibraltar",
        "country_code": "gi"
      },
      "address": "722, Sir Herbert Road, GX11 1AA Gibraltar, Gibraltar"
    },
    {
      "lat": 36.1590055384667,
      "lon": -5.329256916399408,
      "geoinfo": {
        "display_name": "El Conchal-El Castillo, La Línea de la Concepción, Campo de Gibraltar, Cádiz, Andalusia, 11300, Spain",
        "road": null,
        "house_number": null,
        "neighbourhood": "El Conchal-El Castillo",
        "suburb": null,
        "city_district": null,
        "city": "La Línea de la Concepción",
        "state": "Andalusia",
        "postcode": "11300",
        "country": "Spain",
        "country_code": "es"
      },
      "address": "455, El Conchal-El Castillo, Gibraltar, 11300 Andalusia, Gibraltar"
    },
    {
      "lat": 36.14241564214202,
      "lon": -5.346183501932268,
      "geoinfo": {
        "display_name": "Signal Station Road, Ocean Village, Catalan Bay, Gibraltar, GX11 1AA, Gibraltar",
        "road": "Signal Station Road",
        "house_number": null,
        "neighbourhood": "Ocean Village",
        "suburb": null,
        "city_district": null,
        "city": "Gibraltar",
        "state": null,
        "postcode": "GX11 1AA",
        "country": "Gibraltar",
        "country_code": "gi"
      },
      "address": "Signal Station Road, Ocean Village, Catalan Bay, Gibraltar, GX11 1AA, Gibraltar"
    },
    {
      "lat": 36.1688928309718,
      "lon": -5.306330716310404,
      "geoinfo": {
        "display_name": "El Zabal Bajo, La Línea de la Concepción, Campo de Gibraltar, Cádiz, Andalusia, 11315, Spain",
        "road": null,
        "house_number": null,
        "neighbourhood": null,
        "suburb": null,
        "city_district": null,
        "city": "La Línea de la Concepción",
        "state": "Andalusia",
        "postcode": "11315",
        "country": "Spain",
        "country_code": "es"
      },
      "address": "827, Gibraltar, 11315 Andalusia, Gibraltar"
    },
    {
      "lat": 36.181510757639664,
      "lon": -5.342511260717197,
      "geoinfo": {
        "display_name": "Zona Sur, El Zabal Bajo, La Línea de la Concepción, Campo de Gibraltar, Cádiz, Andalusia, 11300, Spain",
        "road": null,
        "house_number": null,
        "neighbourhood": null,
        "suburb": null,
        "city_district": null,
        "city": "La Línea de la Concepción",
        "state": "Andalusia",
        "postcode": "11300",
        "country": "Spain",
        "country_code": "es"
      },
      "address": "652, Gibraltar, 11300 Andalusia, Gibraltar"
    },
    {
      "lat": 36.16301473383538,
      "lon": -5.344328276006732,
      "geoinfo": {
        "display_name": "Colegio Salesianos San Juan Bosco de La Línea de la Concepción, 5, Avenida Menéndez Pelayo, La Línea de la Concepción, Julián Besteiro, La Línea de la Concepción, Campo de Gibraltar, Cádiz, Andalusia, 11300, Spain",
        "road": "Avenida Menéndez Pelayo",
        "house_number": "5",
        "neighbourhood": "Julián Besteiro",
        "suburb": null,
        "city_district": null,
        "city": "La Línea de la Concepción",
        "state": "Andalusia",
        "postcode": "11300",
        "country": "Spain",
        "country_code": "es"
      },
      "address": "5, Avenida Menéndez Pelayo, Gibraltar, 11300 Andalusia, Gibraltar"
    },
    {
      "lat": 36.12326662408571,
      "lon": -5.369991055943926,
      "geoinfo": {
        "display_name": "South Mole, Gibraltar, GX11 1AA, Gibraltar",
        "road": null,
        "house_number": null,
        "neighbourhood": null,
        "suburb": null,
        "city_district": null,
        "city": "Gibraltar",
        "state": null,
        "postcode": "GX11 1AA",
        "country": "Gibraltar",
        "country_code": "gi"
      },
      "address": "225, GX11 1AA Gibraltar, Gibraltar"
    },
    {
      "lat": 36.12906468344747,
      "lon": -5.359772840738937,
      "geoinfo": {
        "display_name": "The Island Street, Gibraltar, GX11 1AA, Gibraltar",
        "road": "The Island Street",
        "house_number": null,
        "neighbourhood": null,
        "suburb": null,
        "city_district": null,
        "city": "Gibraltar",
        "state": null,
        "postcode": "GX11 1AA",
        "country": "Gibraltar",
        "country_code": "gi"
      },
      "address": "278, The Island Street, GX11 1AA Gibraltar, Gibraltar"
    },
    {
      "lat": 36.15895213617493,
      "lon": -5.375610068187822,
      "geoinfo": {
        "display_name": "Punta Mala, Cortijo Benalife, Campamento, San Roque, Campo de Gibraltar, Cádiz, Andalusia, 11314, Spain",
        "road": null,
        "house_number": null,
        "neighbourhood": "Cortijo Benalife",
        "suburb": null,
        "city_district": null,
        "city": "San Roque",
        "state": "Andalusia",
        "postcode": "11314",
        "country": "Spain",
        "country_code": "es"
      },
      "address": "554, Cortijo Benalife, Gibraltar, 11314 Andalusia, Gibraltar"
    },
    {
      "lat": 36.16201014828532,
      "lon": -5.339603815192125,
      "geoinfo": {
        "display_name": "Plaza José Chacón Vichino, La Línea de la Concepción, Huerta Fava, La Línea de la Concepción, Campo de Gibraltar, Cádiz, Andalusia, 11300, Spain",
        "road": "Plaza José Chacón Vichino",
        "house_number": null,
        "neighbourhood": "Huerta Fava",
        "suburb": null,
        "city_district": null,
        "city": "La Línea de la Concepción",
        "state": "Andalusia",
        "postcode": "11300",
        "country": "Spain",
        "country_code": "es"
      },
      "address": "386, Plaza José Chacón Vichino, Gibraltar, 11300 Andalusia, Gibraltar"
    },
    {
      "lat": 36.15539042359515,
      "lon": -5.375861398167235,
      "geoinfo": {
        "display_name": "La Colonia, La Línea de la Concepción, Campo de Gibraltar, Cádiz, Andalusia, 11314, Spain",
        "road": null,
        "house_number": null,
        "neighbourhood": "La Colonia",
        "suburb": null,
        "city_district": null,
        "city": "La Línea de la Concepción",
        "state": "Andalusia",
        "postcode": "11314",
        "country": "Spain",
        "country_code": "es"
      },
      "address": "970, La Colonia, Gibraltar, 11314 Andalusia, Gibraltar"
    },
    {
      "lat": 36.15694661258279,
      "lon": -5.343441685906143,
      "geoinfo": {
        "display_name": "Parque Canino de La Línea de la Concepción, Parque Municipal Princesa Sofía, La Línea de la Concepción, Ballesteros, La Línea de la Concepción, Campo de Gibraltar, Cádiz, Andalusia, 11300, Spain",
        "road": "Parque Municipal Princesa Sofía",
        "house_number": null,
        "neighbourhood": "Ballesteros",
        "suburb": null,
        "city_district": null,
        "city": "La Línea de la Concepción",
        "state": "Andalusia",
        "postcode": "11300",
        "country": "Spain",
        "country_code": "es"
      },
      "address": "688, Parque Municipal Princesa Sofía, Gibraltar, 11300 Andalusia, Gibraltar"
    },
    {
      "lat": 36.153214707461146,
      "lon": -5.402496047883311,
      "geoinfo": {
        "display_name": "Puente Mayorga, San Roque, Campo de Gibraltar, Cádiz, Andalusia, 11313, Spain",
        "road": null,
        "house_number": null,
        "neighbourhood": null,
        "suburb": null,
        "city_district": null,
        "city": "San Roque",
        "state": "Andalusia",
        "postcode": "11313",
        "country": "Spain",
        "country_code": "es"
      },
      "address": "765, Gibraltar, 11313 Andalusia, Gibraltar"
    },
    {
      "lat": 36.169683828546745,
      "lon": -5.3877667034173395,
      "geoinfo": {
        "display_name": "Punta Mala, Cortijo Benalife, Campamento, San Roque, Campo de Gibraltar, Cádiz, Andalusia, 11314, Spain",
        "road": null,
        "house_number": null,
        "neighbourhood": "Cortijo Benalife",
        "suburb": null,
        "city_district": null,
        "city": "San Roque",
        "state": "Andalusia",
        "postcode": "11314",
        "country": "Spain",
        "country_code": "es"
      },
      "address": "606, Cortijo Benalife, Gibraltar, 11314 Andalusia, Gibraltar"
    },
    {
      "lat": 36.151381012509376,
      "lon": -5.371476710764015,
      "geoinfo": {
        "display_name": "North Mole, Gibraltar, GX11 1AA, Gibraltar",
        "road": null,
        "house_number": null,
        "neighbourhood": null,
        "suburb": null,
        "city_district": null,
        "city": "Gibraltar",
        "state": null,
        "postcode": "GX11 1AA",
        "country": "Gibraltar",
        "country_code": "gi"
      },
      "address": "North Mole, Gibraltar, GX11 1AA, Gibraltar"
    },
    {
      "lat": 36.128928812027254,
      "lon": -5.340740891255607,
      "geoinfo": {
        "display_name": "Sir Herbert Road, Gibraltar, GX11 1AA, Gibraltar",
        "road": "Sir Herbert Road",
        "house_number": null,
        "neighbourhood": null,
        "suburb": null,
        "city_district": null,
        "city": "Gibraltar",
        "state": null,
        "postcode": "GX11 1AA",
        "country": "Gibraltar",
        "country_code": "gi"
      },
      "address": "014, Sir Herbert Road, GX11 1AA Gibraltar, Gibraltar"
    },
    {
      "lat": 36.11807313205391,
      "lon": -5.3452156839712295,
      "geoinfo": {
        "display_name": "Lathbury Sports Complex, Windmill Hill Road, Gibraltar, GX11 1AA, Gibraltar",
        "road": "Windmill Hill Road",
        "house_number": null,
        "neighbourhood": null,
        "suburb": null,
        "city_district": null,
        "city": "Gibraltar",
        "state": null,
        "postcode": "GX11 1AA",
        "country": "Gibraltar",
        "country_code": "gi"
      },
      "address": "Lathbury Sports Complex, Windmill Hill Road, Gibraltar, GX11 1AA, Gibraltar"
    }
  ],
  "updated_at": "2025-10-19T04:33:42.120493+00:00",
  "_kind": "geo_samples"
}