{
  "country_code": "GW",
  "country": "Guinea-Bissau",
  "city": "Gabú",
  "geonameid": 2372532,
  "target_addresses": 34,
  "samples": [
    {
      "lat": 12.26837983851236,
      "lon": -14.250634503237265,
      "geoinfo": {
        "display_name": "Gabu, Sector de Gabu, Gabu Region, East, Guinea-Bissau",
        "road": null,
        "house_number": null,
        "neighbourhood": null,
        "suburb": null,
        "city_district": null,
        "city": "Gabu",
        "state": "Gabu Region",
        "postcode": null,
        "country": "Guinea-Bissau",
        "country_code": "gw"
      },
      "address": "522, Gabú, 71438 Gabu Region, Guinea-Bissau"
    },
    {
      "lat": 12.283995536574468,
      "lon": -14.204184661258603,
      "geoinfo": {
        "display_name": "Gabu, Sector de Gabu, Gabu Region, East, Guinea-Bissau",
        "road": null,
        "house_number": null,
        "neighbourhood": null,
        "suburb": null,
        "city_district": null,
        "city": "Gabu",
        "state": "Gabu Region",
        "postcode": null,
        "country": "Guinea-Bissau",
        "country_code": "gw"
      },
      "address": "192, Gabú, 23259 Gabu Region, Guinea-Bissau"
    },
    {
      "lat": 12.278143463960774,
      "lon": -14.228999864184303,
      "geoinfo": {
        "display_name": "Gabu, Sector de Gabu, Gabu Region, East, Guinea-Bissau",
        "road": null,
        "house_number": null,
        "neighbourhood": null,
        "suburb": null,
        "city_district": null,
        "city": "Gabu",
        "state": "Gabu Region",
        "postcode": null,
        "country": "Guinea-Bissau",
        "country_code": "gw"
      },
      "address": "871, Gabú, 96248 Gabu Region, Guinea-Bissau"
    },
    {
      "lat": 12.314119970681555,
      "lon": -14.249978440349071,
      "geoinfo": {
        "display_name": "Gabu, Sector de Gabu, Gabu Region, East, Guinea-Bissau",
        "road": null,
        "house_number": null,
        "neighbourhood": null,
        "suburb": null,
        "city_district": null,
        "city": "Gabu",
        "state": "Gabu Region",
        "postcode": null,
        "country": "Guinea-Bissau",
        "country_code": "gw"
      },
      "address": "162, Gabú, 39480 Gabu Region, Guinea-Bissau"
    },
    {
      "lat": 12.262094964573912,
      "lon": -14.240666845327791,
      "geoinfo": {
        "display_name": "Gabu, Sector de Gabu, Gabu Region, East, Guinea-Bissau",
        "road": null,
        "house_number": null,
        "neighbourhood": null,
        "suburb": null,
        "city_district": null,
        "city": "Gabu",
        "state": "Gabu Region",
        "postcode": null,
        "country": "Guinea-Bissau",
        "country_code": "gw"
      },
      "address": "071, Gabú, 47330 Gabu Region, Guinea-Bissau"
    },
    {
      "lat": 12.27287856166917,
      "lon": -14.237858508965036,
      "geoinfo": {
        "display_name": "Gabu, Sector de Gabu, Gabu Region, East, Guinea-Bissau",
        "road": null,
        "house_number": null,
        "neighbourhood": null,
        "suburb": null,
        "city_district": null,
        "city": "Gabu",
        "state": "Gabu Region",
        "postcode": null,
        "country": "Guinea-Bissau",
        "country_code": "gw"
      },
      "address": "367, Gabú, 64069 Gabu Region, Guinea-Bissau"
    },
    {
      "lat": 12.289685047346685,
      "lon": -14.241740666789909,
      "geoinfo": {
        "display_name": "Gabu, Sector de Gabu, Gabu Region, East, Guinea-Bissau",
        "road": null,
        "house_number": null,
        "neighbourhood": null,
        "suburb": null,
        "city_district": null,
        "city": "Gabu",
        "state": "Gabu Region",
        "postcode": null,
        "country": "Guinea-Bissau",
        "country_code": "gw"
      },
      "address": "990, Gabú, 21021 Gabu Region, Guinea-Bissau"
    },
    {
      "lat": 12.289218016227755,
      "lon": -14.186118440719847,
      "geoinfo": {
        "display_name": "Gabu, Sector de Gabu, Gabu Region, East, Guinea-Bissau",
        "road": null,
        "house_number": null,
        "neighbourhood": null,
        "suburb": null,
        "city_district": null,
        "city": "Gabu",
        "state": "Gabu Region",
        "postcode": null,
        "country": "Guinea-Bissau",
        "country_code": "gw"
      },
      "address": "969, Gabú, 42945 Gabu Region, Guinea-Bissau"
    },
    {
      "lat": 12.247640881266038,
      "lon": -14.195687599287327,
      "geoinfo": {
        "display_name": "N4, Coaina, Uelingara, Sector de Gabu, Gabu Region, East, Guinea-Bissau",
        "road": "N4",
        "house_number": null,
        "neighbourhood": null,
        "suburb": null,
        "city_district": null,
        "city": "Uelingara",
        "state": "Gabu Region",
        "postcode": null,
        "country": "Guinea-Bissau",
        "country_code": "gw"
      },
      "address": "N4, Gabú, 23228 Gabu Region, Guinea-Bissau"
    },
    {
      "lat": 12.272797738074777,
      "lon": -14.256808372729603,
      "geoinfo": {
        "display_name": "Gabu, Sector de Gabu, Gabu Region, East, Guinea-Bissau",
        "road": null,
        "house_number": null,
        "neighbourhood": null,
        "suburb": null,
        "city_district": null,
        "city": "Gabu",
        "state": "Gabu Region",
        "postcode": null,
        "country": "Guinea-Bissau",
        "country_code": "gw"
      },
      "address": "147, Gabú, 44395 Gabu Region, Guinea-Bissau"
    },
    {
      "lat": 12.295364688673846,
      "lon": -14.253050053751194,
      "geoinfo": {
        "display_name": "Gabu, Sector de Gabu, Gabu Region, East, Guinea-Bissau",
        "road": null,
        "house_number": null,
        "neighbourhood": null,
        "suburb": null,
        "city_district": null,
        "city": "Gabu",
        "state": "Gabu Region",
        "postcode": null,
        "country": "Guinea-Bissau",
        "country_code": "gw"
      },
      "address": "594, Gabú, 66064 Gabu Region, Guinea-Bissau"
    },
    {
      "lat": 12.270998922643297,
      "lon": -14.249983966110939,
      "geoinfo": {
        "display_name": "Gabu, Sector de Gabu, Gabu Region, East, Guinea-Bissau",
        "road": null,
        "house_number": null,
        "neighbourhood": null,
        "suburb": null,
        "city_district": null,
        "city": "Gabu",
        "state": "Gabu Region",
        "postcode": null,
        "country": "Guinea-Bissau",
        "country_code": "gw"
      },
      "address": "859, Gabú, 38073 Gabu Region, Guinea-Bissau"
    },
    {
      "lat": 12.275568239090582,
      "lon": -14.256326123526234,
      "geoinfo": {
        "display_name": "Gabu, Sector de Gabu, Gabu Region, East, Guinea-Bissau",
        "road": null,
        "house_number": null,
        "neighbourhood": null,
        "suburb": null,
        "city_district": null,
        "city": "Gabu",
        "state": "Gabu Region",
        "postcode": null,
        "country": "Guinea-Bissau",
        "country_code": "gw"
      },
      "address": "769, Gabú, 15827 Gabu Region, Guinea-Bissau"
    },
    {
      "lat": 12.248452892752368,
      "lon": -14.224733232150971,
      "geoinfo": {
        "display_name": "Gabu, Sector de Gabu, Gabu Region, East, Guinea-Bissau",
        "road": null,
        "house_number": null,
        "neighbourhood": null,
        "suburb": null,
        "city_district": null,
        "city": "Gabu",
        "state": "Gabu Region",
        "postcode": null,
        "country": "Guinea-Bissau",
        "country_code": "gw"
      },
      "address": "770, Gabú, 89297 Gabu Region, Guinea-Bissau"
    },
    {
      "lat": 12.252803578491545,
      "lon": -14.188994669325217,
      "geoinfo": {
        "display_name": "Caboca, Sector de Gabu, Gabu Region, East, Guinea-Bissau",
        "road": null,
        "house_number": null,
        "neighbourhood": null,
        "suburb": null,
        "city_district": null,
        "city": "Caboca",
        "state": "Gabu Region",
        "postcode": null,
        "country": "Guinea-Bissau",
        "country_code": "gw"
      },
      "address": "482, Gabú, 09152 Gabu Region, Guinea-Bissau"
    },
    {
      "lat": 12.246857937489297,
      "lon": -14.22969044958904,
      "geoinfo": {
        "display_name": "Gabu, Sector de Gabu, Gabu Region, East, Guinea-Bissau",
        "road": null,
        "house_number": null,
        "neighbourhood": null,
        "suburb": null,
        "city_district": null,
        "city": "Gabu",
        "state": "Gabu Region",
        "postcode": null,
        "country": "Guinea-Bissau",
        "country_code": "gw"
      },
      "address": "671, Gabú, 29083 Gabu Region, Guinea-Bissau"
    },
    {
      "lat": 12.279800602576767,
      "lon": -14.232802586461116,
      "geoinfo": {
        "display_name": "Gabu, Sector de Gabu, Gabu Region, East, Guinea-Bissau",
        "road": null,
        "house_number": null,
        "neighbourhood": null,
        "suburb": null,
        "city_district": null,
        "city": "Gabu",
        "state": "Gabu Region",
        "postcode": null,
        "country": "Guinea-Bissau",
        "country_code": "gw"
      },
      "address": "939, Gabú, 77804 Gabu Region, Guinea-Bissau"
    },
    {
      "lat": 12.310557597414055,
      "lon": -14.25279525852822,
      "geoinfo": {
        "display_name": "Gabu, Sector de Gabu, Gabu Region, East, Guinea-Bissau",
        "road": null,
        "house_number": null,
        "neighbourhood": null,
        "suburb": null,
        "city_district": null,
        "city": "Gabu",
        "state": "Gabu Region",
        "postcode": null,
        "country": "Guinea-Bissau",
        "country_code": "gw"
      },
      "address": "178, Gabú, 77467 Gabu Region, Guinea-Bissau"
    },
    {
      "lat": 12.262034132219187,
      "lon": -14.261580358871264,
      "geoinfo": {
        "display_name": "Gabu, Sector de Gabu, Gabu Region, East, Guinea-Bissau",
        "road": null,
        "house_number": null,
        "neighbourhood": null,
        "suburb": null,
        "city_district": null,
        "city": "Gabu",
        "state": "Gabu Region",
        "postcode": null,
        "country": "Guinea-Bissau",
        "country_code": "gw"
      },
      "address": "089, Gabú, 47647 Gabu Region, Guinea-Bissau"
    },
    {
      "lat": 12.30670188761355,
      "lon": -14.220770152201982,
      "geoinfo": {
        "display_name": "Gabu, Sector de Gabu, Gabu Region, East, Guinea-Bissau",
        "road": null,
        "house_number": null,
        "neighbourhood": null,
        "suburb": null,
        "city_district": null,
        "city": "Gabu",
        "state": "Gabu Region",
        "postcode": null,
        "country": "Guinea-Bissau",
        "country_code": "gw"
      },
      "address": "213, Gabú, 39469 Gabu Region, Guinea-Bissau"
    },
    {
      "lat": 12.31025866112212,
      "lon": -14.199048595628108,
      "geoinfo": {
        "display_name": "Gabu, Sector de Gabu, Gabu Region, East, Guinea-Bissau",
        "road": null,
        "house_number": null,
        "neighbourhood": null,
        "suburb": null,
        "city_district": null,
        "city": "Gabu",
        "state": "Gabu Region",
        "postcode": null,
        "country": "Guinea-Bissau",
        "country_code": "gw"
      },
      "address": "137, Gabú, 97439 Gabu Region, Guinea-Bissau"
    },
    {
      "lat": 12.282817613826802,
      "lon": -14.188159206559114,
      "geoinfo": {
        "display_name": "Gabu, Sector de Gabu, Gabu Region, East, Guinea-Bissau",
        "road": null,
        "house_number": null,
        "neighbourhood": null,
        "suburb": null,
        "city_district": null,
        "city": "Gabu",
        "state": "Gabu Region",
        "postcode": null,
        "country": "Guinea-Bissau",
        "country_code": "gw"
      },
      "address": "628, Gabú, 13053 Gabu Region, Guinea-Bissau"
    },
    {
      "lat": 12.309069730821037,
      "lon": -14.19089268059495,
      "geoinfo": {
        "display_name": "N4, Cumpaghor, Sector de Gabu, Gabu Region, East, Guinea-Bissau",
        "road": "N4",
        "house_number": null,
        "neighbourhood": null,
        "suburb": null,
        "city_district": null,
        "city": "Cumpaghor",
        "state": "Gabu Region",
        "postcode": null,
        "country": "Guinea-Bissau",
        "country_code": "gw"
      },
      "address": "N4, Gabú, 92937 Gabu Region, Guinea-Bissau"
    },
    {
      "lat": 12.26531592240661,
      "lon": -14.185440854059427,
      "geoinfo": {
        "display_name": "N1, Tassilima, Sector de Gabu, Gabu Region, East, Guinea-Bissau",
        "road": "N1",
        "house_number": null,
        "neighbourhood": null,
        "suburb": null,
        "city_district": null,
        "city": "Tassilima",
        "state": "Gabu Region",
        "postcode": null,
        "country": "Guinea-Bissau",
        "country_code": "gw"
      },
      "address": "N1, Gabú, 65749 Gabu Region, Guinea-Bissau"
    },
    {
      "lat": 12.306398715183402,
      "lon": -14.215682468526083,
      "geoinfo": {
        "display_name": "Gabu, Sector de Gabu, Gabu Region, East, Guinea-Bissau",
        "road": null,
        "house_number": null,
        "neighbourhood": null,
        "suburb": null,
        "city_district": null,
        "city": "Gabu",
        "state": "Gabu Region",
        "postcode": null,
        "country": "Guinea-Bissau",
        "country_code": "gw"
      },
      "address": "049, Gabú, 84782 Gabu Region, Guinea-Bissau"
    },
    {
      "lat": 12.300684901717258,
      "lon": -14.222909316155242,
      "geoinfo": {
        "display_name": "Gabu, Sector de Gabu, Gabu Region, East, Guinea-Bissau",
        "road": null,
        "house_number": null,
        "neighbourhood": null,
        "suburb": null,
        "city_district": null,
        "city": "Gabu",
        "state": "Gabu Region",
        "postcode": null,
        "country": "Guinea-Bissau",
        "country_code": "gw"
      },
      "address": "053, Gabú, 59656 Gabu Region, Guinea-Bissau"
    },
    {
      "lat": 12.289490890446562,
      "lon": -14.257494300576067,
      "geoinfo": {
        "display_name": "Gabu, Sector de Gabu, Gabu Region, East, Guinea-Bissau",
        "road": null,
        "house_number": null,
        "neighbourhood": null,
        "suburb": null,
        "city_district": null,
        "city": "Gabu",
        "state": "Gabu Region",
        "postcode": null,
        "country": "Guinea-Bissau",
        "country_code": "gw"
      },
      "address": "480, Gabú, 18039 Gabu Region, Guinea-Bissau"
    },
    {
      "lat": 12.24441178129551,
      "lon": -14.20426488048175,
      "geoinfo": {
        "display_name": "Gabu, Sector de Gabu, Gabu Region, East, Guinea-Bissau",
        "road": null,
        "house_number": null,
        "neighbourhood": null,
        "suburb": null,
        "city_district": null,
        "city": "Gabu",
        "state": "Gabu Region",
        "postcode": null,
        "country": "Guinea-Bissau",
        "country_code": "gw"
      },
      "address": "362, Gabú, 45837 Gabu Region, Guinea-Bissau"
    },
    {
      "lat": 12.28306126769941,
      "lon": -14.230861847811944,
      "geoinfo": {
        "display_name": "Gabu, Sector de Gabu, Gabu Region, East, Guinea-Bissau",
        "road": null,
        "house_number": null,
        "neighbourhood": null,
        "suburb": null,
        "city_district": null,
        "city": "Gabu",
        "state": "Gabu Region",
        "postcode": null,
        "country": "Guinea-Bissau",
        "country_code": "gw"
      },
      "address": "670, Gabú, 86007 Gabu Region, Guinea-Bissau"
    },
    {
      "lat": 12.291578479813474,
      "lon": -14.203066369968198,
      "geoinfo": {
        "display_name": "N4, Cumpaghor, Sector de Gabu, Gabu Region, East, Guinea-Bissau",
        "road": "N4",
        "house_number": null,
        "neighbourhood": null,
        "suburb": null,
        "city_district": null,
        "city": "Cumpaghor",
        "state": "Gabu Region",
        "postcode": null,
        "country": "Guinea-Bissau",
        "country_code": "gw"
      },
      "address": "N4, Gabú, 02190 Gabu Region, Guinea-Bissau"
    },
    {
      "lat": 12.244215157118168,
      "lon": -14.222978782434142,
      "geoinfo": {
        "display_name": "Gabu, Sector de Gabu, Gabu Region, East, Guinea-Bissau",
        "road": null,
        "house_number": null,
        "neighbourhood": null,
        "suburb": null,
        "city_district": null,
        "city": "Gabu",
        "state": "Gabu Region",
        "postcode": null,
        "country": "Guinea-Bissau",
        "country_code": "gw"
      },
      "address": "170, Gabú, 67313 Gabu Region, Guinea-Bissau"
    },
    {
      "lat": 12.304240619332731,
      "lon": -14.186380507679957,
      "geoinfo": {
        "display_name": "Gabu, Sector de Gabu, Gabu Region, East, Guinea-Bissau",
        "road": null,
        "house_number": null,
        "neighbourhood": null,
        "suburb": null,
        "city_district": null,
        "city": "Gabu",
        "state": "Gabu Region",
        "postcode": null,
        "country": "Guinea-Bissau",
        "country_code": "gw"
      },
      "address": "808, Gabú, 80499 Gabu Region, Guinea-Bissau"
    },
    {
      "lat": 12.27749039381778,
      "lon": -14.23046529375086,
      "geoinfo": {
        "display_name": "Gabu, Sector de Gabu, Gabu Region, East, Guinea-Bissau",
        "road": null,
        "house_number": null,
        "neighbourhood": null,
        "suburb": null,
        "city_district": null,
        "city": "Gabu",
        "state": "Gabu Region",
        "postcode": null,
        "country": "Guinea-Bissau",
        "country_code": "gw"
      },
      "address": "387, Gabú, 70416 Gabu Region, Guinea-Bissau"
    },
    {
      "lat": 12.321780440215427,
      "lon": -14.23366903328265,
      "geoinfo": {
        "display_name": "Gabu, Sector de Gabu, Gabu Region, East, Guinea-Bissau",
        "road": null,
        "house_number": null,
        "neighbourhood": null,
        "suburb": null,
        "city_district": null,
        "city": "Gabu",
        "state": "Gabu Region",
        "postcode": null,
        "country": "Guinea-Bissau",
        "country_code": "gw"
      },
      "address": "185, Gabú, 38265 Gabu Region, Guinea-Bissau"
    }
  ],
  "updated_at": "2025-10-19T04:09:51.752089+00:00",
  "_kind": "geo_samples"
}