{
  "country_code": "CV",
  "country": "Cabo Verde",
  "city": "Praia",
  "geonameid": 3374333,
  "target_addresses": 25,
  "samples": [
    {
      "lat": 14.943306804419603,
      "lon": -23.53609013210892,
      "geoinfo": {
        "display_name": "São Pedro, Praia, 7600, Cape Verde",
        "road": null,
        "house_number": null,
        "neighbourhood": null,
        "suburb": "São Pedro",
        "city_district": null,
        "city": "Praia",
        "state": null,
        "postcode": "7600",
        "country": "Cape Verde",
        "country_code": "cv"
      },
      "address": "São Pedro, Praia, Cabo Verde"
    },
    {
      "lat": 14.96301043899792,
      "lon": -23.479778599393025,
      "geoinfo": {
        "display_name": "Achada Bela Costa, Praia, 7600, Cape Verde",
        "road": null,
        "house_number": null,
        "neighbourhood": null,
        "suburb": null,
        "city_district": null,
        "city": "Praia",
        "state": null,
        "postcode": "7600",
        "country": "Cape Verde",
        "country_code": "cv"
      },
      "address": "Praia, Cabo Verde"
    },
    {
      "lat": 14.921863602523644,
      "lon": -23.543482433830267,
      "geoinfo": {
        "display_name": "Palmarejo Grande, Praia, 7600, Cape Verde",
        "road": null,
        "house_number": null,
        "neighbourhood": null,
        "suburb": "Palmarejo Grande",
        "city_district": null,
        "city": "Praia",
        "state": null,
        "postcode": "7600",
        "country": "Cape Verde",
        "country_code": "cv"
      },
      "address": "Palmarejo Grande, Praia, Cabo Verde"
    },
    {
      "lat": 14.934132494889008,
      "lon": -23.531143550764945,
      "geoinfo": {
        "display_name": "Pensamento, Praia, 7600, Cape Verde",
        "road": null,
        "house_number": null,
        "neighbourhood": null,
        "suburb": "Pensamento",
        "city_district": null,
        "city": "Praia",
        "state": null,
        "postcode": "7600",
        "country": "Cape Verde",
        "country_code": "cv"
      },
      "address": "Pensamento, Praia, Cabo Verde"
    },
    {
      "lat": 14.90378830244538,
      "lon": -23.51152151284436,
      "geoinfo": {
        "display_name": "Avenida Rotary International, Prainha, Praia, 7602, Cape Verde",
        "road": "Avenida Rotary International",
        "house_number": null,
        "neighbourhood": null,
        "suburb": "Prainha",
        "city_district": null,
        "city": "Prainha",
        "state": null,
        "postcode": "7602",
        "country": "Cape Verde",
        "country_code": "cv"
      },
      "address": "Avenida Rotary International, Praia, Cabo Verde"
    },
    {
      "lat": 14.894849050009386,
      "lon": -23.525375048291945,
      "geoinfo": {
        "display_name": "Achada Santo António, Praia, 7602, Cape Verde",
        "road": null,
        "house_number": null,
        "neighbourhood": null,
        "suburb": "Achada Santo António",
        "city_district": null,
        "city": "Achada Santo António",
        "state": null,
        "postcode": "7602",
        "country": "Cape Verde",
        "country_code": "cv"
      },
      "address": "Achada Santo António, Praia, Cabo Verde"
    },
    {
      "lat": 14.964577062066327,
      "lon": -23.51923288304584,
      "geoinfo": {
        "display_name": "Circular da Praia, São Filipe de Baixo, Praia, Agostinho Alvies, Praia, 7601, Cape Verde",
        "road": "Circular da Praia",
        "house_number": null,
        "neighbourhood": null,
        "suburb": "São Filipe de Baixo",
        "city_district": null,
        "city": "Praia",
        "state": null,
        "postcode": "7601",
        "country": "Cape Verde",
        "country_code": "cv"
      },
      "address": "Circular da Praia, Praia, Cabo Verde"
    },
    {
      "lat": 14.956664609264246,
      "lon": -23.512689364243837,
      "geoinfo": {
        "display_name": "Achada São Filipe, Praia, Agostinho Alvies, Praia, 7600, Cape Verde",
        "road": null,
        "house_number": null,
        "neighbourhood": null,
        "suburb": "Achada São Filipe",
        "city_district": null,
        "city": "Praia",
        "state": null,
        "postcode": "7600",
        "country": "Cape Verde",
        "country_code": "cv"
      },
      "address": "Achada São Filipe, Praia, Cabo Verde"
    },
    {
      "lat": 14.92419665679502,
      "lon": -23.545937277365244,
      "geoinfo": {
        "display_name": "Palmarejo, Praia, Caiada, Praia, 5298, Cape Verde",
        "road": null,
        "house_number": null,
        "neighbourhood": null,
        "suburb": "Palmarejo",
        "city_district": null,
        "city": "Praia",
        "state": null,
        "postcode": "5298",
        "country": "Cape Verde",
        "country_code": "cv"
      },
      "address": "Palmarejo, Praia, Cabo Verde"
    },
    {
      "lat": 14.91265563847301,
      "lon": -23.504331524578653,
      "geoinfo": {
        "display_name": "Avenida Charles Darwin, Lém-Ferreira, Praia, 7600, Cape Verde",
        "road": "Avenida Charles Darwin",
        "house_number": null,
        "neighbourhood": null,
        "suburb": "Lém-Ferreira",
        "city_district": null,
        "city": "Praia",
        "state": null,
        "postcode": "7600",
        "country": "Cape Verde",
        "country_code": "cv"
      },
      "address": "Avenida Charles Darwin, Praia, Cabo Verde"
    },
    {
      "lat": 14.939256468460245,
      "lon": -23.479918658777404,
      "geoinfo": {
        "display_name": "Nelson Mandela International Airport, Avenida Aristides Pereira, Covão Mendes, Praia, 7600, Cape Verde",
        "road": "Avenida Aristides Pereira",
        "house_number": null,
        "neighbourhood": null,
        "suburb": "Covão Mendes",
        "city_district": null,
        "city": "Praia",
        "state": null,
        "postcode": "7600",
        "country": "Cape Verde",
        "country_code": "cv"
      },
      "address": "Avenida Aristides Pereira, Praia, Cabo Verde"
    },
    {
      "lat": 14.906605200374443,
      "lon": -23.477376197425247,
      "geoinfo": {
        "display_name": "Achada Grande Trás, Praia, 7600, Cape Verde",
        "road": null,
        "house_number": null,
        "neighbourhood": null,
        "suburb": "Achada Grande Trás",
        "city_district": null,
        "city": "Achada Grande Trás",
        "state": null,
        "postcode": "7600",
        "country": "Cape Verde",
        "country_code": "cv"
      },
      "address": "Achada Grande Trás, Praia, Cabo Verde"
    },
    {
      "lat": 14.926722092665816,
      "lon": -23.52650681794028,
      "geoinfo": {
        "display_name": "Bela Vista, Terra Branca, Praia, 7600, Cape Verde",
        "road": null,
        "house_number": null,
        "neighbourhood": "Bela Vista",
        "suburb": "Terra Branca",
        "city_district": null,
        "city": "Praia",
        "state": null,
        "postcode": "7600",
        "country": "Cape Verde",
        "country_code": "cv"
      },
      "address": "Bela Vista, Praia, Cabo Verde"
    },
    {
      "lat": 14.899662186878498,
      "lon": -23.517012572893535,
      "geoinfo": {
        "display_name": "Avenida Jorge Barbosa, Quebra Canela, Praia, 7602, Cape Verde",
        "road": "Avenida Jorge Barbosa",
        "house_number": null,
        "neighbourhood": null,
        "suburb": null,
        "city_district": null,
        "city": "Quebra Canela",
        "state": null,
        "postcode": "7602",
        "country": "Cape Verde",
        "country_code": "cv"
      },
      "address": "Avenida Jorge Barbosa, Praia, Cabo Verde"
    },
    {
      "lat": 14.911882749014156,
      "lon": -23.51742477312735,
      "geoinfo": {
        "display_name": "Rua Uccla, Achada Santo António, Praia, 7602, Cape Verde",
        "road": "Rua Uccla",
        "house_number": null,
        "neighbourhood": null,
        "suburb": "Achada Santo António",
        "city_district": null,
        "city": "Achada Santo António",
        "state": null,
        "postcode": "7602",
        "country": "Cape Verde",
        "country_code": "cv"
      },
      "address": "Rua Uccla, Praia, Cabo Verde"
    },
    {
      "lat": 14.959180339529702,
      "lon": -23.522758495625855,
      "geoinfo": {
        "display_name": "São Filipe de Baixo, Praia, 7600, Cape Verde",
        "road": null,
        "house_number": null,
        "neighbourhood": null,
        "suburb": "São Filipe de Baixo",
        "city_district": null,
        "city": "Praia",
        "state": null,
        "postcode": "7600",
        "country": "Cape Verde",
        "country_code": "cv"
      },
      "address": "São Filipe de Baixo, Praia, Cabo Verde"
    },
    {
      "lat": 14.943801813013884,
      "lon": -23.516086714658012,
      "geoinfo": {
        "display_name": "Safende, Praia, 7600, Cape Verde",
        "road": null,
        "house_number": null,
        "neighbourhood": null,
        "suburb": "Safende",
        "city_district": null,
        "city": "Praia",
        "state": null,
        "postcode": "7600",
        "country": "Cape Verde",
        "country_code": "cv"
      },
      "address": "Safende, Praia, Cabo Verde"
    },
    {
      "lat": 14.8956364738772,
      "lon": -23.522305845236897,
      "geoinfo": {
        "display_name": "Prainha, Praia, 7602, Cape Verde",
        "road": null,
        "house_number": null,
        "neighbourhood": null,
        "suburb": "Prainha",
        "city_district": null,
        "city": "Prainha",
        "state": null,
        "postcode": "7602",
        "country": "Cape Verde",
        "country_code": "cv"
      },
      "address": "Prainha, Praia, Cabo Verde"
    },
    {
      "lat": 14.936819654069307,
      "lon": -23.494027295329587,
      "geoinfo": {
        "display_name": "Castelão, Praia, 7600, Cape Verde",
        "road": null,
        "house_number": null,
        "neighbourhood": null,
        "suburb": "Castelão",
        "city_district": null,
        "city": "Praia",
        "state": null,
        "postcode": "7600",
        "country": "Cape Verde",
        "country_code": "cv"
      },
      "address": "Castelão, Praia, Cabo Verde"
    },
    {
      "lat": 14.922842146333284,
      "lon": -23.53408570192498,
      "geoinfo": {
        "display_name": "Monte Vermelho, Palmarejo Grande, Praia, 7600, Cape Verde",
        "road": null,
        "house_number": null,
        "neighbourhood": "Monte Vermelho",
        "suburb": "Palmarejo Grande",
        "city_district": null,
        "city": "Praia",
        "state": null,
        "postcode": "7600",
        "country": "Cape Verde",
        "country_code": "cv"
      },
      "address": "Monte Vermelho, Praia, Cabo Verde"
    },
    {
      "lat": 14.939761640531158,
      "lon": -23.528744958369924,
      "geoinfo": {
        "display_name": "Calabaceira, Praia, 7600, Cape Verde",
        "road": null,
        "house_number": null,
        "neighbourhood": null,
        "suburb": "Calabaceira",
        "city_district": null,
        "city": "Praia",
        "state": null,
        "postcode": "7600",
        "country": "Cape Verde",
        "country_code": "cv"
      },
      "address": "Calabaceira, Praia, Cabo Verde"
    },
    {
      "lat": 14.967394263985149,
      "lon": -23.497554959649822,
      "geoinfo": {
        "display_name": "EN3-ST-01, Ponta de São Francisco, Agostinho Alvies, Praia, 7601, Cape Verde",
        "road": "EN3-ST-01",
        "house_number": null,
        "neighbourhood": null,
        "suburb": null,
        "city_district": "Ponta de São Francisco",
        "city": "Agostinho Alvies",
        "state": null,
        "postcode": "7601",
        "country": "Cape Verde",
        "country_code": "cv"
      },
      "address": "EN3-ST-01, Praia, Cabo Verde"
    },
    {
      "lat": 14.928485897436024,
      "lon": -23.5095222033475,
      "geoinfo": {
        "display_name": "Achadinha, Praia, 7600, Cape Verde",
        "road": null,
        "house_number": null,
        "neighbourhood": null,
        "suburb": "Achadinha",
        "city_district": null,
        "city": "Praia",
        "state": null,
        "postcode": "7600",
        "country": "Cape Verde",
        "country_code": "cv"
      },
      "address": "Achadinha, Praia, Cabo Verde"
    },
    {
      "lat": 14.927108805829972,
      "lon": -23.487223498180846,
      "geoinfo": {
        "display_name": "Complexo Desportivo Adega, Av. Hipólito Ferreira, Achada Grande Trás, Praia, 7601, Cape Verde",
        "road": "Av. Hipólito Ferreira",
        "house_number": null,
        "neighbourhood": null,
        "suburb": "Achada Grande Trás",
        "city_district": null,
        "city": "Achada Grande Trás",
        "state": null,
        "postcode": "7601",
        "country": "Cape Verde",
        "country_code": "cv"
      },
      "address": "Av. Hipólito Ferreira, Praia, Cabo Verde"
    },
    {
      "lat": 14.937228416502707,
      "lon": -23.50424997293533,
      "geoinfo": {
        "display_name": "Ponta d'Agua, Praia, 7600, Cape Verde",
        "road": null,
        "house_number": null,
        "neighbourhood": null,
        "suburb": "Ponta d'Agua",
        "city_district": null,
        "city": "Praia",
        "state": null,
        "postcode": "7600",
        "country": "Cape Verde",
        "country_code": "cv"
      },
      "address": "Ponta d'Agua, Praia, Cabo Verde"
    },
    {
      "lat": 14.931552651384418,
      "lon": -23.551255965327854,
      "geoinfo": {
        "display_name": "Circular da Praia, Palmarejo Grande, Praia, Caiada, Praia, 5298, Cape Verde",
        "road": "Circular da Praia",
        "house_number": null,
        "neighbourhood": null,
        "suburb": "Palmarejo Grande",
        "city_district": null,
        "city": "Praia",
        "state": null,
        "postcode": "5298",
        "country": "Cape Verde",
        "country_code": "cv"
      },
      "address": "306, Circular da Praia, 5298 Praia, Cabo Verde"
    },
    {
      "lat": 14.927241780832082,
      "lon": -23.497529360217186,
      "geoinfo": {
        "display_name": "Achada Mato, Praia, 7600, Cape Verde",
        "road": null,
        "house_number": null,
        "neighbourhood": null,
        "suburb": "Achada Mato",
        "city_district": null,
        "city": "Praia",
        "state": null,
        "postcode": "7600",
        "country": "Cape Verde",
        "country_code": "cv"
      },
      "address": "890, Achada Mato, 7600 Praia, Cabo Verde"
    },
    {
      "lat": 14.954521257374527,
      "lon": -23.52731838392337,
      "geoinfo": {
        "display_name": "Circular da Praia, São Pedro, Praia, 7600, Cape Verde",
        "road": "Circular da Praia",
        "house_number": null,
        "neighbourhood": null,
        "suburb": "São Pedro",
        "city_district": null,
        "city": "Praia",
        "state": null,
        "postcode": "7600",
        "country": "Cape Verde",
        "country_code": "cv"
      },
      "address": "327, Circular da Praia, 7600 Praia, Cabo Verde"
    },
    {
      "lat": 14.909616656184765,
      "lon": -23.473397726443547,
      "geoinfo": {
        "display_name": "Achada Grande Trás, Praia, 7600, Cape Verde",
        "road": null,
        "house_number": null,
        "neighbourhood": null,
        "suburb": "Achada Grande Trás",
        "city_district": null,
        "city": "Achada Grande Trás",
        "state": null,
        "postcode": "7600",
        "country": "Cape Verde",
        "country_code": "cv"
      },
      "address": "139, Achada Grande Trás, 7600 Praia, Cabo Verde"
    },
    {
      "lat": 14.943323755096358,
      "lon": -23.495914505178234,
      "geoinfo": {
        "display_name": "Castelão, Praia, 7600, Cape Verde",
        "road": null,
        "house_number": null,
        "neighbourhood": null,
        "suburb": "Castelão",
        "city_district": null,
        "city": "Praia",
        "state": null,
        "postcode": "7600",
        "country": "Cape Verde",
        "country_code": "cv"
      },
      "address": "729, Castelão, 7600 Praia, Cabo Verde"
    },
    {
      "lat": 14.961545253623775,
      "lon": -23.51037518867821,
      "geoinfo": {
        "display_name": "Circular da Praia, São Filipe de Baixo, Praia, Agostinho Alvies, Praia, 7601, Cape Verde",
        "road": "Circular da Praia",
        "house_number": null,
        "neighbourhood": null,
        "suburb": "São Filipe de Baixo",
        "city_district": null,
        "city": "Praia",
        "state": null,
        "postcode": "7601",
        "country": "Cape Verde",
        "country_code": "cv"
      },
      "address": "908, Circular da Praia, 7601 Praia, Cabo Verde"
    },
    {
      "lat": 14.937740281661062,
      "lon": -23.5194708131042,
      "geoinfo": {
        "display_name": "Calabaceira, Praia, 7600, Cape Verde",
        "road": null,
        "house_number": null,
        "neighbourhood": null,
        "suburb": "Calabaceira",
        "city_district": null,
        "city": "Praia",
        "state": null,
        "postcode": "7600",
        "country": "Cape Verde",
        "country_code": "cv"
      },
      "address": "563, Calabaceira, 7600 Praia, Cabo Verde"
    },
    {
      "lat": 14.904855700221278,
      "lon": -23.476381887084255,
      "geoinfo": {
        "display_name": "Achada Grande Trás, Praia, 7600, Cape Verde",
        "road": null,
        "house_number": null,
        "neighbourhood": null,
        "suburb": "Achada Grande Trás",
        "city_district": null,
        "city": "Achada Grande Trás",
        "state": null,
        "postcode": "7600",
        "country": "Cape Verde",
        "country_code": "cv"
      },
      "address": "944, Achada Grande Trás, 7600 Praia, Cabo Verde"
    },
    {
      "lat": 14.90950252345026,
      "lon": -23.530279479787335,
      "geoinfo": {
        "display_name": "Monte Vermelho, Palmarejo, Praia, 7602, Cape Verde",
        "road": null,
        "house_number": null,
        "neighbourhood": "Monte Vermelho",
        "suburb": "Palmarejo",
        "city_district": null,
        "city": "Palmarejo",
        "state": null,
        "postcode": "7602",
        "country": "Cape Verde",
        "country_code": "cv"
      },
      "address": "473, Monte Vermelho, 7602 Praia, Cabo Verde"
    },
    {
      "lat": 14.898828951816988,
      "lon": -23.503625771321804,
      "geoinfo": {
        "display_name": "Farol de María Pia, Avenida Rotary International, Prainha, Praia, 7602, Cape Verde",
        "road": "Avenida Rotary International",
        "house_number": null,
        "neighbourhood": null,
        "suburb": "Prainha",
        "city_district": null,
        "city": "Prainha",
        "state": null,
        "postcode": "7602",
        "country": "Cape Verde",
        "country_code": "cv"
      },
      "address": "897, Avenida Rotary International, 7602 Praia, Cabo Verde"
    },
    {
      "lat": 14.914370618386119,
      "lon": -23.492429001567928,
      "geoinfo": {
        "display_name": "Alfândega da Praia, Avenida John Kennedy, Achada Grande Frente, Praia, 7600, Cape Verde",
        "road": "Avenida John Kennedy",
        "house_number": null,
        "neighbourhood": null,
        "suburb": "Achada Grande Frente",
        "city_district": null,
        "city": "Praia",
        "state": null,
        "postcode": "7600",
        "country": "Cape Verde",
        "country_code": "cv"
      },
      "address": "519, Avenida John Kennedy, 7600 Praia, Cabo Verde"
    },
    {
      "lat": 14.93742733754932,
      "lon": -23.534569850520533,
      "geoinfo": {
        "display_name": "São Pedro, Praia, 7600, Cape Verde",
        "road": null,
        "house_number": null,
        "neighbourhood": null,
        "suburb": "São Pedro",
        "city_district": null,
        "city": "Praia",
        "state": null,
        "postcode": "7600",
        "country": "Cape Verde",
        "country_code": "cv"
      },
      "address": "898, São Pedro, 7600 Praia, Cabo Verde"
    },
    {
      "lat": 14.962567536243512,
      "lon": -23.53359885408086,
      "geoinfo": {
        "display_name": "Circular da Praia, São Pedro, Praia, 7600, Cape Verde",
        "road": "Circular da Praia",
        "house_number": null,
        "neighbourhood": null,
        "suburb": "São Pedro",
        "city_district": null,
        "city": "Praia",
        "state": null,
        "postcode": "7600",
        "country": "Cape Verde",
        "country_code": "cv"
      },
      "address": "354, Circular da Praia, 7600 Praia, Cabo Verde"
    },
    {
      "lat": 14.906286754163009,
      "lon": -23.52899636239804,
      "geoinfo": {
        "display_name": "Rua da Boavista, Palmarejo, Praia, 7602, Cape Verde",
        "road": "Rua da Boavista",
        "house_number": null,
        "neighbourhood": null,
        "suburb": "Palmarejo",
        "city_district": null,
        "city": "Palmarejo",
        "state": null,
        "postcode": "7602",
        "country": "Cape Verde",
        "country_code": "cv"
      },
      "address": "568, Rua da Boavista, 7602 Praia, Cabo Verde"
    },
    {
      "lat": 14.93215926246515,
      "lon": -23.52819872539921,
      "geoinfo": {
        "display_name": "Bela Vista, Pensamento, Praia, 7600, Cape Verde",
        "road": null,
        "house_number": null,
        "neighbourhood": "Bela Vista",
        "suburb": "Pensamento",
        "city_district": null,
        "city": "Praia",
        "state": null,
        "postcode": "7600",
        "country": "Cape Verde",
        "country_code": "cv"
      },
      "address": "669, Bela Vista, 7600 Praia, Cabo Verde"
    },
    {
      "lat": 14.934105164644022,
      "lon": -23.551926959369045,
      "geoinfo": {
        "display_name": "Circular da Praia, Palmarejo Grande, Praia, Caiada, Praia, 5298, Cape Verde",
        "road": "Circular da Praia",
        "house_number": null,
        "neighbourhood": null,
        "suburb": "Palmarejo Grande",
        "city_district": null,
        "city": "Praia",
        "state": null,
        "postcode": "5298",
        "country": "Cape Verde",
        "country_code": "cv"
      },
      "address": "938, Circular da Praia, 5298 Praia, Cabo Verde"
    },
    {
      "lat": 14.919236523650682,
      "lon": -23.50364405093532,
      "geoinfo": {
        "display_name": "Avenida Charles Darwin, Lém-Ferreira, Praia, 7600, Cape Verde",
        "road": "Avenida Charles Darwin",
        "house_number": null,
        "neighbourhood": null,
        "suburb": "Lém-Ferreira",
        "city_district": null,
        "city": "Praia",
        "state": null,
        "postcode": "7600",
        "country": "Cape Verde",
        "country_code": "cv"
      },
      "address": "813, Avenida Charles Darwin, 7600 Praia, Cabo Verde"
    },
    {
      "lat": 14.923839395562519,
      "lon": -23.518281511041472,
      "geoinfo": {
        "display_name": "Bela Vista, Bairro Craveiro Lopes, Praia, 7600, Cape Verde",
        "road": null,
        "house_number": null,
        "neighbourhood": "Bela Vista",
        "suburb": "Bairro Craveiro Lopes",
        "city_district": null,
        "city": "Praia",
        "state": null,
        "postcode": "7600",
        "country": "Cape Verde",
        "country_code": "cv"
      },
      "address": "443, Bela Vista, 7600 Praia, Cabo Verde"
    },
    {
      "lat": 14.901059136257858,
      "lon": -23.487513414639928,
      "geoinfo": {
        "display_name": "Achada Grande Trás, Praia, 7600, Cape Verde",
        "road": null,
        "house_number": null,
        "neighbourhood": null,
        "suburb": "Achada Grande Trás",
        "city_district": null,
        "city": "Achada Grande Trás",
        "state": null,
        "postcode": "7600",
        "country": "Cape Verde",
        "country_code": "cv"
      },
      "address": "508, Achada Grande Trás, 7600 Praia, Cabo Verde"
    },
    {
      "lat": 14.900929529958406,
      "lon": -23.504528755929154,
      "geoinfo": {
        "display_name": "Farol de María Pia, Avenida Rotary International, Prainha, Praia, 7602, Cape Verde",
        "road": "Avenida Rotary International",
        "house_number": null,
        "neighbourhood": null,
        "suburb": "Prainha",
        "city_district": null,
        "city": "Prainha",
        "state": null,
        "postcode": "7602",
        "country": "Cape Verde",
        "country_code": "cv"
      },
      "address": "910, Avenida Rotary International, 7602 Praia, Cabo Verde"
    },
    {
      "lat": 14.894675161465296,
      "lon": -23.517053942431843,
      "geoinfo": {
        "display_name": "Prainha, Praia, 7602, Cape Verde",
        "road": null,
        "house_number": null,
        "neighbourhood": null,
        "suburb": "Prainha",
        "city_district": null,
        "city": "Prainha",
        "state": null,
        "postcode": "7602",
        "country": "Cape Verde",
        "country_code": "cv"
      },
      "address": "166, Prainha, 7602 Praia, Cabo Verde"
    },
    {
      "lat": 14.943411755123826,
      "lon": -23.53684089417053,
      "geoinfo": {
        "display_name": "São Pedro, Praia, 7600, Cape Verde",
        "road": null,
        "house_number": null,
        "neighbourhood": null,
        "suburb": "São Pedro",
        "city_district": null,
        "city": "Praia",
        "state": null,
        "postcode": "7600",
        "country": "Cape Verde",
        "country_code": "cv"
      },
      "address": "834, São Pedro, 7600 Praia, Cabo Verde"
    },
    {
      "lat": 14.91523499482035,
      "lon": -23.47622564842369,
      "geoinfo": {
        "display_name": "Achada Grande Trás, Praia, 7600, Cape Verde",
        "road": null,
        "house_number": null,
        "neighbourhood": null,
        "suburb": "Achada Grande Trás",
        "city_district": null,
        "city": "Achada Grande Trás",
        "state": null,
        "postcode": "7600",
        "country": "Cape Verde",
        "country_code": "cv"
      },
      "address": "738, Achada Grande Trás, 7600 Praia, Cabo Verde"
    }
  ],
  "updated_at": "2025-10-19T01:48:56.220642+00:00",
  "_kind": "geo_samples"
}