{
  "country_code": "AL",
  "country": "Albania",
  "city": "Berat",
  "geonameid": 3186084,
  "target_addresses": 5,
  "samples": [
    {
      "lat": 40.736466984849095,
      "lon": 19.915853161824266,
      "geoinfo": {
        "display_name": "Fusharak (Remanicë), Remanicë, Velabisht, Berat Municipality, Berat County, 5012, Albania",
        "road": null,
        "house_number": null,
        "neighbourhood": null,
        "suburb": null,
        "city_district": null,
        "city": "Remanicë",
        "state": null,
        "postcode": "5012",
        "country": "Albania",
        "country_code": "al"
      },
      "address": "Berat, Albania"
    },
    {
      "lat": 40.72977227270149,
      "lon": 19.96946531481714,
      "geoinfo": {
        "display_name": "Rruga Lisi i Becit, Velabisht, Berat Municipality, Berat County, 5012, Albania",
        "road": "Rruga Lisi i Becit",
        "house_number": null,
        "neighbourhood": null,
        "suburb": null,
        "city_district": null,
        "city": "Velabisht",
        "state": null,
        "postcode": "5012",
        "country": "Albania",
        "country_code": "al"
      },
      "address": "Rruga Lisi i Becit, Berat, Albania"
    },
    {
      "lat": 40.70159830415994,
      "lon": 19.949750313512865,
      "geoinfo": {
        "display_name": "SH74, Goricë (Velabisht), Drobonik, Velabisht, Berat Municipality, Berat County, Southern Albania, 5012, Albania",
        "road": "SH74",
        "house_number": null,
        "neighbourhood": null,
        "suburb": null,
        "city_district": null,
        "city": "Drobonik",
        "state": "Southern Albania",
        "postcode": "5012",
        "country": "Albania",
        "country_code": "al"
      },
      "address": "SH74, Berat, Southern Albania, Albania"
    },
    {
      "lat": 40.713865185207,
      "lon": 19.928488646125402,
      "geoinfo": {
        "display_name": "Lybeshar (Starovë), Starovë, Velabisht, Berat Municipality, Berat County, 5012, Albania",
        "road": null,
        "house_number": null,
        "neighbourhood": null,
        "suburb": null,
        "city_district": null,
        "city": "Starovë",
        "state": null,
        "postcode": "5012",
        "country": "Albania",
        "country_code": "al"
      },
      "address": "Berat, Southern Albania, Albania"
    },
    {
      "lat": 40.699293828635966,
      "lon": 19.993379132859896,
      "geoinfo": {
        "display_name": "Kullau (Uznovë), Uznovë, Berat, Berat Municipality, Berat County, 5001, Albania",
        "road": null,
        "house_number": null,
        "neighbourhood": null,
        "suburb": null,
        "city_district": null,
        "city": "Berat",
        "state": null,
        "postcode": "5001",
        "country": "Albania",
        "country_code": "al"
      },
      "address": "523, Kullau (Uznovë), Uznovë, Berat, Berat Municipality, Berat County, 5001, Albania"
    },
    {
      "lat": 40.676443113474136,
      "lon": 19.97237749690659,
      "geoinfo": {
        "display_name": "Talas (Zhitom i Vogël), Velabisht, Berat Municipality, Berat County, 5012, Albania",
        "road": null,
        "house_number": null,
        "neighbourhood": null,
        "suburb": null,
        "city_district": null,
        "city": "Velabisht",
        "state": null,
        "postcode": "5012",
        "country": "Albania",
        "country_code": "al"
      },
      "address": "607, Talas (Zhitom i Vogël), Velabisht, Berat Municipality, Berat County, 5012, Albania"
    },
    {
      "lat": 40.706548306935744,
      "lon": 19.9163037000457,
      "geoinfo": {
        "display_name": "Lybeshar (Starovë), Starovë, Velabisht, Berat Municipality, Berat County, 5012, Albania",
        "road": null,
        "house_number": null,
        "neighbourhood": null,
        "suburb": null,
        "city_district": null,
        "city": "Starovë",
        "state": null,
        "postcode": "5012",
        "country": "Albania",
        "country_code": "al"
      },
      "address": "924, Lybeshar (Starovë), Starovë, Velabisht, Berat Municipality, Berat County, 5012, Albania"
    },
    {
      "lat": 40.71187299393067,
      "lon": 19.965520606522436,
      "geoinfo": {
        "display_name": "Rruga Lisi i Becit, Velabisht, Berat Municipality, Berat County, 5012, Albania",
        "road": "Rruga Lisi i Becit",
        "house_number": null,
        "neighbourhood": null,
        "suburb": null,
        "city_district": null,
        "city": "Velabisht",
        "state": null,
        "postcode": "5012",
        "country": "Albania",
        "country_code": "al"
      },
      "address": "749, Rruga Lisi i Becit, Velabisht, Berat Municipality, Berat County, 5012, Albania"
    },
    {
      "lat": 40.719153832267686,
      "lon": 19.99095823777499,
      "geoinfo": {
        "display_name": "Duhanas, Velabisht, Berat Municipality, Berat County, 5012, Albania",
        "road": null,
        "house_number": null,
        "neighbourhood": null,
        "suburb": null,
        "city_district": null,
        "city": "Duhanas",
        "state": null,
        "postcode": "5012",
        "country": "Albania",
        "country_code": "al"
      },
      "address": "175, Duhanas, Velabisht, Berat Municipality, Berat County, 5012, Albania"
    }
  ],
  "updated_at": "2025-10-19T00:52:49.977136+00:00",
  "_kind": "geo_samples"
}