{
  "country_code": "AL",
  "country": "Albania",
  "city": "Fier",
  "geonameid": 3185672,
  "target_addresses": 4,
  "samples": [
    {
      "lat": 40.71355112830129,
      "lon": 19.566920085123602,
      "geoinfo": {
        "display_name": "Mbyet, Portëz, Bashkia Fier, Fier County, 9318, Albania",
        "road": null,
        "house_number": null,
        "neighbourhood": null,
        "suburb": null,
        "city_district": null,
        "city": "Mbyet",
        "state": null,
        "postcode": "9318",
        "country": "Albania",
        "country_code": "al"
      },
      "address": "808, Mbyet, Portëz, Bashkia Fier, Fier County, 9318, Albania"
    },
    {
      "lat": 40.75613434828762,
      "lon": 19.5279812795553,
      "geoinfo": {
        "display_name": "Muçaj, Qendër, Bashkia Fier, Fier County, 9302, Albania",
        "road": null,
        "house_number": null,
        "neighbourhood": null,
        "suburb": null,
        "city_district": null,
        "city": "Qendër",
        "state": null,
        "postcode": "9302",
        "country": "Albania",
        "country_code": "al"
      },
      "address": "965, Muçaj, Qendër, Bashkia Fier, Fier County, 9302, Albania"
    },
    {
      "lat": 40.69517582713971,
      "lon": 19.52307203657275,
      "geoinfo": {
        "display_name": "Unaza Nuredin Aliu, Peshtan i Vogël, Levan, Bashkia Fier, Fier County, 9314, Albania",
        "road": "Unaza Nuredin Aliu",
        "house_number": null,
        "neighbourhood": null,
        "suburb": null,
        "city_district": null,
        "city": "Peshtan i Vogël",
        "state": null,
        "postcode": "9314",
        "country": "Albania",
        "country_code": "al"
      },
      "address": "069, Unaza Nuredin Aliu, Peshtan i Vogël, Levan, Bashkia Fier, Fier County, 9314, Albania"
    },
    {
      "lat": 40.742337222538346,
      "lon": 19.606456184501223,
      "geoinfo": {
        "display_name": "Mbrostar, Mbrostar Ura, Bashkia Fier, Fier County, Southern Albania, 9300, Albania",
        "road": null,
        "house_number": null,
        "neighbourhood": null,
        "suburb": null,
        "city_district": null,
        "city": "Mbrostar Ura",
        "state": "Southern Albania",
        "postcode": "9300",
        "country": "Albania",
        "country_code": "al"
      },
      "address": "043, Fier, 9300 Southern Albania, Albania"
    }
  ],
  "updated_at": "2025-10-19T02:45:19.603469+00:00",
  "_kind": "geo_samples"
}