{
  "country_code": "AL",
  "country": "Albania",
  "city": "Kavajë",
  "geonameid": 3185211,
  "target_addresses": 5,
  "samples": [
    {
      "lat": 41.185676923485545,
      "lon": 19.551646493443812,
      "geoinfo": {
        "display_name": "Rruga Metalikes, Kavajë, Kavaja, Bashkia Kavajë, Tirana County, Central Albania, 2501, Albania",
        "road": "Rruga Metalikes",
        "house_number": null,
        "neighbourhood": null,
        "suburb": null,
        "city_district": null,
        "city": "Kavaja",
        "state": "Central Albania",
        "postcode": "2501",
        "country": "Albania",
        "country_code": "al"
      },
      "address": "Rruga Metalikes, Kavajë, Central Albania, Albania"
    },
    {
      "lat": 41.20267350090335,
      "lon": 19.536923112198078,
      "geoinfo": {
        "display_name": "DISTILERIA BB, Shëtitorja Indrit Cara, Kavajë, Kavaja, Bashkia Kavajë, Tirana County, Central Albania, 2501, Albania",
        "road": "Shëtitorja Indrit Cara",
        "house_number": null,
        "neighbourhood": null,
        "suburb": null,
        "city_district": null,
        "city": "Kavaja",
        "state": "Central Albania",
        "postcode": "2501",
        "country": "Albania",
        "country_code": "al"
      },
      "address": "Shëtitorja Indrit Cara, Kavajë, Central Albania, Albania"
    },
    {
      "lat": 41.213746716368874,
      "lon": 19.556854894313847,
      "geoinfo": {
        "display_name": "Agonas, Golem, Bashkia Kavajë, Tirana County, Central Albania, 2504, Albania",
        "road": null,
        "house_number": null,
        "neighbourhood": null,
        "suburb": null,
        "city_district": null,
        "city": "Agonas",
        "state": "Central Albania",
        "postcode": "2504",
        "country": "Albania",
        "country_code": "al"
      },
      "address": "Kavajë, Central Albania, Albania"
    },
    {
      "lat": 41.20248992038034,
      "lon": 19.508647552081484,
      "geoinfo": {
        "display_name": "Rruga Herbert, Qerret, Golem, Bashkia Kavajë, Tirana County, Central Albania, 2504, Albania",
        "road": "Rruga Herbert",
        "house_number": null,
        "neighbourhood": null,
        "suburb": null,
        "city_district": null,
        "city": "Qerret",
        "state": "Central Albania",
        "postcode": "2504",
        "country": "Albania",
        "country_code": "al"
      },
      "address": "Rruga Herbert, Kavajë, Central Albania, Albania"
    },
    {
      "lat": 41.221386097049205,
      "lon": 19.525197136270236,
      "geoinfo": {
        "display_name": "Rruga Pavarësia e Kosovës, Agonas, Golem, Bashkia Kavajë, Tirana County, Central Albania, 2504, Albania",
        "road": "Rruga Pavarësia e Kosovës",
        "house_number": null,
        "neighbourhood": null,
        "suburb": null,
        "city_district": null,
        "city": "Agonas",
        "state": "Central Albania",
        "postcode": "2504",
        "country": "Albania",
        "country_code": "al"
      },
      "address": "Rruga Pavarësia e Kosovës, Kavajë, Central Albania, Albania"
    }
  ],
  "updated_at": "2025-10-16T10:20:50.350290+00:00",
  "_kind": "geo_samples"
}