{
  "country_code": "AL",
  "country": "Albania",
  "city": "Lezhë",
  "geonameid": 3184935,
  "target_addresses": 5,
  "samples": [
    {
      "lat": 41.8206766808431,
      "lon": 19.610331085635128,
      "geoinfo": {
        "display_name": "Rrëza e Malit (Balldren), Balldren, Lezhë Municipality, Lezhë County, Northern Albania, 4504, Albania",
        "road": null,
        "house_number": null,
        "neighbourhood": null,
        "suburb": null,
        "city_district": "Balldren",
        "city": "Lezhë Municipality",
        "state": "Northern Albania",
        "postcode": "4504",
        "country": "Albania",
        "country_code": "al"
      },
      "address": "Balldren, Lezhë, Northern Albania, Albania"
    },
    {
      "lat": 41.753838118607305,
      "lon": 19.649323512073398,
      "geoinfo": {
        "display_name": "Shëngjin, Lezhë Municipality, Lezhë County, Northern Albania, 4501, Albania",
        "road": null,
        "house_number": null,
        "neighbourhood": null,
        "suburb": null,
        "city_district": null,
        "city": "Shëngjin",
        "state": "Northern Albania",
        "postcode": "4501",
        "country": "Albania",
        "country_code": "al"
      },
      "address": "Lezhë, Northern Albania, Albania"
    },
    {
      "lat": 41.7919267194559,
      "lon": 19.68860076914087,
      "geoinfo": {
        "display_name": "Gjinaj (Lalm-Lukaj), Kolsh, Lezhë Municipality, Lezhë County, Northern Albania, 4507, Albania",
        "road": null,
        "house_number": null,
        "neighbourhood": null,
        "suburb": null,
        "city_district": "Kolsh",
        "city": "Lezhë Municipality",
        "state": "Northern Albania",
        "postcode": "4507",
        "country": "Albania",
        "country_code": "al"
      },
      "address": "Kolsh, Lezhë, Northern Albania, Albania"
    },
    {
      "lat": 41.77306061342351,
      "lon": 19.5994614060385,
      "geoinfo": {
        "display_name": "SH32, Kunë, Shëngjin, Lezhë Municipality, Lezhë County, Northern Albania, 4503, Albania",
        "road": "SH32",
        "house_number": null,
        "neighbourhood": null,
        "suburb": "Kunë",
        "city_district": null,
        "city": "Shëngjin",
        "state": "Northern Albania",
        "postcode": "4503",
        "country": "Albania",
        "country_code": "al"
      },
      "address": "SH32, Lezhë, Northern Albania, Albania"
    },
    {
      "lat": 41.76426518129548,
      "lon": 19.60494630228684,
      "geoinfo": {
        "display_name": "Stom i Madh (Ishull-Shëngjin), Shëngjin, Lezhë Municipality, Lezhë County, Northern Albania, 4503, Albania",
        "road": null,
        "house_number": null,
        "neighbourhood": null,
        "suburb": null,
        "city_district": null,
        "city": "Shëngjin",
        "state": "Northern Albania",
        "postcode": "4503",
        "country": "Albania",
        "country_code": "al"
      },
      "address": "365, Stom i Madh (Ishull-Shëngjin), Shëngjin, Lezhë Municipality, Lezhë County, Northern Albania, 4503, Albania"
    },
    {
      "lat": 41.765113739431435,
      "lon": 19.66640533119385,
      "geoinfo": {
        "display_name": "Murrizë (Manati), Kolsh, Lezhë Municipality, Lezhë County, Northern Albania, 4501, Albania",
        "road": null,
        "house_number": null,
        "neighbourhood": null,
        "suburb": null,
        "city_district": "Kolsh",
        "city": "Lezhë Municipality",
        "state": "Northern Albania",
        "postcode": "4501",
        "country": "Albania",
        "country_code": "al"
      },
      "address": "061, Murrizë (Manati), Kolsh, Lezhë Municipality, Lezhë County, Northern Albania, 4501, Albania"
    },
    {
      "lat": 41.80060902957721,
      "lon": 19.626527747632696,
      "geoinfo": {
        "display_name": "Balldren, Lezhë Municipality, Lezhë County, Northern Albania, 4504, Albania",
        "road": null,
        "house_number": null,
        "neighbourhood": null,
        "suburb": null,
        "city_district": "Balldren",
        "city": "Lezhë Municipality",
        "state": "Northern Albania",
        "postcode": "4504",
        "country": "Albania",
        "country_code": "al"
      },
      "address": "565, Balldren, Lezhë Municipality, Lezhë County, Northern Albania, 4504, Albania"
    },
    {
      "lat": 41.80685099689229,
      "lon": 19.667644773965332,
      "geoinfo": {
        "display_name": "Burim Uji, Rruga e Kallmetit, Kallmet, Lezhë Municipality, Lezhë County, Northern Albania, 4507, Albania",
        "road": "Rruga e Kallmetit",
        "house_number": null,
        "neighbourhood": null,
        "suburb": null,
        "city_district": "Kallmet",
        "city": "Lezhë Municipality",
        "state": "Northern Albania",
        "postcode": "4507",
        "country": "Albania",
        "country_code": "al"
      },
      "address": "134, Rruga e Kallmetit, Lezhë, 4507 Northern Albania, Albania"
    },
    {
      "lat": 41.77451089061682,
      "lon": 19.67205720083801,
      "geoinfo": {
        "display_name": "Murrizë (Manati), Kolsh, Lezhë Municipality, Lezhë County, Northern Albania, 4501, Albania",
        "road": null,
        "house_number": null,
        "neighbourhood": null,
        "suburb": null,
        "city_district": "Kolsh",
        "city": "Lezhë Municipality",
        "state": "Northern Albania",
        "postcode": "4501",
        "country": "Albania",
        "country_code": "al"
      },
      "address": "669, Murrizë (Manati), Kolsh, Lezhë Municipality, Lezhë County, Northern Albania, 4501, Albania"
    }
  ],
  "updated_at": "2025-10-19T02:25:30.281639+00:00",
  "_kind": "geo_samples"
}