{
  "country_code": "AL",
  "country": "Albania",
  "city": "Librazhd",
  "geonameid": 782519,
  "target_addresses": 5,
  "samples": [
    {
      "lat": 41.19920402254717,
      "lon": 20.313280341927804,
      "geoinfo": {
        "display_name": "Togëz, Librazhd Qendër, Bashkia Librazhd, Elbasan County, Central Albania, 3402, Albania",
        "road": null,
        "house_number": null,
        "neighbourhood": null,
        "suburb": null,
        "city_district": null,
        "city": "Togëz",
        "state": "Central Albania",
        "postcode": "3402",
        "country": "Albania",
        "country_code": "al"
      },
      "address": "Librazhd, Central Albania, Albania"
    },
    {
      "lat": 41.16418388700659,
      "lon": 20.275704919841456,
      "geoinfo": {
        "display_name": "Via Egnatia, Polis, Bashkia Librazhd, Elbasan County, Central Albania, 3409, Albania",
        "road": "Via Egnatia",
        "house_number": null,
        "neighbourhood": null,
        "suburb": null,
        "city_district": null,
        "city": "Polis",
        "state": "Central Albania",
        "postcode": "3409",
        "country": "Albania",
        "country_code": "al"
      },
      "address": "Via Egnatia, Librazhd, Central Albania, Albania"
    },
    {
      "lat": 41.1657742999122,
      "lon": 20.318135347217925,
      "geoinfo": {
        "display_name": "Librazhd-Dardhë, Babje, Librazhd Qendër, Bashkia Librazhd, Elbasan County, Central Albania, 3402, Albania",
        "road": "Librazhd-Dardhë",
        "house_number": null,
        "neighbourhood": null,
        "suburb": null,
        "city_district": null,
        "city": "Babje",
        "state": "Central Albania",
        "postcode": "3402",
        "country": "Albania",
        "country_code": "al"
      },
      "address": "Librazhd-Dardhë, Librazhd, Central Albania, Albania"
    },
    {
      "lat": 41.18459602710543,
      "lon": 20.270002444769457,
      "geoinfo": {
        "display_name": "SH3, Arrëz, Librazhd Qendër, Bashkia Librazhd, Elbasan County, Central Albania, 3402, Albania",
        "road": "SH3",
        "house_number": null,
        "neighbourhood": null,
        "suburb": null,
        "city_district": null,
        "city": "Arrëz",
        "state": "Central Albania",
        "postcode": "3402",
        "country": "Albania",
        "country_code": "al"
      },
      "address": "SH3, Librazhd, Central Albania, Albania"
    },
    {
      "lat": 41.1832503675689,
      "lon": 20.264297099453135,
      "geoinfo": {
        "display_name": "Elbasan - Qafe Thane (  VIII Corridor  ), Polis, Bashkia Librazhd, Elbasan County, Central Albania, 3409, Albania",
        "road": "Elbasan - Qafe Thane (  VIII Corridor  )",
        "house_number": null,
        "neighbourhood": null,
        "suburb": null,
        "city_district": null,
        "city": "Polis",
        "state": "Central Albania",
        "postcode": "3409",
        "country": "Albania",
        "country_code": "al"
      },
      "address": "Elbasan - Qafe Thane (  VIII Corridor  ), Librazhd, Central Albania, Albania"
    },
    {
      "lat": 41.15729241519786,
      "lon": 20.270911841338616,
      "geoinfo": {
        "display_name": "Via Egnatia, Polis, Bashkia Librazhd, Elbasan County, Central Albania, 3409, Albania",
        "road": "Via Egnatia",
        "house_number": null,
        "neighbourhood": null,
        "suburb": null,
        "city_district": null,
        "city": "Polis",
        "state": "Central Albania",
        "postcode": "3409",
        "country": "Albania",
        "country_code": "al"
      },
      "address": "111, Via Egnatia, Polis, Bashkia Librazhd, Elbasan County, Central Albania, 3409, Albania"
    },
    {
      "lat": 41.149915874878616,
      "lon": 20.31929986393771,
      "geoinfo": {
        "display_name": "Librazhd-Dardhë, Spathar, Librazhd Qendër, Bashkia Librazhd, Elbasan County, Central Albania, 3402, Albania",
        "road": "Librazhd-Dardhë",
        "house_number": null,
        "neighbourhood": null,
        "suburb": null,
        "city_district": null,
        "city": "Spathar",
        "state": "Central Albania",
        "postcode": "3402",
        "country": "Albania",
        "country_code": "al"
      },
      "address": "046, Librazhd-Dardhë, Spathar, Librazhd Qendër, Bashkia Librazhd, Elbasan County, Central Albania, 3402, Albania"
    },
    {
      "lat": 41.188689338708286,
      "lon": 20.363878076145735,
      "geoinfo": {
        "display_name": "Dragostunjë, Librazhd Qendër, Bashkia Librazhd, Elbasan County, Central Albania, 3402, Albania",
        "road": null,
        "house_number": null,
        "neighbourhood": null,
        "suburb": null,
        "city_district": null,
        "city": "Dragostunjë",
        "state": "Central Albania",
        "postcode": "3402",
        "country": "Albania",
        "country_code": "al"
      },
      "address": "623, Dragostunjë, Librazhd Qendër, Bashkia Librazhd, Elbasan County, Central Albania, 3402, Albania"
    },
    {
      "lat": 41.2159368984934,
      "lon": 20.34036694590726,
      "geoinfo": {
        "display_name": "Gizavesh, Librazhd Qendër, Bashkia Librazhd, Elbasan County, Central Albania, 3402, Albania",
        "road": null,
        "house_number": null,
        "neighbourhood": null,
        "suburb": null,
        "city_district": null,
        "city": "Gizavesh",
        "state": "Central Albania",
        "postcode": "3402",
        "country": "Albania",
        "country_code": "al"
      },
      "address": "468, Gizavesh, Librazhd Qendër, Bashkia Librazhd, Elbasan County, Central Albania, 3402, Albania"
    },
    {
      "lat": 41.16335744814715,
      "lon": 20.34080344961606,
      "geoinfo": {
        "display_name": "SH3, Spathar, Librazhd Qendër, Bashkia Librazhd, Elbasan County, Central Albania, 3402, Albania",
        "road": "SH3",
        "house_number": null,
        "neighbourhood": null,
        "suburb": null,
        "city_district": null,
        "city": "Spathar",
        "state": "Central Albania",
        "postcode": "3402",
        "country": "Albania",
        "country_code": "al"
      },
      "address": "SH3, Spathar, Librazhd Qendër, Bashkia Librazhd, Elbasan County, Central Albania, 3402, Albania"
    }
  ],
  "updated_at": "2025-10-19T02:41:47.799690+00:00",
  "_kind": "geo_samples"
}