{
  "country_code": "AL",
  "country": "Albania",
  "city": "Sarandë",
  "geonameid": 363243,
  "target_addresses": 5,
  "samples": [
    {
      "lat": 39.87158413125375,
      "lon": 19.985736811871924,
      "geoinfo": {
        "display_name": "Mol, Idriz Alidhima, Limjoni (Sarandë), Saranda, Bashkia Sarandë, Vlorë County, Southern Albania, 9701, Albania",
        "road": "Idriz Alidhima",
        "house_number": null,
        "neighbourhood": null,
        "suburb": null,
        "city_district": null,
        "city": "Saranda",
        "state": "Southern Albania",
        "postcode": "9701",
        "country": "Albania",
        "country_code": "al"
      },
      "address": "Idriz Alidhima, Sarandë, Southern Albania, Albania"
    },
    {
      "lat": 39.8319027570071,
      "lon": 20.002865064004727,
      "geoinfo": {
        "display_name": "Manastir, Saranda, Bashkia Sarandë, Vlorë County, 9701, Albania",
        "road": null,
        "house_number": null,
        "neighbourhood": null,
        "suburb": null,
        "city_district": null,
        "city": "Saranda",
        "state": null,
        "postcode": "9701",
        "country": "Albania",
        "country_code": "al"
      },
      "address": "Sarandë, Southern Albania, Albania"
    },
    {
      "lat": 39.856760820408354,
      "lon": 20.015002488681716,
      "geoinfo": {
        "display_name": "Resort \"Santa Quaranta\", Rruga Butrinti, Gjashtë, Saranda, Bashkia Sarandë, Vlorë County, Southern Albania, 9701, Albania",
        "road": "Rruga Butrinti",
        "house_number": null,
        "neighbourhood": null,
        "suburb": null,
        "city_district": null,
        "city": "Saranda",
        "state": "Southern Albania",
        "postcode": "9701",
        "country": "Albania",
        "country_code": "al"
      },
      "address": "Rruga Butrinti, Sarandë, Southern Albania, Albania"
    },
    {
      "lat": 39.8357996197157,
      "lon": 20.026692545869214,
      "geoinfo": {
        "display_name": "SH81, Manastir, Aliko, Bashkia Finiq, Vlorë County, Southern Albania, 9701, Albania",
        "road": "SH81",
        "house_number": null,
        "neighbourhood": null,
        "suburb": null,
        "city_district": null,
        "city": "Manastir",
        "state": "Southern Albania",
        "postcode": "9701",
        "country": "Albania",
        "country_code": "al"
      },
      "address": "SH81, Sarandë, Southern Albania, Albania"
    },
    {
      "lat": 39.871831045800455,
      "lon": 20.017766450088335,
      "geoinfo": {
        "display_name": "Rruga Gjergj Araniti, Gjashtë, Saranda, Bashkia Sarandë, Vlorë County, Southern Albania, 9701, Albania",
        "road": "Rruga Gjergj Araniti",
        "house_number": null,
        "neighbourhood": null,
        "suburb": null,
        "city_district": null,
        "city": "Saranda",
        "state": "Southern Albania",
        "postcode": "9701",
        "country": "Albania",
        "country_code": "al"
      },
      "address": "Rruga Gjergj Araniti, Sarandë, Southern Albania, Albania"
    },
    {
      "lat": 39.893126516596396,
      "lon": 19.95234191392194,
      "geoinfo": {
        "display_name": "Idriz Alidhima, Lukovë, Bashkia Himarë, Vlorë County, Southern Albania, 9701, Albania",
        "road": "Idriz Alidhima",
        "house_number": null,
        "neighbourhood": null,
        "suburb": null,
        "city_district": null,
        "city": "Lukovë",
        "state": "Southern Albania",
        "postcode": "9701",
        "country": "Albania",
        "country_code": "al"
      },
      "address": "799, Idriz Alidhima, Lukovë, Bashkia Himarë, Vlorë County, Southern Albania, 9701, Albania"
    },
    {
      "lat": 39.90263305560935,
      "lon": 20.002111364523987,
      "geoinfo": {
        "display_name": "SH8, Qopek (Nivicë-Bubar), Shën Vasil, Lukovë, Bashkia Himarë, Vlorë County, 9713, Albania",
        "road": "SH8",
        "house_number": null,
        "neighbourhood": null,
        "suburb": null,
        "city_district": null,
        "city": "Shën Vasil",
        "state": null,
        "postcode": "9713",
        "country": "Albania",
        "country_code": "al"
      },
      "address": "SH8, Qopek (Nivicë-Bubar), Shën Vasil, Lukovë, Bashkia Himarë, Vlorë County, 9713, Albania"
    },
    {
      "lat": 39.86188299714722,
      "lon": 20.045913770721985,
      "geoinfo": {
        "display_name": "Metoq, Saranda, Bashkia Sarandë, Vlorë County, 9701, Albania",
        "road": null,
        "house_number": null,
        "neighbourhood": null,
        "suburb": null,
        "city_district": null,
        "city": "Saranda",
        "state": null,
        "postcode": "9701",
        "country": "Albania",
        "country_code": "al"
      },
      "address": "231, Metoq, Saranda, Bashkia Sarandë, Vlorë County, 9701, Albania"
    },
    {
      "lat": 39.890881478210716,
      "lon": 20.053256010641128,
      "geoinfo": {
        "display_name": "Vrion, Finiq, Bashkia Finiq, Vlorë County, Southern Albania, 9716, Albania",
        "road": null,
        "house_number": null,
        "neighbourhood": null,
        "suburb": null,
        "city_district": null,
        "city": "Vrion",
        "state": "Southern Albania",
        "postcode": "9716",
        "country": "Albania",
        "country_code": "al"
      },
      "address": "746, Vrion, Finiq, Bashkia Finiq, Vlorë County, Southern Albania, 9716, Albania"
    },
    {
      "lat": 39.898733577147304,
      "lon": 19.997810267832325,
      "geoinfo": {
        "display_name": "Lukovë, Bashkia Himarë, Vlorë County, Southern Albania, 9713, Albania",
        "road": null,
        "house_number": null,
        "neighbourhood": null,
        "suburb": null,
        "city_district": null,
        "city": "Lukovë",
        "state": "Southern Albania",
        "postcode": "9713",
        "country": "Albania",
        "country_code": "al"
      },
      "address": "301, Lukovë, Bashkia Himarë, Vlorë County, Southern Albania, 9713, Albania"
    }
  ],
  "updated_at": "2025-10-19T00:48:30.441417+00:00",
  "_kind": "geo_samples"
}