{
  "country_code": "AL",
  "country": "Albania",
  "city": "Shkodër",
  "geonameid": 3184081,
  "target_addresses": 5,
  "samples": [
    {
      "lat": 42.05929617934849,
      "lon": 19.504657864646994,
      "geoinfo": {
        "display_name": "211, Bulevardi Zogu I, Manush Alimani, Lagjja 4, Shkoder, Shkodër Municipality, Shkodër County, Northern Albania, 4001, Albania",
        "road": "Bulevardi Zogu I",
        "house_number": "211",
        "neighbourhood": null,
        "suburb": "Lagjja 4",
        "city_district": null,
        "city": "Shkoder",
        "state": "Northern Albania",
        "postcode": "4001",
        "country": "Albania",
        "country_code": "al"
      },
      "address": "211 Bulevardi Zogu I, Shkodër, Northern Albania, Albania"
    },
    {
      "lat": 42.03483977864831,
      "lon": 19.49514769935596,
      "geoinfo": {
        "display_name": "44, Rruga e Bunës, Bahçallek, Lagjja 1, Shkoder, Shkodër Municipality, Shkodër County, Northern Albania, 4001, Albania",
        "road": "Rruga e Bunës",
        "house_number": "44",
        "neighbourhood": "Bahçallek",
        "suburb": "Lagjja 1",
        "city_district": null,
        "city": "Shkoder",
        "state": "Northern Albania",
        "postcode": "4001",
        "country": "Albania",
        "country_code": "al"
      },
      "address": "44 Rruga e Bunës, Shkodër, Northern Albania, Albania"
    },
    {
      "lat": 42.02625910820306,
      "lon": 19.513505119236175,
      "geoinfo": {
        "display_name": "Mlloje (Berdica e Mesme), Bërdicë e Sipërme, Bërdicë, Shkodër Municipality, Shkodër County, Northern Albania, 4018, Albania",
        "road": null,
        "house_number": null,
        "neighbourhood": null,
        "suburb": null,
        "city_district": null,
        "city": "Bërdicë",
        "state": "Northern Albania",
        "postcode": "4018",
        "country": "Albania",
        "country_code": "al"
      },
      "address": "Shkodër, Northern Albania, Albania"
    },
    {
      "lat": 42.042863759172214,
      "lon": 19.47101679257599,
      "geoinfo": {
        "display_name": "Rruga e Kazenës, Fakaj, Zues, Rrethinat, Shkodër Municipality, Shkodër County, Northern Albania, 4005, Albania",
        "road": "Rruga e Kazenës",
        "house_number": null,
        "neighbourhood": null,
        "suburb": null,
        "city_district": null,
        "city": "Rrethinat",
        "state": "Northern Albania",
        "postcode": "4005",
        "country": "Albania",
        "country_code": "al"
      },
      "address": "Rruga e Kazenës, Shkodër, Northern Albania, Albania"
    },
    {
      "lat": 42.0338720894303,
      "lon": 19.487679311855377,
      "geoinfo": {
        "display_name": "Rruga e Katalines, Rexhep Selimaj (Berdica e Mesme), Bërdicë e Mesme, Bërdicë, Shkodër Municipality, Shkodër County, Northern Albania, 4018, Albania",
        "road": "Rruga e Katalines",
        "house_number": null,
        "neighbourhood": null,
        "suburb": null,
        "city_district": null,
        "city": "Bërdicë",
        "state": "Northern Albania",
        "postcode": "4018",
        "country": "Albania",
        "country_code": "al"
      },
      "address": "Rruga e Katalines, Shkodër, Northern Albania, Albania"
    }
  ],
  "updated_at": "2025-10-16T10:20:18.093939+00:00",
  "_kind": "geo_samples"
}