{
  "country_code": "AL",
  "country": "Albania",
  "city": "Tirana",
  "geonameid": 3183875,
  "target_addresses": 5,
  "samples": [
    {
      "lat": 41.30476765401424,
      "lon": 19.854600544241816,
      "geoinfo": {
        "display_name": "Rruga Balleve, Ballej (Farka e Vogël), Farkë e Vogël, Farkë, Tirana Municipality, Tirana County, Central Albania, 1045, Albania",
        "road": "Rruga Balleve",
        "house_number": null,
        "neighbourhood": null,
        "suburb": null,
        "city_district": null,
        "city": "Farkë",
        "state": "Central Albania",
        "postcode": "1045",
        "country": "Albania",
        "country_code": "al"
      },
      "address": "Rruga Balleve, Tirana, Central Albania, Albania"
    },
    {
      "lat": 41.363287373247566,
      "lon": 19.80896895812796,
      "geoinfo": {
        "display_name": "Isuf (Paskuqan), Kamëz, Kamëz Municipality, Tirana County, Central Albania, 1030, Albania",
        "road": null,
        "house_number": null,
        "neighbourhood": null,
        "suburb": null,
        "city_district": "Kamëz",
        "city": "Kamëz Municipality",
        "state": "Central Albania",
        "postcode": "1030",
        "country": "Albania",
        "country_code": "al"
      },
      "address": "Kamëz, Tirana, Central Albania, Albania"
    },
    {
      "lat": 41.346977289124325,
      "lon": 19.780014695723242,
      "geoinfo": {
        "display_name": "Rruga Dedë Marku, Njësia Bashkiake Nr. 11, Tirana, Tirana Municipality, Tirana County, Central Albania, 1047, Albania",
        "road": "Rruga Dedë Marku",
        "house_number": null,
        "neighbourhood": null,
        "suburb": "Njësia Bashkiake Nr. 11",
        "city_district": "Njësia Bashkiake Nr. 11",
        "city": "Tirana",
        "state": "Central Albania",
        "postcode": "1047",
        "country": "Albania",
        "country_code": "al"
      },
      "address": "Rruga Dedë Marku, Tirana, Central Albania, Albania"
    },
    {
      "lat": 41.29919105863407,
      "lon": 19.860939747309075,
      "geoinfo": {
        "display_name": "Rruga e Vreshtit, Bathrej (Lundra), Farkë e Vogël, Farkë, Tirana Municipality, Tirana County, Central Albania, 1045, Albania",
        "road": "Rruga e Vreshtit",
        "house_number": null,
        "neighbourhood": null,
        "suburb": null,
        "city_district": null,
        "city": "Farkë",
        "state": "Central Albania",
        "postcode": "1045",
        "country": "Albania",
        "country_code": "al"
      },
      "address": "Rruga e Vreshtit, Tirana, Central Albania, Albania"
    },
    {
      "lat": 41.361090599747335,
      "lon": 19.854566656240827,
      "geoinfo": {
        "display_name": "Rruga Llambi Budurushi, Shimaj (Shtish-Tufina), Shtish-Tufinë, Dajt, Tirana Municipality, Tirana County, Central Albania, 1040, Albania",
        "road": "Rruga Llambi Budurushi",
        "house_number": null,
        "neighbourhood": null,
        "suburb": null,
        "city_district": null,
        "city": "Dajt",
        "state": "Central Albania",
        "postcode": "1040",
        "country": "Albania",
        "country_code": "al"
      },
      "address": "779, Rruga Llambi Budurushi, Shimaj (Shtish-Tufina), Shtish-Tufinë, Dajt, Tirana Municipality, Tirana County, Central Albania, 1040, Albania"
    },
    {
      "lat": 41.359070741603176,
      "lon": 19.783148177978617,
      "geoinfo": {
        "display_name": "Bathore, Kamëz, Kamëz Municipality, Tirana County, Central Albania, 1030, Albania",
        "road": null,
        "house_number": null,
        "neighbourhood": null,
        "suburb": "Bathore",
        "city_district": "Kamëz",
        "city": "Kamëz Municipality",
        "state": "Central Albania",
        "postcode": "1030",
        "country": "Albania",
        "country_code": "al"
      },
      "address": "969, Bathore, Kamëz, Kamëz Municipality, Tirana County, Central Albania, 1030, Albania"
    },
    {
      "lat": 41.306451266725375,
      "lon": 19.800290728945303,
      "geoinfo": {
        "display_name": "Kodra e Diellit 2, Lagjja e Vjetër (Selita e Vogël), Farkë, Tirana Municipality, Tirana County, Central Albania, 1045, Albania",
        "road": null,
        "house_number": null,
        "neighbourhood": null,
        "suburb": null,
        "city_district": null,
        "city": "Farkë",
        "state": "Central Albania",
        "postcode": "1045",
        "country": "Albania",
        "country_code": "al"
      },
      "address": "Kodra e Diellit 2, Lagjja e Vjetër (Selita e Vogël), Farkë, Tirana Municipality, Tirana County, Central Albania, 1045, Albania"
    },
    {
      "lat": 41.311914788995146,
      "lon": 19.849116597053772,
      "geoinfo": {
        "display_name": "Rruga Besim Memaci, Ballej (Farka e Vogël), Farkë e Vogël, Farkë, Tirana Municipality, Tirana County, Central Albania, 1045, Albania",
        "road": "Rruga Besim Memaci",
        "house_number": null,
        "neighbourhood": null,
        "suburb": null,
        "city_district": null,
        "city": "Farkë",
        "state": "Central Albania",
        "postcode": "1045",
        "country": "Albania",
        "country_code": "al"
      },
      "address": "436, Rruga Besim Memaci, Ballej (Farka e Vogël), Farkë e Vogël, Farkë, Tirana Municipality, Tirana County, Central Albania, 1045, Albania"
    },
    {
      "lat": 41.3609336859176,
      "lon": 19.787073316392426,
      "geoinfo": {
        "display_name": "Bathore, Kamëz, Kamëz Municipality, Tirana County, Central Albania, 1030, Albania",
        "road": null,
        "house_number": null,
        "neighbourhood": null,
        "suburb": "Bathore",
        "city_district": "Kamëz",
        "city": "Kamëz Municipality",
        "state": "Central Albania",
        "postcode": "1030",
        "country": "Albania",
        "country_code": "al"
      },
      "address": "559, Bathore, Kamëz, Kamëz Municipality, Tirana County, Central Albania, 1030, Albania"
    }
  ],
  "updated_at": "2025-10-19T02:25:12.864337+00:00",
  "_kind": "geo_samples"
}