{
  "country_code": "NI",
  "country": "Nicaragua",
  "city": "Camoapa",
  "geonameid": 3620544,
  "target_addresses": 3,
  "samples": [
    {
      "lat": 12.349122255466343,
      "lon": -85.52569870661009,
      "geoinfo": {
        "display_name": "San Ramón, Camoapa, Boaco, 52100, Nicaragua",
        "road": null,
        "house_number": null,
        "neighbourhood": null,
        "suburb": null,
        "city_district": null,
        "city": "Camoapa",
        "state": "Boaco",
        "postcode": "52100",
        "country": "Nicaragua",
        "country_code": "ni"
      },
      "address": "Camoapa, Boaco, Nicaragua"
    },
    {
      "lat": 12.396340508148304,
      "lon": -85.47774595296694,
      "geoinfo": {
        "display_name": "NIC-17, Zárrigo, Camoapa, Boaco, 52100, Nicaragua",
        "road": "NIC-17",
        "house_number": null,
        "neighbourhood": null,
        "suburb": null,
        "city_district": null,
        "city": "Camoapa",
        "state": "Boaco",
        "postcode": "52100",
        "country": "Nicaragua",
        "country_code": "ni"
      },
      "address": "NIC-17, Camoapa, Boaco, Nicaragua"
    },
    {
      "lat": 12.40609283549265,
      "lon": -85.52600899583084,
      "geoinfo": {
        "display_name": "NIC-19, Camoapa, Boaco, 52100, Nicaragua",
        "road": "NIC-19",
        "house_number": null,
        "neighbourhood": null,
        "suburb": null,
        "city_district": null,
        "city": "Camoapa",
        "state": "Boaco",
        "postcode": "52100",
        "country": "Nicaragua",
        "country_code": "ni"
      },
      "address": "NIC-19, Camoapa, Boaco, Nicaragua"
    },
    {
      "lat": 12.40742576273757,
      "lon": -85.53145554133297,
      "geoinfo": {
        "display_name": "Comarca Mombacho, Camoapa, Boaco, 52100, Nicaragua",
        "road": null,
        "house_number": null,
        "neighbourhood": null,
        "suburb": null,
        "city_district": null,
        "city": "Camoapa",
        "state": "Boaco",
        "postcode": "52100",
        "country": "Nicaragua",
        "country_code": "ni"
      },
      "address": "775, Comarca Mombacho, Camoapa, Boaco, 52100, Nicaragua"
    },
    {
      "lat": 12.383008061948033,
      "lon": -85.5161649223632,
      "geoinfo": {
        "display_name": "5a Avenida NO, Camoapa, Boaco, 52100, Nicaragua",
        "road": "5a Avenida NO",
        "house_number": null,
        "neighbourhood": null,
        "suburb": null,
        "city_district": null,
        "city": "Camoapa",
        "state": "Boaco",
        "postcode": "52100",
        "country": "Nicaragua",
        "country_code": "ni"
      },
      "address": "5a Avenida NO, Camoapa, Boaco, 52100, Nicaragua"
    },
    {
      "lat": 12.386671557228961,
      "lon": -85.51105999037229,
      "geoinfo": {
        "display_name": "2a Avenida NE, Camoapa, Boaco, 52100, Nicaragua",
        "road": "2a Avenida NE",
        "house_number": null,
        "neighbourhood": null,
        "suburb": null,
        "city_district": null,
        "city": "Camoapa",
        "state": "Boaco",
        "postcode": "52100",
        "country": "Nicaragua",
        "country_code": "ni"
      },
      "address": "2a Avenida NE, Camoapa, Boaco, 52100, Nicaragua"
    }
  ],
  "updated_at": "2025-10-19T04:48:09.675129+00:00",
  "_kind": "geo_samples"
}