{
  "country_code": "NI",
  "country": "Nicaragua",
  "city": "Chichigalpa",
  "geonameid": 3620390,
  "target_addresses": 15,
  "samples": [
    {
      "lat": 12.600085597806757,
      "lon": -87.01675839454727,
      "geoinfo": {
        "display_name": "Sirama, Chichigalpa, Chinandega, 26100, Nicaragua",
        "road": null,
        "house_number": null,
        "neighbourhood": null,
        "suburb": null,
        "city_district": null,
        "city": "Sirama",
        "state": "Chinandega",
        "postcode": "26100",
        "country": "Nicaragua",
        "country_code": "ni"
      },
      "address": "Chichigalpa, Chinandega, Nicaragua"
    },
    {
      "lat": 12.554798509478394,
      "lon": -87.02899323953514,
      "geoinfo": {
        "display_name": "NIC-54, Ingenio San Antonio, San Antonio, Chichigalpa, Chinandega, 26100, Nicaragua",
        "road": "NIC-54",
        "house_number": null,
        "neighbourhood": null,
        "suburb": null,
        "city_district": null,
        "city": "San Antonio",
        "state": "Chinandega",
        "postcode": "26100",
        "country": "Nicaragua",
        "country_code": "ni"
      },
      "address": "NIC-54, Chichigalpa, Chinandega, Nicaragua"
    },
    {
      "lat": 12.58666704952275,
      "lon": -87.04900122292818,
      "geoinfo": {
        "display_name": "Ferrocarril Antiguo, Chichigalpa, Chinandega, 26100, Nicaragua",
        "road": "Ferrocarril Antiguo",
        "house_number": null,
        "neighbourhood": null,
        "suburb": null,
        "city_district": null,
        "city": "Chichigalpa",
        "state": "Chinandega",
        "postcode": "26100",
        "country": "Nicaragua",
        "country_code": "ni"
      },
      "address": "Ferrocarril Antiguo, Chichigalpa, Chinandega, Nicaragua"
    },
    {
      "lat": 12.56977182819354,
      "lon": -87.00269639911639,
      "geoinfo": {
        "display_name": "Las Mayorgas, Posoltega, Chinandega, 26500, Nicaragua",
        "road": null,
        "house_number": null,
        "neighbourhood": null,
        "suburb": null,
        "city_district": null,
        "city": "Posoltega",
        "state": "Chinandega",
        "postcode": "26500",
        "country": "Nicaragua",
        "country_code": "ni"
      },
      "address": "Las Mayorgas, Posoltega, Chinandega, 26500, Nicaragua"
    },
    {
      "lat": 12.567576133186687,
      "lon": -87.02165825110964,
      "geoinfo": {
        "display_name": "4a Calle SE, Chichigalpa, Chinandega, 26100, Nicaragua",
        "road": "4a Calle SE",
        "house_number": null,
        "neighbourhood": null,
        "suburb": null,
        "city_district": null,
        "city": "Chichigalpa",
        "state": "Chinandega",
        "postcode": "26100",
        "country": "Nicaragua",
        "country_code": "ni"
      },
      "address": "4a Calle SE, Chichigalpa, Chinandega, 26100, Nicaragua"
    },
    {
      "lat": 12.595694143210714,
      "lon": -87.01233578781013,
      "geoinfo": {
        "display_name": "Sirama, Chichigalpa, Chinandega, 26100, Nicaragua",
        "road": null,
        "house_number": null,
        "neighbourhood": null,
        "suburb": null,
        "city_district": null,
        "city": "Sirama",
        "state": "Chinandega",
        "postcode": "26100",
        "country": "Nicaragua",
        "country_code": "ni"
      },
      "address": "734, Sirama, Chichigalpa, Chinandega, 26100, Nicaragua"
    },
    {
      "lat": 12.536325476738693,
      "lon": -87.01071215692845,
      "geoinfo": {
        "display_name": "Monte Verde, Chichigalpa, Chinandega, 26100, Nicaragua",
        "road": null,
        "house_number": null,
        "neighbourhood": null,
        "suburb": null,
        "city_district": null,
        "city": null,
        "state": "Chinandega",
        "postcode": "26100",
        "country": "Nicaragua",
        "country_code": "ni"
      },
      "address": "848, Monte Verde, Chichigalpa, Chinandega, 26100, Nicaragua"
    },
    {
      "lat": 12.572749931406285,
      "lon": -86.9891801572853,
      "geoinfo": {
        "display_name": "Las Mayorgas, Posoltega, Chinandega, 26500, Nicaragua",
        "road": null,
        "house_number": null,
        "neighbourhood": null,
        "suburb": null,
        "city_district": null,
        "city": "Posoltega",
        "state": "Chinandega",
        "postcode": "26500",
        "country": "Nicaragua",
        "country_code": "ni"
      },
      "address": "113, Las Mayorgas, Posoltega, Chinandega, 26500, Nicaragua"
    },
    {
      "lat": 12.58959390352794,
      "lon": -86.98968474921548,
      "geoinfo": {
        "display_name": "El Chapernal, Posoltega, Chinandega, 26500, Nicaragua",
        "road": null,
        "house_number": null,
        "neighbourhood": null,
        "suburb": null,
        "city_district": null,
        "city": "Posoltega",
        "state": "Chinandega",
        "postcode": "26500",
        "country": "Nicaragua",
        "country_code": "ni"
      },
      "address": "723, El Chapernal, Posoltega, Chinandega, 26500, Nicaragua"
    },
    {
      "lat": 12.567267731956704,
      "lon": -87.01712588501145,
      "geoinfo": {
        "display_name": "Antigua Vía del Ferrocarril, Valle Nº 2, Posoltega, Chichigalpa, Chinandega, 26100, Nicaragua",
        "road": "Antigua Vía del Ferrocarril",
        "house_number": null,
        "neighbourhood": null,
        "suburb": null,
        "city_district": null,
        "city": "Posoltega",
        "state": "Chinandega",
        "postcode": "26100",
        "country": "Nicaragua",
        "country_code": "ni"
      },
      "address": "Antigua Vía del Ferrocarril, Valle Nº 2, Posoltega, Chichigalpa, Chinandega, 26100, Nicaragua"
    },
    {
      "lat": 12.592067535085846,
      "lon": -87.02938667735093,
      "geoinfo": {
        "display_name": "Chichigalpa, Chinandega, 26100, Nicaragua",
        "road": null,
        "house_number": null,
        "neighbourhood": null,
        "suburb": null,
        "city_district": null,
        "city": "Chichigalpa",
        "state": "Chinandega",
        "postcode": "26100",
        "country": "Nicaragua",
        "country_code": "ni"
      },
      "address": "925, Chichigalpa, Chinandega, 26100, Nicaragua"
    },
    {
      "lat": 12.575065321300563,
      "lon": -87.06807964459654,
      "geoinfo": {
        "display_name": "Cosmapa, El Almendro, Cosmapa, Chichigalpa, Chinandega, 26100, Nicaragua",
        "road": null,
        "house_number": null,
        "neighbourhood": null,
        "suburb": null,
        "city_district": null,
        "city": "Cosmapa",
        "state": "Chinandega",
        "postcode": "26100",
        "country": "Nicaragua",
        "country_code": "ni"
      },
      "address": "797, Chichigalpa, 26100 Chinandega, Nicaragua"
    },
    {
      "lat": 12.573796982707375,
      "lon": -87.0694122268351,
      "geoinfo": {
        "display_name": "Cosmapa, El Almendro, Cosmapa, Chichigalpa, Chinandega, 26100, Nicaragua",
        "road": null,
        "house_number": null,
        "neighbourhood": null,
        "suburb": null,
        "city_district": null,
        "city": "Cosmapa",
        "state": "Chinandega",
        "postcode": "26100",
        "country": "Nicaragua",
        "country_code": "ni"
      },
      "address": "213, Chichigalpa, 26100 Chinandega, Nicaragua"
    },
    {
      "lat": 12.616793500370973,
      "lon": -87.03768965063016,
      "geoinfo": {
        "display_name": "Pellizco Occidental, Chichigalpa, Chinandega, 26100, Nicaragua",
        "road": null,
        "house_number": null,
        "neighbourhood": null,
        "suburb": null,
        "city_district": null,
        "city": "Pellizco Occidental",
        "state": "Chinandega",
        "postcode": "26100",
        "country": "Nicaragua",
        "country_code": "ni"
      },
      "address": "241, Pellizco Occidental, Chichigalpa, Chinandega, 26100, Nicaragua"
    },
    {
      "lat": 12.584383219025357,
      "lon": -87.0623514841494,
      "geoinfo": {
        "display_name": "Cosmapa, El Almendro, Cosmapa, Chichigalpa, Chinandega, 26100, Nicaragua",
        "road": null,
        "house_number": null,
        "neighbourhood": null,
        "suburb": null,
        "city_district": null,
        "city": "Cosmapa",
        "state": "Chinandega",
        "postcode": "26100",
        "country": "Nicaragua",
        "country_code": "ni"
      },
      "address": "723, Chichigalpa, 26100 Chinandega, Nicaragua"
    }
  ],
  "updated_at": "2025-10-19T05:58:41.370585+00:00",
  "_kind": "geo_samples"
}