{
  "country_code": "NI",
  "country": "Nicaragua",
  "city": "Diriamba",
  "geonameid": 3620170,
  "target_addresses": 15,
  "samples": [
    {
      "lat": 11.844902226089324,
      "lon": -86.21535124144309,
      "geoinfo": {
        "display_name": "La Orqueta, Jinotepe, Carazo, 41000, Nicaragua",
        "road": null,
        "house_number": null,
        "neighbourhood": null,
        "suburb": null,
        "city_district": null,
        "city": "Jinotepe",
        "state": "Carazo",
        "postcode": "41000",
        "country": "Nicaragua",
        "country_code": "ni"
      },
      "address": "Diriamba, Carazo, Nicaragua"
    },
    {
      "lat": 11.875226272794718,
      "lon": -86.27443908652472,
      "geoinfo": {
        "display_name": "Diriamba-San_Marcos, Diriamba, San Marcos, Carazo, 46400, Nicaragua",
        "road": "Diriamba-San_Marcos",
        "house_number": null,
        "neighbourhood": null,
        "suburb": null,
        "city_district": null,
        "city": "Diriamba",
        "state": "Carazo",
        "postcode": "46400",
        "country": "Nicaragua",
        "country_code": "ni"
      },
      "address": "Diriamba-San_Marcos, Diriamba, Carazo, Nicaragua"
    },
    {
      "lat": 11.89391705283862,
      "lon": -86.24248744662015,
      "geoinfo": {
        "display_name": "Pan-American Highway, La Palmera, Pikín Guerrero Nº 6, Diriamba, San Marcos, Carazo, 46400, Nicaragua",
        "road": "Pan-American Highway",
        "house_number": null,
        "neighbourhood": null,
        "suburb": null,
        "city_district": null,
        "city": "Diriamba",
        "state": "Carazo",
        "postcode": "46400",
        "country": "Nicaragua",
        "country_code": "ni"
      },
      "address": "Pan-American Highway, Diriamba, Carazo, Nicaragua"
    },
    {
      "lat": 11.86614049958245,
      "lon": -86.24306403630118,
      "geoinfo": {
        "display_name": "Diriamba, Carazo, 46300, Nicaragua",
        "road": null,
        "house_number": null,
        "neighbourhood": null,
        "suburb": null,
        "city_district": null,
        "city": "Diriamba",
        "state": "Carazo",
        "postcode": "46300",
        "country": "Nicaragua",
        "country_code": "ni"
      },
      "address": "Diriamba, Carazo, 46300, Nicaragua"
    },
    {
      "lat": 11.900210481022649,
      "lon": -86.22946313384733,
      "geoinfo": {
        "display_name": "Las Carolinas, San Marcos, Carazo, 46400, Nicaragua",
        "road": null,
        "house_number": null,
        "neighbourhood": null,
        "suburb": null,
        "city_district": null,
        "city": "Las Carolinas",
        "state": "Carazo",
        "postcode": "46400",
        "country": "Nicaragua",
        "country_code": "ni"
      },
      "address": "380, Las Carolinas, San Marcos, Carazo, 46400, Nicaragua"
    },
    {
      "lat": 11.84043885850046,
      "lon": -86.2454618720437,
      "geoinfo": {
        "display_name": "Sontole, Diriamba, Carazo, 46300, Nicaragua",
        "road": null,
        "house_number": null,
        "neighbourhood": null,
        "suburb": null,
        "city_district": null,
        "city": "Diriamba",
        "state": "Carazo",
        "postcode": "46300",
        "country": "Nicaragua",
        "country_code": "ni"
      },
      "address": "274, Sontole, Diriamba, Carazo, 46300, Nicaragua"
    },
    {
      "lat": 11.856293927845613,
      "lon": -86.23495847951386,
      "geoinfo": {
        "display_name": "5a Calle SE, Diriamba, Carazo, 46300, Nicaragua",
        "road": "5a Calle SE",
        "house_number": null,
        "neighbourhood": null,
        "suburb": null,
        "city_district": null,
        "city": "Diriamba",
        "state": "Carazo",
        "postcode": "46300",
        "country": "Nicaragua",
        "country_code": "ni"
      },
      "address": "5a Calle SE, Diriamba, Carazo, 46300, Nicaragua"
    },
    {
      "lat": 11.8440308383754,
      "lon": -86.20342387017081,
      "geoinfo": {
        "display_name": "6a Avenida Oeste, Jinotepe, Carazo, 41000, Nicaragua",
        "road": "6a Avenida Oeste",
        "house_number": null,
        "neighbourhood": null,
        "suburb": null,
        "city_district": null,
        "city": "Jinotepe",
        "state": "Carazo",
        "postcode": "41000",
        "country": "Nicaragua",
        "country_code": "ni"
      },
      "address": "6a Avenida Oeste, Jinotepe, Carazo, 41000, Nicaragua"
    },
    {
      "lat": 11.89546929751558,
      "lon": -86.25312174035614,
      "geoinfo": {
        "display_name": "Diriamba-San_Marcos, Marvin Corrales, Diriamba, San Marcos, Carazo, 46400, Nicaragua",
        "road": "Diriamba-San_Marcos",
        "house_number": null,
        "neighbourhood": null,
        "suburb": null,
        "city_district": null,
        "city": "Diriamba",
        "state": "Carazo",
        "postcode": "46400",
        "country": "Nicaragua",
        "country_code": "ni"
      },
      "address": "065, Diriamba-San_Marcos, Marvin Corrales, Diriamba, San Marcos, Carazo, 46400, Nicaragua"
    },
    {
      "lat": 11.86333762017341,
      "lon": -86.25025752059815,
      "geoinfo": {
        "display_name": "Diriamba, Carazo, 46300, Nicaragua",
        "road": null,
        "house_number": null,
        "neighbourhood": null,
        "suburb": null,
        "city_district": null,
        "city": "Diriamba",
        "state": "Carazo",
        "postcode": "46300",
        "country": "Nicaragua",
        "country_code": "ni"
      },
      "address": "038, Diriamba, Carazo, 46300, Nicaragua"
    },
    {
      "lat": 11.843870664302479,
      "lon": -86.25992717353182,
      "geoinfo": {
        "display_name": "Carretera Diriamba - La Boquita, Las Colinas, Diriamba, Carazo, 46300, Nicaragua",
        "road": "Carretera Diriamba - La Boquita",
        "house_number": null,
        "neighbourhood": null,
        "suburb": null,
        "city_district": null,
        "city": "Diriamba",
        "state": "Carazo",
        "postcode": "46300",
        "country": "Nicaragua",
        "country_code": "ni"
      },
      "address": "108, Carretera Diriamba - La Boquita, Las Colinas, Diriamba, Carazo, 46300, Nicaragua"
    },
    {
      "lat": 11.815516856620404,
      "lon": -86.23857094629457,
      "geoinfo": {
        "display_name": "Los Ramos, Guachipilín, Jinotepe, Carazo, 41000, Nicaragua",
        "road": null,
        "house_number": null,
        "neighbourhood": null,
        "suburb": null,
        "city_district": null,
        "city": "Jinotepe",
        "state": "Carazo",
        "postcode": "41000",
        "country": "Nicaragua",
        "country_code": "ni"
      },
      "address": "957, Diriamba, 41000 Carazo, Nicaragua"
    },
    {
      "lat": 11.861587712497984,
      "lon": -86.21357891538153,
      "geoinfo": {
        "display_name": "D' Santos, Antigua Vía del Ferrocarril, Cristo Rey Nº 2, Cristo Rey, Jinotepe, Carazo, 46100, Nicaragua",
        "road": "Antigua Vía del Ferrocarril",
        "house_number": null,
        "neighbourhood": null,
        "suburb": null,
        "city_district": null,
        "city": "Jinotepe",
        "state": "Carazo",
        "postcode": "46100",
        "country": "Nicaragua",
        "country_code": "ni"
      },
      "address": "D' Santos, Antigua Vía del Ferrocarril, Cristo Rey Nº 2, Cristo Rey, Jinotepe, Carazo, 46100, Nicaragua"
    },
    {
      "lat": 11.819647276335802,
      "lon": -86.23896156860347,
      "geoinfo": {
        "display_name": "Barrio Nuevo, Diriamba, Carazo, 46300, Nicaragua",
        "road": null,
        "house_number": null,
        "neighbourhood": null,
        "suburb": null,
        "city_district": null,
        "city": "Diriamba",
        "state": "Carazo",
        "postcode": "46300",
        "country": "Nicaragua",
        "country_code": "ni"
      },
      "address": "688, Barrio Nuevo, Diriamba, Carazo, 46300, Nicaragua"
    },
    {
      "lat": 11.862529203077688,
      "lon": -86.28384437036233,
      "geoinfo": {
        "display_name": "Santa Marta, Diriamba, Carazo, 46300, Nicaragua",
        "road": null,
        "house_number": null,
        "neighbourhood": null,
        "suburb": null,
        "city_district": null,
        "city": "Diriamba",
        "state": "Carazo",
        "postcode": "46300",
        "country": "Nicaragua",
        "country_code": "ni"
      },
      "address": "076, Santa Marta, Diriamba, Carazo, 46300, Nicaragua"
    }
  ],
  "updated_at": "2025-10-19T05:58:21.037138+00:00",
  "_kind": "geo_samples"
}