{
  "country_code": "NI",
  "country": "Nicaragua",
  "city": "El Viejo",
  "geonameid": 3619267,
  "target_addresses": 3,
  "samples": [
    {
      "lat": 12.645246945772872,
      "lon": -87.17500736784213,
      "geoinfo": {
        "display_name": "Gancho de La Mona, El Viejo, Chinandega, 26200, Nicaragua",
        "road": null,
        "house_number": null,
        "neighbourhood": null,
        "suburb": null,
        "city_district": null,
        "city": "El Viejo",
        "state": "Chinandega",
        "postcode": "26200",
        "country": "Nicaragua",
        "country_code": "ni"
      },
      "address": "El Viejo, Chinandega, Nicaragua"
    },
    {
      "lat": 12.691453559900697,
      "lon": -87.14169931417712,
      "geoinfo": {
        "display_name": "Antigua Vía del Ferrocarril, La Trinidad, El Viejo, Chinandega, 26200, Nicaragua",
        "road": "Antigua Vía del Ferrocarril",
        "house_number": null,
        "neighbourhood": null,
        "suburb": null,
        "city_district": null,
        "city": "La Trinidad",
        "state": "Chinandega",
        "postcode": "26200",
        "country": "Nicaragua",
        "country_code": "ni"
      },
      "address": "Antigua Vía del Ferrocarril, El Viejo, Chinandega, Nicaragua"
    },
    {
      "lat": 12.663221933933428,
      "lon": -87.15191369533632,
      "geoinfo": {
        "display_name": "Narciso Zepeda, La Perrera, El Viejo, Chinandega, 26200, Nicaragua",
        "road": null,
        "house_number": null,
        "neighbourhood": "Narciso Zepeda",
        "suburb": null,
        "city_district": null,
        "city": null,
        "state": "Chinandega",
        "postcode": "26200",
        "country": "Nicaragua",
        "country_code": "ni"
      },
      "address": "Narciso Zepeda, El Viejo, Chinandega, Nicaragua"
    },
    {
      "lat": 12.672748695438576,
      "lon": -87.12748676967162,
      "geoinfo": {
        "display_name": "San Martín de los Pobres, Chinandega, 25000, Nicaragua",
        "road": null,
        "house_number": null,
        "neighbourhood": null,
        "suburb": null,
        "city_district": null,
        "city": null,
        "state": "Chinandega",
        "postcode": "25000",
        "country": "Nicaragua",
        "country_code": "ni"
      },
      "address": "452, San Martín de los Pobres, Chinandega, 25000, Nicaragua"
    },
    {
      "lat": 12.652803277575163,
      "lon": -87.12920818099118,
      "geoinfo": {
        "display_name": "Estela, Chinandega, 25000, Nicaragua",
        "road": null,
        "house_number": null,
        "neighbourhood": null,
        "suburb": null,
        "city_district": null,
        "city": null,
        "state": "Chinandega",
        "postcode": "25000",
        "country": "Nicaragua",
        "country_code": "ni"
      },
      "address": "890, Estela, Chinandega, 25000, Nicaragua"
    },
    {
      "lat": 12.638669872920488,
      "lon": -87.2014811717365,
      "geoinfo": {
        "display_name": "Las Flores, Río Chiquito Abajo, El Viejo, Chinandega, 26200, Nicaragua",
        "road": null,
        "house_number": null,
        "neighbourhood": null,
        "suburb": null,
        "city_district": null,
        "city": null,
        "state": "Chinandega",
        "postcode": "26200",
        "country": "Nicaragua",
        "country_code": "ni"
      },
      "address": "235, Las Flores, Río Chiquito Abajo, El Viejo, Chinandega, 26200, Nicaragua"
    }
  ],
  "updated_at": "2025-10-19T08:47:13.395584+00:00",
  "_kind": "geo_samples"
}