{
  "country_code": "NI",
  "country": "Nicaragua",
  "city": "Jinotega",
  "geonameid": 3618929,
  "target_addresses": 3,
  "samples": [
    {
      "lat": 13.099599191376889,
      "lon": -86.03105898925574,
      "geoinfo": {
        "display_name": "El Salitre, Jinotega, 65000, Nicaragua",
        "road": null,
        "house_number": null,
        "neighbourhood": null,
        "suburb": null,
        "city_district": null,
        "city": "Jinotega",
        "state": "Jinotega",
        "postcode": "65000",
        "country": "Nicaragua",
        "country_code": "ni"
      },
      "address": "Jinotega, Jinotega, Nicaragua"
    },
    {
      "lat": 13.065443769753498,
      "lon": -85.9888346604258,
      "geoinfo": {
        "display_name": "Carretera Jinotega - El Guayacán, Simón Bolívar, Avícola La Reliquia, Jinotega, 65000, Nicaragua",
        "road": "Carretera Jinotega - El Guayacán",
        "house_number": null,
        "neighbourhood": "Simón Bolívar",
        "suburb": null,
        "city_district": null,
        "city": "Jinotega",
        "state": "Jinotega",
        "postcode": "65000",
        "country": "Nicaragua",
        "country_code": "ni"
      },
      "address": "Carretera Jinotega - El Guayacán, Jinotega, Jinotega, Nicaragua"
    },
    {
      "lat": 13.051209403206967,
      "lon": -85.99453457868464,
      "geoinfo": {
        "display_name": "Camino a las Antenas de Telecomunicaciones, Simón Bolívar, Llano de la Tejera, Jinotega, 65000, Nicaragua",
        "road": "Camino a las Antenas de Telecomunicaciones",
        "house_number": null,
        "neighbourhood": "Simón Bolívar",
        "suburb": "Llano de la Tejera",
        "city_district": null,
        "city": "Jinotega",
        "state": "Jinotega",
        "postcode": "65000",
        "country": "Nicaragua",
        "country_code": "ni"
      },
      "address": "Camino a las Antenas de Telecomunicaciones, Jinotega, Jinotega, Nicaragua"
    },
    {
      "lat": 13.073549861217492,
      "lon": -85.96579543425936,
      "geoinfo": {
        "display_name": "Jinotega, 65000, Nicaragua",
        "road": null,
        "house_number": null,
        "neighbourhood": null,
        "suburb": null,
        "city_district": null,
        "city": "Jinotega",
        "state": "Jinotega",
        "postcode": "65000",
        "country": "Nicaragua",
        "country_code": "ni"
      },
      "address": "708, Jinotega, 65000 Jinotega, Nicaragua"
    },
    {
      "lat": 13.100709221627637,
      "lon": -85.96606909438177,
      "geoinfo": {
        "display_name": "Las Marías, Los Cipreses, Jinotega, 65000, Nicaragua",
        "road": null,
        "house_number": null,
        "neighbourhood": null,
        "suburb": null,
        "city_district": null,
        "city": "Jinotega",
        "state": "Jinotega",
        "postcode": "65000",
        "country": "Nicaragua",
        "country_code": "ni"
      },
      "address": "503, Jinotega, 65000 Jinotega, Nicaragua"
    },
    {
      "lat": 13.119229286110247,
      "lon": -85.994111911961,
      "geoinfo": {
        "display_name": "Distrito Urbano I, El Rastro, Jinotega, 65000, Nicaragua",
        "road": null,
        "house_number": null,
        "neighbourhood": "El Rastro",
        "suburb": null,
        "city_district": null,
        "city": "Jinotega",
        "state": "Jinotega",
        "postcode": "65000",
        "country": "Nicaragua",
        "country_code": "ni"
      },
      "address": "181, Distrito Urbano I, El Rastro, Jinotega, 65000, Nicaragua"
    }
  ],
  "updated_at": "2025-10-19T06:23:26.405404+00:00",
  "_kind": "geo_samples"
}