{
  "country_code": "NI",
  "country": "Nicaragua",
  "city": "Juigalpa",
  "geonameid": 3618908,
  "target_addresses": 3,
  "samples": [
    {
      "lat": 12.07080377883572,
      "lon": -85.35418359172046,
      "geoinfo": {
        "display_name": "Juigalpa, Chontales, 55000, Nicaragua",
        "road": null,
        "house_number": null,
        "neighbourhood": null,
        "suburb": null,
        "city_district": null,
        "city": "Juigalpa",
        "state": "Chontales",
        "postcode": "55000",
        "country": "Nicaragua",
        "country_code": "ni"
      },
      "address": "Juigalpa, Chontales, Nicaragua"
    },
    {
      "lat": 12.112587428580246,
      "lon": -85.37486235874209,
      "geoinfo": {
        "display_name": "6ta Avenida SO, Juigalpa, Chontales, 55000, Nicaragua",
        "road": "6ta Avenida SO",
        "house_number": null,
        "neighbourhood": null,
        "suburb": null,
        "city_district": null,
        "city": "Juigalpa",
        "state": "Chontales",
        "postcode": "55000",
        "country": "Nicaragua",
        "country_code": "ni"
      },
      "address": "6ta Avenida SO, Juigalpa, Chontales, Nicaragua"
    },
    {
      "lat": 12.119033240296625,
      "lon": -85.39225460444305,
      "geoinfo": {
        "display_name": "Carretera al Rama, Las Lajitas, Las Laijtas, Juigalpa, Chontales, 55000, Nicaragua",
        "road": "Carretera al Rama",
        "house_number": null,
        "neighbourhood": null,
        "suburb": null,
        "city_district": null,
        "city": "Las Laijtas",
        "state": "Chontales",
        "postcode": "55000",
        "country": "Nicaragua",
        "country_code": "ni"
      },
      "address": "Carretera al Rama, Juigalpa, Chontales, Nicaragua"
    },
    {
      "lat": 12.098101572940875,
      "lon": -85.36832569976156,
      "geoinfo": {
        "display_name": "Juigalpa, Chontales, 55000, Nicaragua",
        "road": null,
        "house_number": null,
        "neighbourhood": null,
        "suburb": null,
        "city_district": null,
        "city": "Juigalpa",
        "state": "Chontales",
        "postcode": "55000",
        "country": "Nicaragua",
        "country_code": "ni"
      },
      "address": "879, Juigalpa, Chontales, 55000, Nicaragua"
    },
    {
      "lat": 12.142663864374253,
      "lon": -85.3590716185709,
      "geoinfo": {
        "display_name": "Juigalpa, Chontales, 55000, Nicaragua",
        "road": null,
        "house_number": null,
        "neighbourhood": null,
        "suburb": null,
        "city_district": null,
        "city": null,
        "state": "Chontales",
        "postcode": "55000",
        "country": "Nicaragua",
        "country_code": "ni"
      },
      "address": "671, Juigalpa, Chontales, 55000, Nicaragua"
    },
    {
      "lat": 12.125007014291455,
      "lon": -85.39961901546813,
      "geoinfo": {
        "display_name": "Carretera al Rama, Las Lajitas, Las Laijtas, Juigalpa, Chontales, 55000, Nicaragua",
        "road": "Carretera al Rama",
        "house_number": null,
        "neighbourhood": null,
        "suburb": null,
        "city_district": null,
        "city": "Las Laijtas",
        "state": "Chontales",
        "postcode": "55000",
        "country": "Nicaragua",
        "country_code": "ni"
      },
      "address": "524, Carretera al Rama, Las Lajitas, Las Laijtas, Juigalpa, Chontales, 55000, Nicaragua"
    }
  ],
  "updated_at": "2025-10-19T05:58:49.625469+00:00",
  "_kind": "geo_samples"
}