{
  "country_code": "NI",
  "country": "Nicaragua",
  "city": "León",
  "geonameid": 3618030,
  "target_addresses": 15,
  "samples": [
    {
      "lat": 12.44265809122262,
      "lon": -86.88303442128687,
      "geoinfo": {
        "display_name": "Pulpería, 6ta Calle Nor Este, Barrio San Felipe, León, 21000, Nicaragua",
        "road": "6ta Calle Nor Este",
        "house_number": null,
        "neighbourhood": "Barrio San Felipe",
        "suburb": null,
        "city_district": null,
        "city": "León",
        "state": "León",
        "postcode": "21000",
        "country": "Nicaragua",
        "country_code": "ni"
      },
      "address": "6ta Calle Nor Este, León, León, Nicaragua"
    },
    {
      "lat": 12.443659685875836,
      "lon": -86.91265913050236,
      "geoinfo": {
        "display_name": "Abangasca Sur, León, 21000, Nicaragua",
        "road": null,
        "house_number": null,
        "neighbourhood": null,
        "suburb": null,
        "city_district": null,
        "city": "Abangasca Sur",
        "state": "León",
        "postcode": "21000",
        "country": "Nicaragua",
        "country_code": "ni"
      },
      "address": "León, León, Nicaragua"
    },
    {
      "lat": 12.435091889389499,
      "lon": -86.84530839107019,
      "geoinfo": {
        "display_name": "Residencial Paderas Nuevo León, León, 21000, Nicaragua",
        "road": null,
        "house_number": null,
        "neighbourhood": "Residencial Paderas Nuevo León",
        "suburb": null,
        "city_district": null,
        "city": null,
        "state": "León",
        "postcode": "21000",
        "country": "Nicaragua",
        "country_code": "ni"
      },
      "address": "Residencial Paderas Nuevo León, León, León, Nicaragua"
    },
    {
      "lat": 12.414405154396631,
      "lon": -86.8525469810496,
      "geoinfo": {
        "display_name": "Santa Rosalía, Villa Castellón, León, 21000, Nicaragua",
        "road": null,
        "house_number": null,
        "neighbourhood": "Villa Castellón",
        "suburb": null,
        "city_district": null,
        "city": null,
        "state": "León",
        "postcode": "21000",
        "country": "Nicaragua",
        "country_code": "ni"
      },
      "address": "Santa Rosalía, Villa Castellón, León, 21000, Nicaragua"
    },
    {
      "lat": 12.439239588413924,
      "lon": -86.87674500140298,
      "geoinfo": {
        "display_name": "Trailwinds Hostel, 150 MTS norte, 1era Avenida Nor Este, Barrio San Juan, León, 21000, Nicaragua",
        "road": "1era Avenida Nor Este",
        "house_number": "150 MTS norte",
        "neighbourhood": "Barrio San Juan",
        "suburb": null,
        "city_district": null,
        "city": "León",
        "state": "León",
        "postcode": "21000",
        "country": "Nicaragua",
        "country_code": "ni"
      },
      "address": "Trailwinds Hostel, 150 MTS norte, 1era Avenida Nor Este, Barrio San Juan, León, 21000, Nicaragua"
    },
    {
      "lat": 12.424306776212848,
      "lon": -86.9114793385685,
      "geoinfo": {
        "display_name": "Carlos Canales, León, 21000, Nicaragua",
        "road": null,
        "house_number": null,
        "neighbourhood": null,
        "suburb": null,
        "city_district": null,
        "city": null,
        "state": "León",
        "postcode": "21000",
        "country": "Nicaragua",
        "country_code": "ni"
      },
      "address": "257, Carlos Canales, León, 21000, Nicaragua"
    },
    {
      "lat": 12.417104716181843,
      "lon": -86.89266212628199,
      "geoinfo": {
        "display_name": "Fortín de Acosasco, 11 Avenida Sur Oeste, Barrio Sutiava, León, 21000, Nicaragua",
        "road": "11 Avenida Sur Oeste",
        "house_number": null,
        "neighbourhood": "Barrio Sutiava",
        "suburb": null,
        "city_district": null,
        "city": "León",
        "state": "León",
        "postcode": "21000",
        "country": "Nicaragua",
        "country_code": "ni"
      },
      "address": "11 Avenida Sur Oeste, León, 21000 León, Nicaragua"
    },
    {
      "lat": 12.448812972251067,
      "lon": -86.89593792079302,
      "geoinfo": {
        "display_name": "Reparto Adiak Nº 2, León, 21000, Nicaragua",
        "road": null,
        "house_number": null,
        "neighbourhood": "Reparto Adiak Nº 2",
        "suburb": null,
        "city_district": null,
        "city": null,
        "state": "León",
        "postcode": "21000",
        "country": "Nicaragua",
        "country_code": "ni"
      },
      "address": "Reparto Adiak Nº 2, León, 21000, Nicaragua"
    },
    {
      "lat": 12.42953801990696,
      "lon": -86.89661051488567,
      "geoinfo": {
        "display_name": "Nicolas ruiz, 15a Avenida Sur Oeste, Barrio Ronald Sandino Zamora, León, 21000, Nicaragua",
        "road": "15a Avenida Sur Oeste",
        "house_number": null,
        "neighbourhood": "Barrio Ronald Sandino Zamora",
        "suburb": null,
        "city_district": null,
        "city": "León",
        "state": "León",
        "postcode": "21000",
        "country": "Nicaragua",
        "country_code": "ni"
      },
      "address": "Nicolas ruiz, 15a Avenida Sur Oeste, Barrio Ronald Sandino Zamora, León, 21000, Nicaragua"
    },
    {
      "lat": 12.441602319045964,
      "lon": -86.84044943458716,
      "geoinfo": {
        "display_name": "La Bolsa, León, 21000, Nicaragua",
        "road": null,
        "house_number": null,
        "neighbourhood": null,
        "suburb": null,
        "city_district": null,
        "city": null,
        "state": "León",
        "postcode": "21000",
        "country": "Nicaragua",
        "country_code": "ni"
      },
      "address": "233, La Bolsa, León, 21000, Nicaragua"
    },
    {
      "lat": 12.471435108609654,
      "lon": -86.87234296791372,
      "geoinfo": {
        "display_name": "El Madroñal, Telica, León, 22400, Nicaragua",
        "road": null,
        "house_number": null,
        "neighbourhood": null,
        "suburb": null,
        "city_district": null,
        "city": "Telica",
        "state": "León",
        "postcode": "22400",
        "country": "Nicaragua",
        "country_code": "ni"
      },
      "address": "042, El Madroñal, Telica, León, 22400, Nicaragua"
    },
    {
      "lat": 12.412888769058661,
      "lon": -86.8976466392022,
      "geoinfo": {
        "display_name": "El Fortín, León, 21000, Nicaragua",
        "road": null,
        "house_number": null,
        "neighbourhood": null,
        "suburb": null,
        "city_district": null,
        "city": "El Fortín",
        "state": "León",
        "postcode": "21000",
        "country": "Nicaragua",
        "country_code": "ni"
      },
      "address": "197, El Fortín, León, 21000, Nicaragua"
    },
    {
      "lat": 12.41658688504547,
      "lon": -86.88420068279027,
      "geoinfo": {
        "display_name": "El Fortín, León, 21000, Nicaragua",
        "road": null,
        "house_number": null,
        "neighbourhood": null,
        "suburb": null,
        "city_district": null,
        "city": "El Fortín",
        "state": "León",
        "postcode": "21000",
        "country": "Nicaragua",
        "country_code": "ni"
      },
      "address": "045, El Fortín, León, 21000, Nicaragua"
    },
    {
      "lat": 12.45413705828671,
      "lon": -86.86956271904363,
      "geoinfo": {
        "display_name": "Avenida Pedro Arauz Palacios, Barrio Andrés Zapata, León, 21000, Nicaragua",
        "road": "Avenida Pedro Arauz Palacios",
        "house_number": null,
        "neighbourhood": "Barrio Andrés Zapata",
        "suburb": null,
        "city_district": null,
        "city": "León",
        "state": "León",
        "postcode": "21000",
        "country": "Nicaragua",
        "country_code": "ni"
      },
      "address": "340, Avenida Pedro Arauz Palacios, Barrio Andrés Zapata, León, 21000, Nicaragua"
    },
    {
      "lat": 12.423598863075313,
      "lon": -86.88223586853552,
      "geoinfo": {
        "display_name": "9na Sur Este, Reparto Emir Cabezas Lacayo, León, 21000, Nicaragua",
        "road": "9na Sur Este",
        "house_number": null,
        "neighbourhood": "Reparto Emir Cabezas Lacayo",
        "suburb": null,
        "city_district": null,
        "city": "León",
        "state": "León",
        "postcode": "21000",
        "country": "Nicaragua",
        "country_code": "ni"
      },
      "address": "9na Sur Este, Reparto Emir Cabezas Lacayo, León, 21000, Nicaragua"
    }
  ],
  "updated_at": "2025-10-19T05:58:04.635249+00:00",
  "_kind": "geo_samples"
}