{
  "country_code": "NI",
  "country": "Nicaragua",
  "city": "Mateare",
  "geonameid": 3617697,
  "target_addresses": 3,
  "samples": [
    {
      "lat": 12.227479126306951,
      "lon": -86.3958602299184,
      "geoinfo": {
        "display_name": "Vistas del Momotombo, Mateare, Managua, 15500, Nicaragua",
        "road": null,
        "house_number": null,
        "neighbourhood": null,
        "suburb": null,
        "city_district": null,
        "city": "Vistas del Momotombo",
        "state": "Managua",
        "postcode": "15500",
        "country": "Nicaragua",
        "country_code": "ni"
      },
      "address": "Mateare, Managua, Nicaragua"
    },
    {
      "lat": 12.254722345682104,
      "lon": -86.42335588984815,
      "geoinfo": {
        "display_name": "La Primavera, Marvin Ortega, Mateare, Managua, 15500, Nicaragua",
        "road": null,
        "house_number": null,
        "neighbourhood": "Marvin Ortega",
        "suburb": null,
        "city_district": null,
        "city": null,
        "state": "Managua",
        "postcode": "15500",
        "country": "Nicaragua",
        "country_code": "ni"
      },
      "address": "Marvin Ortega, Mateare, Managua, Nicaragua"
    },
    {
      "lat": 12.252056090960055,
      "lon": -86.45671327804709,
      "geoinfo": {
        "display_name": "Carretera Nueva a León, Divino Pastor, Mateare, Managua, 15500, Nicaragua",
        "road": "Carretera Nueva a León",
        "house_number": null,
        "neighbourhood": "Divino Pastor",
        "suburb": null,
        "city_district": null,
        "city": "Mateare",
        "state": "Managua",
        "postcode": "15500",
        "country": "Nicaragua",
        "country_code": "ni"
      },
      "address": "Carretera Nueva a León, Mateare, Managua, Nicaragua"
    },
    {
      "lat": 12.20453747026627,
      "lon": -86.40424722183887,
      "geoinfo": {
        "display_name": "Vistas del Momotombo, Mateare, Managua, 15500, Nicaragua",
        "road": null,
        "house_number": null,
        "neighbourhood": null,
        "suburb": null,
        "city_district": null,
        "city": "Vistas del Momotombo",
        "state": "Managua",
        "postcode": "15500",
        "country": "Nicaragua",
        "country_code": "ni"
      },
      "address": "979, Vistas del Momotombo, Mateare, Managua, 15500, Nicaragua"
    },
    {
      "lat": 12.20181918856259,
      "lon": -86.40257710038048,
      "geoinfo": {
        "display_name": "Vistas del Momotombo, Mateare, Managua, 15500, Nicaragua",
        "road": null,
        "house_number": null,
        "neighbourhood": null,
        "suburb": null,
        "city_district": null,
        "city": "Vistas del Momotombo",
        "state": "Managua",
        "postcode": "15500",
        "country": "Nicaragua",
        "country_code": "ni"
      },
      "address": "360, Vistas del Momotombo, Mateare, Managua, 15500, Nicaragua"
    },
    {
      "lat": 12.19725118976408,
      "lon": -86.42556066529379,
      "geoinfo": {
        "display_name": "Casimiro Sotelo, Mateare, Managua, 15500, Nicaragua",
        "road": null,
        "house_number": null,
        "neighbourhood": "Casimiro Sotelo",
        "suburb": null,
        "city_district": null,
        "city": "Mateare",
        "state": "Managua",
        "postcode": "15500",
        "country": "Nicaragua",
        "country_code": "ni"
      },
      "address": "880, Casimiro Sotelo, Mateare, Managua, 15500, Nicaragua"
    }
  ],
  "updated_at": "2025-10-19T08:46:52.253088+00:00",
  "_kind": "geo_samples"
}