{
  "country_code": "NI",
  "country": "Nicaragua",
  "city": "Nandaime",
  "geonameid": 3617513,
  "target_addresses": 3,
  "samples": [
    {
      "lat": 11.734839030229834,
      "lon": -86.04094331188747,
      "geoinfo": {
        "display_name": "1a Avenida SO, Nandaime, Javier Guerra, Nandaime, Granada, 44300, Nicaragua",
        "road": "1a Avenida SO",
        "house_number": null,
        "neighbourhood": "Javier Guerra",
        "suburb": null,
        "city_district": null,
        "city": "Nandaime",
        "state": "Granada",
        "postcode": "44300",
        "country": "Nicaragua",
        "country_code": "ni"
      },
      "address": "1a Avenida SO, Nandaime, Granada, Nicaragua"
    },
    {
      "lat": 11.779867177259193,
      "lon": -86.07318405363449,
      "geoinfo": {
        "display_name": "Santa Juana de Praga, Nandaime, Granada, 44300, Nicaragua",
        "road": null,
        "house_number": null,
        "neighbourhood": null,
        "suburb": null,
        "city_district": null,
        "city": "Nandaime",
        "state": "Granada",
        "postcode": "44300",
        "country": "Nicaragua",
        "country_code": "ni"
      },
      "address": "Nandaime, Granada, Nicaragua"
    },
    {
      "lat": 11.752305939264982,
      "lon": -86.03632002948345,
      "geoinfo": {
        "display_name": "Pan-American Highway, Nandaime, El Manchón, Nandaime, Granada, 44300, Nicaragua",
        "road": "Pan-American Highway",
        "house_number": null,
        "neighbourhood": null,
        "suburb": null,
        "city_district": null,
        "city": "Nandaime",
        "state": "Granada",
        "postcode": "44300",
        "country": "Nicaragua",
        "country_code": "ni"
      },
      "address": "Pan-American Highway, Nandaime, Granada, Nicaragua"
    },
    {
      "lat": 11.758326965936382,
      "lon": -86.01321621033924,
      "geoinfo": {
        "display_name": "El Ojochal, Nandaime, Granada, 44300, Nicaragua",
        "road": null,
        "house_number": null,
        "neighbourhood": null,
        "suburb": null,
        "city_district": null,
        "city": "Nandaime",
        "state": "Granada",
        "postcode": "44300",
        "country": "Nicaragua",
        "country_code": "ni"
      },
      "address": "883, El Ojochal, Nandaime, Granada, 44300, Nicaragua"
    },
    {
      "lat": 11.737570199545557,
      "lon": -86.06856486561664,
      "geoinfo": {
        "display_name": "NN-207, Nandaime, Granada, 44300, Nicaragua",
        "road": "NN-207",
        "house_number": null,
        "neighbourhood": null,
        "suburb": null,
        "city_district": null,
        "city": "Nandaime",
        "state": "Granada",
        "postcode": "44300",
        "country": "Nicaragua",
        "country_code": "ni"
      },
      "address": "NN-207, Nandaime, Granada, 44300, Nicaragua"
    },
    {
      "lat": 11.756780660715528,
      "lon": -86.0132338785177,
      "geoinfo": {
        "display_name": "Andrés Castro, San Albino, Nandaime, Granada, 44300, Nicaragua",
        "road": null,
        "house_number": null,
        "neighbourhood": null,
        "suburb": null,
        "city_district": null,
        "city": "Nandaime",
        "state": "Granada",
        "postcode": "44300",
        "country": "Nicaragua",
        "country_code": "ni"
      },
      "address": "797, Nandaime, 44300 Granada, Nicaragua"
    }
  ],
  "updated_at": "2025-10-19T04:07:08.001297+00:00",
  "_kind": "geo_samples"
}