{
  "country_code": "NI",
  "country": "Nicaragua",
  "city": "Río Blanco",
  "geonameid": 3617069,
  "target_addresses": 3,
  "samples": [
    {
      "lat": 12.931056238439767,
      "lon": -85.25221072800946,
      "geoinfo": {
        "display_name": "La Ponzoña 2, Río Blanco, Matagalpa, 63200, Nicaragua",
        "road": null,
        "house_number": null,
        "neighbourhood": null,
        "suburb": null,
        "city_district": null,
        "city": "Río Blanco",
        "state": "Matagalpa",
        "postcode": "63200",
        "country": "Nicaragua",
        "country_code": "ni"
      },
      "address": "Río Blanco, Matagalpa, Nicaragua"
    },
    {
      "lat": 12.911922278008007,
      "lon": -85.25620671140925,
      "geoinfo": {
        "display_name": "NIC-21B, Peor Es Nada, Río Blanco, Matagalpa, 63200, Nicaragua",
        "road": "NIC-21B",
        "house_number": null,
        "neighbourhood": null,
        "suburb": null,
        "city_district": null,
        "city": "Río Blanco",
        "state": "Matagalpa",
        "postcode": "63200",
        "country": "Nicaragua",
        "country_code": "ni"
      },
      "address": "NIC-21B, Río Blanco, Matagalpa, Nicaragua"
    },
    {
      "lat": 12.91736888464208,
      "lon": -85.23080087723012,
      "geoinfo": {
        "display_name": "NIC-21B, San Juan, Río Blanco, Matagalpa, 63200, Nicaragua",
        "road": "NIC-21B",
        "house_number": null,
        "neighbourhood": null,
        "suburb": null,
        "city_district": null,
        "city": "Río Blanco",
        "state": "Matagalpa",
        "postcode": "63200",
        "country": "Nicaragua",
        "country_code": "ni"
      },
      "address": "NIC-21B, San Juan, Río Blanco, Matagalpa, 63200, Nicaragua"
    },
    {
      "lat": 12.949404737367493,
      "lon": -85.2174821837006,
      "geoinfo": {
        "display_name": "Santa Rosa, Río Blanco, Matagalpa, 63200, Nicaragua",
        "road": null,
        "house_number": null,
        "neighbourhood": null,
        "suburb": null,
        "city_district": null,
        "city": "Río Blanco",
        "state": "Matagalpa",
        "postcode": "63200",
        "country": "Nicaragua",
        "country_code": "ni"
      },
      "address": "347, Santa Rosa, Río Blanco, Matagalpa, 63200, Nicaragua"
    },
    {
      "lat": 12.969338483944334,
      "lon": -85.23217617276342,
      "geoinfo": {
        "display_name": "Buenos Aires, Río Blanco, Matagalpa, 63200, Nicaragua",
        "road": null,
        "house_number": null,
        "neighbourhood": null,
        "suburb": null,
        "city_district": null,
        "city": "Río Blanco",
        "state": "Matagalpa",
        "postcode": "63200",
        "country": "Nicaragua",
        "country_code": "ni"
      },
      "address": "552, Buenos Aires, Río Blanco, Matagalpa, 63200, Nicaragua"
    }
  ],
  "updated_at": "2025-10-19T06:23:01.997141+00:00",
  "_kind": "geo_samples"
}