{
  "country_code": "NI",
  "country": "Nicaragua",
  "city": "Siuna",
  "geonameid": 3616253,
  "target_addresses": 3,
  "samples": [
    {
      "lat": 13.706355969932876,
      "lon": -84.75222922308481,
      "geoinfo": {
        "display_name": "Carretera Siuna - Bilwi (Puerto Cabezas), Yaoya Central, Siuna, North Caribbean Coast, 72400, Nicaragua",
        "road": "Carretera Siuna - Bilwi (Puerto Cabezas)",
        "house_number": null,
        "neighbourhood": null,
        "suburb": null,
        "city_district": null,
        "city": "Yaoya Central",
        "state": null,
        "postcode": "72400",
        "country": "Nicaragua",
        "country_code": "ni"
      },
      "address": "Carretera Siuna - Bilwi (Puerto Cabezas), Siuna, Nicaragua"
    },
    {
      "lat": 13.73632882727659,
      "lon": -84.78472754709271,
      "geoinfo": {
        "display_name": "Siuna, North Caribbean Coast, 72400, Nicaragua",
        "road": null,
        "house_number": null,
        "neighbourhood": null,
        "suburb": null,
        "city_district": null,
        "city": "Siuna",
        "state": null,
        "postcode": "72400",
        "country": "Nicaragua",
        "country_code": "ni"
      },
      "address": "Siuna, Nicaragua"
    },
    {
      "lat": 13.726934128717344,
      "lon": -84.81157511437915,
      "geoinfo": {
        "display_name": "Carretera Siuna - Waslala, Wani, Siuna, North Caribbean Coast, 72400, Nicaragua",
        "road": "Carretera Siuna - Waslala",
        "house_number": null,
        "neighbourhood": null,
        "suburb": null,
        "city_district": null,
        "city": "Wani",
        "state": null,
        "postcode": "72400",
        "country": "Nicaragua",
        "country_code": "ni"
      },
      "address": "Carretera Siuna - Waslala, Siuna, Nicaragua"
    },
    {
      "lat": 13.711253016939748,
      "lon": -84.75659870783257,
      "geoinfo": {
        "display_name": "Carretera Siuna - Bilwi (Puerto Cabezas), Yaoya Central, Siuna, North Caribbean Coast, 72400, Nicaragua",
        "road": "Carretera Siuna - Bilwi (Puerto Cabezas)",
        "house_number": null,
        "neighbourhood": null,
        "suburb": null,
        "city_district": null,
        "city": "Yaoya Central",
        "state": null,
        "postcode": "72400",
        "country": "Nicaragua",
        "country_code": "ni"
      },
      "address": "989, Carretera Siuna - Bilwi (Puerto Cabezas), Yaoya Central, Siuna, North Caribbean Coast, 72400, Nicaragua"
    },
    {
      "lat": 13.739540240124505,
      "lon": -84.81135943913961,
      "geoinfo": {
        "display_name": "El Laurel, Siuna, North Caribbean Coast, 72400, Nicaragua",
        "road": null,
        "house_number": null,
        "neighbourhood": null,
        "suburb": null,
        "city_district": null,
        "city": null,
        "state": null,
        "postcode": "72400",
        "country": "Nicaragua",
        "country_code": "ni"
      },
      "address": "450, El Laurel, Siuna, North Caribbean Coast, 72400, Nicaragua"
    },
    {
      "lat": 13.732718046775823,
      "lon": -84.75933526805592,
      "geoinfo": {
        "display_name": "El G端erg端ero, Siuna, North Caribbean Coast, 72400, Nicaragua",
        "road": null,
        "house_number": null,
        "neighbourhood": null,
        "suburb": null,
        "city_district": null,
        "city": null,
        "state": null,
        "postcode": "72400",
        "country": "Nicaragua",
        "country_code": "ni"
      },
      "address": "179, El G端erg端ero, Siuna, North Caribbean Coast, 72400, Nicaragua"
    }
  ],
  "updated_at": "2025-10-19T04:06:56.027998+00:00",
  "_kind": "geo_samples"
}