{
  "country_code": "BA",
  "country": "Bosnia and Herzegovina",
  "city": "Banja Luka",
  "geonameid": 3204541,
  "target_addresses": 5,
  "samples": [
    {
      "lat": 44.74410126365435,
      "lon": 17.218850608752742,
      "geoinfo": {
        "display_name": "Debeljaci, Banja Luka, City of Banja Luka, Republika Srpska, 78101, Bosnia and Herzegovina",
        "road": null,
        "house_number": null,
        "neighbourhood": null,
        "suburb": null,
        "city_district": "Debeljaci",
        "city": "Banja Luka",
        "state": "Republika Srpska",
        "postcode": "78101",
        "country": "Bosnia and Herzegovina",
        "country_code": "ba"
      },
      "address": "Debeljaci, Banja Luka, Republika Srpska, Bosnia and Herzegovina"
    },
    {
      "lat": 44.802075859395885,
      "lon": 17.153159608266105,
      "geoinfo": {
        "display_name": "Motike, Pavlovac, City of Banja Luka, Republika Srpska, 78114, Bosnia and Herzegovina",
        "road": null,
        "house_number": null,
        "neighbourhood": null,
        "suburb": null,
        "city_district": "Motike",
        "city": "Pavlovac",
        "state": "Republika Srpska",
        "postcode": "78114",
        "country": "Bosnia and Herzegovina",
        "country_code": "ba"
      },
      "address": "Motike, Banja Luka, Republika Srpska, Bosnia and Herzegovina"
    },
    {
      "lat": 44.783767966851805,
      "lon": 17.247420288069353,
      "geoinfo": {
        "display_name": "Moskovska, Banja Luka, City of Banja Luka, Republika Srpska, 78101, Bosnia and Herzegovina",
        "road": "Moskovska",
        "house_number": null,
        "neighbourhood": null,
        "suburb": null,
        "city_district": null,
        "city": "Banja Luka",
        "state": "Republika Srpska",
        "postcode": "78101",
        "country": "Bosnia and Herzegovina",
        "country_code": "ba"
      },
      "address": "Moskovska, Banja Luka, Republika Srpska, Bosnia and Herzegovina"
    },
    {
      "lat": 44.76202657671209,
      "lon": 17.136445265299955,
      "geoinfo": {
        "display_name": "Bukvaluk, Banja Luka, City of Banja Luka, Republika Srpska, 78103, Bosnia and Herzegovina",
        "road": "Bukvaluk",
        "house_number": null,
        "neighbourhood": null,
        "suburb": null,
        "city_district": null,
        "city": "Banja Luka",
        "state": "Republika Srpska",
        "postcode": "78103",
        "country": "Bosnia and Herzegovina",
        "country_code": "ba"
      },
      "address": "Bukvaluk, Banja Luka, Republika Srpska, Bosnia and Herzegovina"
    },
    {
      "lat": 44.74307659990243,
      "lon": 17.17081623630591,
      "geoinfo": {
        "display_name": "Dolačka staza, Sitari, MZ Srpske toplice, Banja Luka, City of Banja Luka, Republika Srpska, 78103, Bosnia and Herzegovina",
        "road": "Dolačka staza",
        "house_number": null,
        "neighbourhood": null,
        "suburb": "MZ Srpske toplice",
        "city_district": null,
        "city": "Banja Luka",
        "state": "Republika Srpska",
        "postcode": "78103",
        "country": "Bosnia and Herzegovina",
        "country_code": "ba"
      },
      "address": "Dolačka staza, Banja Luka, Republika Srpska, Bosnia and Herzegovina"
    }
  ],
  "updated_at": "2025-10-16T10:40:27.217092+00:00",
  "_kind": "geo_samples"
}