{
  "country_code": "BA",
  "country": "Bosnia and Herzegovina",
  "city": "Bihać",
  "geonameid": 3204222,
  "target_addresses": 5,
  "samples": [
    {
      "lat": 44.7925405287761,
      "lon": 15.827027035846472,
      "geoinfo": {
        "display_name": "Vucjak, Vučjak, Zavalje, City of Bihać, Una-Sana Canton, Federation of Bosnia and Herzegovina, 77000, Bosnia and Herzegovina",
        "road": "Vucjak",
        "house_number": null,
        "neighbourhood": null,
        "suburb": null,
        "city_district": null,
        "city": "Zavalje",
        "state": "Federation of Bosnia and Herzegovina",
        "postcode": "77000",
        "country": "Bosnia and Herzegovina",
        "country_code": "ba"
      },
      "address": "395, Vucjak, Vučjak, Zavalje, City of Bihać, Una-Sana Canton, Federation of Bosnia and Herzegovina, 77000, Bosnia and Herzegovina"
    },
    {
      "lat": 44.80026875427901,
      "lon": 15.911000190232308,
      "geoinfo": {
        "display_name": "Orljanskih ljiljana, Dolovi, Orljani, Bihać, City of Bihać, Una-Sana Canton, Federation of Bosnia and Herzegovina, 77101, Bosnia and Herzegovina",
        "road": "Orljanskih ljiljana",
        "house_number": null,
        "neighbourhood": "Dolovi",
        "suburb": null,
        "city_district": null,
        "city": "Bihać",
        "state": "Federation of Bosnia and Herzegovina",
        "postcode": "77101",
        "country": "Bosnia and Herzegovina",
        "country_code": "ba"
      },
      "address": "181, Orljanskih ljiljana, Dolovi, Orljani, Bihać, City of Bihać, Una-Sana Canton, Federation of Bosnia and Herzegovina, 77101, Bosnia and Herzegovina"
    },
    {
      "lat": 44.80550013651417,
      "lon": 15.92057491894959,
      "geoinfo": {
        "display_name": "Njivice, Kula, Pritoka, City of Bihać, Una-Sana Canton, Federation of Bosnia and Herzegovina, Bosnia and Herzegovina",
        "road": "Njivice",
        "house_number": null,
        "neighbourhood": null,
        "suburb": null,
        "city_district": null,
        "city": "Pritoka",
        "state": "Federation of Bosnia and Herzegovina",
        "postcode": null,
        "country": "Bosnia and Herzegovina",
        "country_code": "ba"
      },
      "address": "885, Njivice, Kula, Pritoka, City of Bihać, Una-Sana Canton, 64555 Federation of Bosnia and Herzegovina, Bosnia and Herzegovina"
    },
    {
      "lat": 44.81824039449731,
      "lon": 15.882459706006923,
      "geoinfo": {
        "display_name": "Mostarska, Sirkovine, Gornje Prekounje, Bihać, City of Bihać, Una-Sana Canton, Federation of Bosnia and Herzegovina, 77101, Bosnia and Herzegovina",
        "road": "Mostarska",
        "house_number": null,
        "neighbourhood": "Sirkovine",
        "suburb": "Gornje Prekounje",
        "city_district": null,
        "city": "Bihać",
        "state": "Federation of Bosnia and Herzegovina",
        "postcode": "77101",
        "country": "Bosnia and Herzegovina",
        "country_code": "ba"
      },
      "address": "245, Mostarska, Sirkovine, Gornje Prekounje, Bihać, City of Bihać, Una-Sana Canton, Federation of Bosnia and Herzegovina, 77101, Bosnia and Herzegovina"
    },
    {
      "lat": 44.78070107704442,
      "lon": 15.85254838963938,
      "geoinfo": {
        "display_name": "R 164, Žegar, Bihać, City of Bihać, Una-Sana Canton, Federation of Bosnia and Herzegovina, 77101, Bosnia and Herzegovina",
        "road": "R 164",
        "house_number": null,
        "neighbourhood": null,
        "suburb": "Žegar",
        "city_district": null,
        "city": "Bihać",
        "state": "Federation of Bosnia and Herzegovina",
        "postcode": "77101",
        "country": "Bosnia and Herzegovina",
        "country_code": "ba"
      },
      "address": "R 164, Žegar, Bihać, City of Bihać, Una-Sana Canton, Federation of Bosnia and Herzegovina, 77101, Bosnia and Herzegovina"
    }
  ],
  "updated_at": "2025-10-19T02:56:07.626841+00:00",
  "_kind": "geo_samples"
}