{
  "country_code": "BA",
  "country": "Bosnia and Herzegovina",
  "city": "Bosanska Krupa",
  "geonameid": 3203653,
  "target_addresses": 5,
  "samples": [
    {
      "lat": 44.88328207949965,
      "lon": 16.19870051368213,
      "geoinfo": {
        "display_name": "Mali Badić, Town of Bosanska Krupa, Una-Sana Canton, Federation of Bosnia and Herzegovina, Bosnia and Herzegovina",
        "road": null,
        "house_number": null,
        "neighbourhood": null,
        "suburb": null,
        "city_district": null,
        "city": "Mali Badić",
        "state": "Federation of Bosnia and Herzegovina",
        "postcode": null,
        "country": "Bosnia and Herzegovina",
        "country_code": "ba"
      },
      "address": "Bosanska Krupa, Federation of Bosnia and Herzegovina, Bosnia and Herzegovina"
    },
    {
      "lat": 44.878093197141744,
      "lon": 16.201447519497222,
      "geoinfo": {
        "display_name": "R-404a, Arapuša, Town of Bosanska Krupa, Una-Sana Canton, Federation of Bosnia and Herzegovina, Bosnia and Herzegovina",
        "road": "R-404a",
        "house_number": null,
        "neighbourhood": null,
        "suburb": null,
        "city_district": "Arapuša",
        "city": "Arapuša",
        "state": "Federation of Bosnia and Herzegovina",
        "postcode": null,
        "country": "Bosnia and Herzegovina",
        "country_code": "ba"
      },
      "address": "R-404a, Bosanska Krupa, Federation of Bosnia and Herzegovina, Bosnia and Herzegovina"
    },
    {
      "lat": 44.84923321701119,
      "lon": 16.159793094933764,
      "geoinfo": {
        "display_name": "M-14.2, Gudavac, Town of Bosanska Krupa, Una-Sana Canton, Federation of Bosnia and Herzegovina, 77240, Bosnia and Herzegovina",
        "road": "M-14.2",
        "house_number": null,
        "neighbourhood": null,
        "suburb": null,
        "city_district": null,
        "city": "Gudavac",
        "state": "Federation of Bosnia and Herzegovina",
        "postcode": "77240",
        "country": "Bosnia and Herzegovina",
        "country_code": "ba"
      },
      "address": "M-14.2, Bosanska Krupa, Federation of Bosnia and Herzegovina, Bosnia and Herzegovina"
    },
    {
      "lat": 44.8652607620878,
      "lon": 16.096978957207124,
      "geoinfo": {
        "display_name": "M-14, Grmuša, Town of Bosanska Krupa, Una-Sana Canton, Federation of Bosnia and Herzegovina, Bosnia and Herzegovina",
        "road": "M-14",
        "house_number": null,
        "neighbourhood": null,
        "suburb": null,
        "city_district": "Grmuša",
        "city": null,
        "state": "Federation of Bosnia and Herzegovina",
        "postcode": null,
        "country": "Bosnia and Herzegovina",
        "country_code": "ba"
      },
      "address": "M-14, Bosanska Krupa, Federation of Bosnia and Herzegovina, Bosnia and Herzegovina"
    },
    {
      "lat": 44.88753718784996,
      "lon": 16.174310601351333,
      "geoinfo": {
        "display_name": "1. BKB, Bosanska Krupa, Town of Bosanska Krupa, Una-Sana Canton, Federation of Bosnia and Herzegovina, 77240, Bosnia and Herzegovina",
        "road": "1. BKB",
        "house_number": null,
        "neighbourhood": null,
        "suburb": null,
        "city_district": null,
        "city": "Bosanska Krupa",
        "state": "Federation of Bosnia and Herzegovina",
        "postcode": "77240",
        "country": "Bosnia and Herzegovina",
        "country_code": "ba"
      },
      "address": "1. BKB, Bosanska Krupa, Federation of Bosnia and Herzegovina, Bosnia and Herzegovina"
    },
    {
      "lat": 44.87318833542201,
      "lon": 16.167198338194932,
      "geoinfo": {
        "display_name": "Bosanska Krupa, Town of Bosanska Krupa, Una-Sana Canton, Federation of Bosnia and Herzegovina, 77240, Bosnia and Herzegovina",
        "road": null,
        "house_number": null,
        "neighbourhood": null,
        "suburb": null,
        "city_district": null,
        "city": "Bosanska Krupa",
        "state": "Federation of Bosnia and Herzegovina",
        "postcode": "77240",
        "country": "Bosnia and Herzegovina",
        "country_code": "ba"
      },
      "address": "945, Bosanska Krupa, Town of Bosanska Krupa, Una-Sana Canton, Federation of Bosnia and Herzegovina, 77240, Bosnia and Herzegovina"
    },
    {
      "lat": 44.902943990223164,
      "lon": 16.19138998882928,
      "geoinfo": {
        "display_name": "Bosanska Krupa, Town of Bosanska Krupa, Una-Sana Canton, Federation of Bosnia and Herzegovina, 77240, Bosnia and Herzegovina",
        "road": null,
        "house_number": null,
        "neighbourhood": null,
        "suburb": null,
        "city_district": null,
        "city": "Bosanska Krupa",
        "state": "Federation of Bosnia and Herzegovina",
        "postcode": "77240",
        "country": "Bosnia and Herzegovina",
        "country_code": "ba"
      },
      "address": "323, Bosanska Krupa, Town of Bosanska Krupa, Una-Sana Canton, Federation of Bosnia and Herzegovina, 77240, Bosnia and Herzegovina"
    },
    {
      "lat": 44.87471737558132,
      "lon": 16.21177171738217,
      "geoinfo": {
        "display_name": "R-404a, Arapuša, Town of Bosanska Krupa, Una-Sana Canton, Federation of Bosnia and Herzegovina, Bosnia and Herzegovina",
        "road": "R-404a",
        "house_number": null,
        "neighbourhood": null,
        "suburb": null,
        "city_district": "Arapuša",
        "city": "Arapuša",
        "state": "Federation of Bosnia and Herzegovina",
        "postcode": null,
        "country": "Bosnia and Herzegovina",
        "country_code": "ba"
      },
      "address": "R-404a, Arapuša, Town of Bosanska Krupa, Una-Sana Canton, 98042 Federation of Bosnia and Herzegovina, Bosnia and Herzegovina"
    },
    {
      "lat": 44.87669385825607,
      "lon": 16.205786568698628,
      "geoinfo": {
        "display_name": "R-404a, Arapuša, Town of Bosanska Krupa, Una-Sana Canton, Federation of Bosnia and Herzegovina, Bosnia and Herzegovina",
        "road": "R-404a",
        "house_number": null,
        "neighbourhood": null,
        "suburb": null,
        "city_district": "Arapuša",
        "city": "Arapuša",
        "state": "Federation of Bosnia and Herzegovina",
        "postcode": null,
        "country": "Bosnia and Herzegovina",
        "country_code": "ba"
      },
      "address": "R-404a, Arapuša, Town of Bosanska Krupa, Una-Sana Canton, 67263 Federation of Bosnia and Herzegovina, Bosnia and Herzegovina"
    },
    {
      "lat": 44.85522926085745,
      "lon": 16.107367930744974,
      "geoinfo": {
        "display_name": "Bosanska Krupa, Town of Bosanska Krupa, Una-Sana Canton, Federation of Bosnia and Herzegovina, 77240, Bosnia and Herzegovina",
        "road": null,
        "house_number": null,
        "neighbourhood": null,
        "suburb": null,
        "city_district": null,
        "city": "Bosanska Krupa",
        "state": "Federation of Bosnia and Herzegovina",
        "postcode": "77240",
        "country": "Bosnia and Herzegovina",
        "country_code": "ba"
      },
      "address": "870, Bosanska Krupa, Town of Bosanska Krupa, Una-Sana Canton, Federation of Bosnia and Herzegovina, 77240, Bosnia and Herzegovina"
    }
  ],
  "updated_at": "2025-10-19T00:59:37.854337+00:00",
  "_kind": "geo_samples"
}