{
  "country_code": "BA",
  "country": "Bosnia and Herzegovina",
  "city": "Brčko",
  "geonameid": 3203521,
  "target_addresses": 5,
  "samples": [
    {
      "lat": 44.86155779384681,
      "lon": 18.83233804293419,
      "geoinfo": {
        "display_name": "75, Bijeljinska, Ilićka, Grčica, Brčko, Brčko District, 76100, Bosnia and Herzegovina",
        "road": "Bijeljinska",
        "house_number": "75",
        "neighbourhood": "Ilićka",
        "suburb": "Grčica",
        "city_district": null,
        "city": "Brčko",
        "state": "Brčko District",
        "postcode": "76100",
        "country": "Bosnia and Herzegovina",
        "country_code": "ba"
      },
      "address": "75 Bijeljinska, Brčko, Brčko District, Bosnia and Herzegovina"
    },
    {
      "lat": 44.83651466164169,
      "lon": 18.822396210908586,
      "geoinfo": {
        "display_name": "R-458, Čađavac, Potocari, Potočari, Brčko District, 76100, Bosnia and Herzegovina",
        "road": "R-458",
        "house_number": null,
        "neighbourhood": "Čađavac",
        "suburb": null,
        "city_district": "Potocari",
        "city": "Potočari",
        "state": "Brčko District",
        "postcode": "76100",
        "country": "Bosnia and Herzegovina",
        "country_code": "ba"
      },
      "address": "R-458, Brčko, Brčko District, Bosnia and Herzegovina"
    },
    {
      "lat": 44.84823313406953,
      "lon": 18.793609252929425,
      "geoinfo": {
        "display_name": "Omergegovaca, Omerbegovača, Brčko District, 76120, Bosnia and Herzegovina",
        "road": null,
        "house_number": null,
        "neighbourhood": null,
        "suburb": null,
        "city_district": "Omergegovaca",
        "city": "Omerbegovača",
        "state": "Brčko District",
        "postcode": "76120",
        "country": "Bosnia and Herzegovina",
        "country_code": "ba"
      },
      "address": "Omergegovaca, Brčko, Brčko District, Bosnia and Herzegovina"
    },
    {
      "lat": 44.84757610935597,
      "lon": 18.848194792173476,
      "geoinfo": {
        "display_name": "M-14.1, Gredice, Brčko, Brčko District, 76100, Bosnia and Herzegovina",
        "road": "M-14.1",
        "house_number": null,
        "neighbourhood": null,
        "suburb": "Gredice",
        "city_district": null,
        "city": "Brčko",
        "state": "Brčko District",
        "postcode": "76100",
        "country": "Bosnia and Herzegovina",
        "country_code": "ba"
      },
      "address": "M-14.1, Brčko, Brčko District, Bosnia and Herzegovina"
    },
    {
      "lat": 44.851682888314315,
      "lon": 18.841819826287434,
      "geoinfo": {
        "display_name": "90, Semberska, Gredice, Brčko, Brčko District, 76100, Bosnia and Herzegovina",
        "road": "Semberska",
        "house_number": "90",
        "neighbourhood": null,
        "suburb": "Gredice",
        "city_district": null,
        "city": "Brčko",
        "state": "Brčko District",
        "postcode": "76100",
        "country": "Bosnia and Herzegovina",
        "country_code": "ba"
      },
      "address": "90 Semberska, Brčko, Brčko District, Bosnia and Herzegovina"
    }
  ],
  "updated_at": "2025-10-16T10:40:07.755125+00:00",
  "_kind": "geo_samples"
}