{
  "country_code": "BA",
  "country": "Bosnia and Herzegovina",
  "city": "Gradačac",
  "geonameid": 3199744,
  "target_addresses": 5,
  "samples": [
    {
      "lat": 44.89519569723078,
      "lon": 18.430551912162205,
      "geoinfo": {
        "display_name": "Škorići, Gradačac, Town of Gradačac, Tuzla Canton, Federation of Bosnia and Herzegovina, 76250, Bosnia and Herzegovina",
        "road": null,
        "house_number": null,
        "neighbourhood": null,
        "suburb": null,
        "city_district": "Gradačac",
        "city": "Gradačac",
        "state": "Federation of Bosnia and Herzegovina",
        "postcode": "76250",
        "country": "Bosnia and Herzegovina",
        "country_code": "ba"
      },
      "address": "Gradačac, Gradačac, Federation of Bosnia and Herzegovina, Bosnia and Herzegovina"
    },
    {
      "lat": 44.895925431245786,
      "lon": 18.4413312236792,
      "geoinfo": {
        "display_name": "Sibovac, Gradačac, Town of Gradačac, Tuzla Canton, Federation of Bosnia and Herzegovina, 76250, Bosnia and Herzegovina",
        "road": null,
        "house_number": null,
        "neighbourhood": null,
        "suburb": null,
        "city_district": "Sibovac",
        "city": "Gradačac",
        "state": "Federation of Bosnia and Herzegovina",
        "postcode": "76250",
        "country": "Bosnia and Herzegovina",
        "country_code": "ba"
      },
      "address": "Sibovac, Gradačac, Federation of Bosnia and Herzegovina, Bosnia and Herzegovina"
    },
    {
      "lat": 44.87277107069941,
      "lon": 18.444067988358775,
      "geoinfo": {
        "display_name": "Žrtava genocida u Srebrenici, Gradačac, Town of Gradačac, Tuzla Canton, Federation of Bosnia and Herzegovina, 76250, Bosnia and Herzegovina",
        "road": "Žrtava genocida u Srebrenici",
        "house_number": null,
        "neighbourhood": null,
        "suburb": null,
        "city_district": "Gradačac",
        "city": "Gradačac",
        "state": "Federation of Bosnia and Herzegovina",
        "postcode": "76250",
        "country": "Bosnia and Herzegovina",
        "country_code": "ba"
      },
      "address": "Žrtava genocida u Srebrenici, Gradačac, Federation of Bosnia and Herzegovina, Bosnia and Herzegovina"
    },
    {
      "lat": 44.88309761304458,
      "lon": 18.365630046806764,
      "geoinfo": {
        "display_name": "Novalici, Tolisa, Modrica municipality, Town of Gradačac, Tuzla Canton, Federation of Bosnia and Herzegovina, Bosnia and Herzegovina",
        "road": null,
        "house_number": null,
        "neighbourhood": null,
        "suburb": null,
        "city_district": "Novalici",
        "city": "Tolisa",
        "state": "Federation of Bosnia and Herzegovina",
        "postcode": null,
        "country": "Bosnia and Herzegovina",
        "country_code": "ba"
      },
      "address": "Novalici, Gradačac, Federation of Bosnia and Herzegovina, Bosnia and Herzegovina"
    },
    {
      "lat": 44.87549088529601,
      "lon": 18.464430666670705,
      "geoinfo": {
        "display_name": "Mionica, Town of Gradačac, Tuzla Canton, Federation of Bosnia and Herzegovina, 76250, Bosnia and Herzegovina",
        "road": null,
        "house_number": null,
        "neighbourhood": null,
        "suburb": null,
        "city_district": "Mionica",
        "city": "Mionica",
        "state": "Federation of Bosnia and Herzegovina",
        "postcode": "76250",
        "country": "Bosnia and Herzegovina",
        "country_code": "ba"
      },
      "address": "Mionica, Gradačac, Federation of Bosnia and Herzegovina, Bosnia and Herzegovina"
    },
    {
      "lat": 44.84679989375615,
      "lon": 18.448797370869936,
      "geoinfo": {
        "display_name": "Donji Lukavac, Town of Gradačac, Tuzla Canton, Federation of Bosnia and Herzegovina, 76250, Bosnia and Herzegovina",
        "road": null,
        "house_number": null,
        "neighbourhood": null,
        "suburb": null,
        "city_district": "Donji Lukavac",
        "city": "Donji Lukavac",
        "state": "Federation of Bosnia and Herzegovina",
        "postcode": "76250",
        "country": "Bosnia and Herzegovina",
        "country_code": "ba"
      },
      "address": "759, Donji Lukavac, Town of Gradačac, Tuzla Canton, Federation of Bosnia and Herzegovina, 76250, Bosnia and Herzegovina"
    },
    {
      "lat": 44.86873464827983,
      "lon": 18.368441353464426,
      "geoinfo": {
        "display_name": "Novalici, Novalići, Town of Gradačac, Tuzla Canton, Federation of Bosnia and Herzegovina, Bosnia and Herzegovina",
        "road": null,
        "house_number": null,
        "neighbourhood": null,
        "suburb": null,
        "city_district": "Novalici",
        "city": "Novalići",
        "state": "Federation of Bosnia and Herzegovina",
        "postcode": null,
        "country": "Bosnia and Herzegovina",
        "country_code": "ba"
      },
      "address": "462, Novalici, Novalići, Town of Gradačac, Tuzla Canton, 08799 Federation of Bosnia and Herzegovina, Bosnia and Herzegovina"
    },
    {
      "lat": 44.90994388645558,
      "lon": 18.46526309118543,
      "geoinfo": {
        "display_name": "Sibovac, Town of Gradačac, Tuzla Canton, Federation of Bosnia and Herzegovina, 76256, Bosnia and Herzegovina",
        "road": null,
        "house_number": null,
        "neighbourhood": null,
        "suburb": null,
        "city_district": "Sibovac",
        "city": "Sibovac",
        "state": "Federation of Bosnia and Herzegovina",
        "postcode": "76256",
        "country": "Bosnia and Herzegovina",
        "country_code": "ba"
      },
      "address": "167, Sibovac, Town of Gradačac, Tuzla Canton, Federation of Bosnia and Herzegovina, 76256, Bosnia and Herzegovina"
    },
    {
      "lat": 44.915018516318746,
      "lon": 18.43058526802596,
      "geoinfo": {
        "display_name": "Donje Bare, Donje Ledenice, Pelagićevo Municipality, Town of Gradačac, Tuzla Canton, Federation of Bosnia and Herzegovina, 76250, Bosnia and Herzegovina",
        "road": null,
        "house_number": null,
        "neighbourhood": null,
        "suburb": null,
        "city_district": "Donje Ledenice",
        "city": "Donje Ledenice",
        "state": "Federation of Bosnia and Herzegovina",
        "postcode": "76250",
        "country": "Bosnia and Herzegovina",
        "country_code": "ba"
      },
      "address": "082, Donje Ledenice, Gradačac, 76250 Federation of Bosnia and Herzegovina, Bosnia and Herzegovina"
    },
    {
      "lat": 44.920080908958084,
      "lon": 18.405916179920464,
      "geoinfo": {
        "display_name": "Okanovići, Donje Ledenice, Town of Gradačac, Tuzla Canton, Federation of Bosnia and Herzegovina, Bosnia and Herzegovina",
        "road": null,
        "house_number": null,
        "neighbourhood": null,
        "suburb": null,
        "city_district": "Donje Ledenice",
        "city": "Donje Ledenice",
        "state": "Federation of Bosnia and Herzegovina",
        "postcode": null,
        "country": "Bosnia and Herzegovina",
        "country_code": "ba"
      },
      "address": "289, Okanovići, Donje Ledenice, Town of Gradačac, Tuzla Canton, 47382 Federation of Bosnia and Herzegovina, Bosnia and Herzegovina"
    }
  ],
  "updated_at": "2025-10-19T01:03:55.491081+00:00",
  "_kind": "geo_samples"
}