{
  "country_code": "BA",
  "country": "Bosnia and Herzegovina",
  "city": "Prijedor",
  "geonameid": 3192409,
  "target_addresses": 5,
  "samples": [
    {
      "lat": 44.93794429524428,
      "lon": 16.729652477325224,
      "geoinfo": {
        "display_name": "Slatina, Петрово / Petrovo, MZ Petrovo, City of Prijedor, Republika Srpska, 79101, Bosnia and Herzegovina",
        "road": null,
        "house_number": null,
        "neighbourhood": null,
        "suburb": null,
        "city_district": "Петрово / Petrovo",
        "city": "MZ Petrovo",
        "state": "Republika Srpska",
        "postcode": "79101",
        "country": "Bosnia and Herzegovina",
        "country_code": "ba"
      },
      "address": "Петрово / Petrovo, Prijedor, Republika Srpska, Bosnia and Herzegovina"
    },
    {
      "lat": 44.98997032903089,
      "lon": 16.730714644110876,
      "geoinfo": {
        "display_name": "6, Mihajla Pupina, Aerodromsko naselje, Prijedor, MZ Prijedor II, City of Prijedor, Republika Srpska, 79000, Bosnia and Herzegovina",
        "road": "Mihajla Pupina",
        "house_number": "6",
        "neighbourhood": null,
        "suburb": null,
        "city_district": null,
        "city": "Prijedor",
        "state": "Republika Srpska",
        "postcode": "79000",
        "country": "Bosnia and Herzegovina",
        "country_code": "ba"
      },
      "address": "6 Mihajla Pupina, Prijedor, Republika Srpska, Bosnia and Herzegovina"
    },
    {
      "lat": 44.961889092229036,
      "lon": 16.665207341211072,
      "geoinfo": {
        "display_name": "Hamulići, Хамбарине / Hambarine, MZ Hambarine, City of Prijedor, Republika Srpska, Bosnia and Herzegovina",
        "road": null,
        "house_number": null,
        "neighbourhood": null,
        "suburb": null,
        "city_district": "Хамбарине / Hambarine",
        "city": "MZ Hambarine",
        "state": "Republika Srpska",
        "postcode": null,
        "country": "Bosnia and Herzegovina",
        "country_code": "ba"
      },
      "address": "Хамбарине / Hambarine, Prijedor, Republika Srpska, Bosnia and Herzegovina"
    },
    {
      "lat": 45.0022595524374,
      "lon": 16.758126335563006,
      "geoinfo": {
        "display_name": "81, 21. новембра, Prijedor, MZ Gornji Orlovci, City of Prijedor, Republika Srpska, 79000, Bosnia and Herzegovina",
        "road": "21. новембра",
        "house_number": "81",
        "neighbourhood": null,
        "suburb": null,
        "city_district": null,
        "city": "Prijedor",
        "state": "Republika Srpska",
        "postcode": "79000",
        "country": "Bosnia and Herzegovina",
        "country_code": "ba"
      },
      "address": "81 21. новембра, Prijedor, Republika Srpska, Bosnia and Herzegovina"
    },
    {
      "lat": 44.99835733287743,
      "lon": 16.658833392158428,
      "geoinfo": {
        "display_name": "Brezičani, MZ Brezičani, City of Prijedor, Republika Srpska, Bosnia and Herzegovina",
        "road": null,
        "house_number": null,
        "neighbourhood": null,
        "suburb": null,
        "city_district": null,
        "city": "MZ Brezičani",
        "state": "Republika Srpska",
        "postcode": null,
        "country": "Bosnia and Herzegovina",
        "country_code": "ba"
      },
      "address": "Prijedor, Republika Srpska, Bosnia and Herzegovina"
    },
    {
      "lat": 44.965647106402166,
      "lon": 16.75683259475571,
      "geoinfo": {
        "display_name": "70, Срђана Алексића, Kalata, Prijedor, MZ Donji Orlovci, City of Prijedor, Republika Srpska, 79000, Bosnia and Herzegovina",
        "road": "Срђана Алексића",
        "house_number": "70",
        "neighbourhood": null,
        "suburb": null,
        "city_district": null,
        "city": "Prijedor",
        "state": "Republika Srpska",
        "postcode": "79000",
        "country": "Bosnia and Herzegovina",
        "country_code": "ba"
      },
      "address": "70, Срђана Алексића, Kalata, Prijedor, MZ Donji Orlovci, City of Prijedor, Republika Srpska, 79000, Bosnia and Herzegovina"
    },
    {
      "lat": 44.9715892819317,
      "lon": 16.69439557199865,
      "geoinfo": {
        "display_name": "Приштинска, Prijedor, MZ Tukovi, City of Prijedor, Republika Srpska, 79101, Bosnia and Herzegovina",
        "road": "Приштинска",
        "house_number": null,
        "neighbourhood": null,
        "suburb": null,
        "city_district": null,
        "city": "Prijedor",
        "state": "Republika Srpska",
        "postcode": "79101",
        "country": "Bosnia and Herzegovina",
        "country_code": "ba"
      },
      "address": "545, Приштинска, Prijedor, MZ Tukovi, City of Prijedor, Republika Srpska, 79101, Bosnia and Herzegovina"
    },
    {
      "lat": 44.953190745408506,
      "lon": 16.72410155940673,
      "geoinfo": {
        "display_name": "Насип, Гомјеница / Gomjenica, MZ Gomjenica, City of Prijedor, Republika Srpska, 79101, Bosnia and Herzegovina",
        "road": "Насип",
        "house_number": null,
        "neighbourhood": null,
        "suburb": null,
        "city_district": "Гомјеница / Gomjenica",
        "city": "MZ Gomjenica",
        "state": "Republika Srpska",
        "postcode": "79101",
        "country": "Bosnia and Herzegovina",
        "country_code": "ba"
      },
      "address": "094, Насип, Гомјеница / Gomjenica, MZ Gomjenica, City of Prijedor, Republika Srpska, 79101, Bosnia and Herzegovina"
    },
    {
      "lat": 44.95964219515329,
      "lon": 16.693090466645945,
      "geoinfo": {
        "display_name": "17, Меше Ибрахимпашића, Tukovi, Prijedor, MZ Tukovi, City of Prijedor, Republika Srpska, 79101, Bosnia and Herzegovina",
        "road": "Меше Ибрахимпашића",
        "house_number": "17",
        "neighbourhood": null,
        "suburb": "Tukovi",
        "city_district": null,
        "city": "Prijedor",
        "state": "Republika Srpska",
        "postcode": "79101",
        "country": "Bosnia and Herzegovina",
        "country_code": "ba"
      },
      "address": "17, Меше Ибрахимпашића, Tukovi, Prijedor, MZ Tukovi, City of Prijedor, Republika Srpska, 79101, Bosnia and Herzegovina"
    },
    {
      "lat": 44.96315695277096,
      "lon": 16.6882624698434,
      "geoinfo": {
        "display_name": "59, Сарајевска, Juričke, Prijedor, MZ Hambarine, City of Prijedor, Republika Srpska, 79101, Bosnia and Herzegovina",
        "road": "Сарајевска",
        "house_number": "59",
        "neighbourhood": null,
        "suburb": null,
        "city_district": null,
        "city": "Prijedor",
        "state": "Republika Srpska",
        "postcode": "79101",
        "country": "Bosnia and Herzegovina",
        "country_code": "ba"
      },
      "address": "59, Сарајевска, Juričke, Prijedor, MZ Hambarine, City of Prijedor, Republika Srpska, 79101, Bosnia and Herzegovina"
    }
  ],
  "updated_at": "2025-10-19T02:54:03.314402+00:00",
  "_kind": "geo_samples"
}