{
  "country_code": "BA",
  "country": "Bosnia and Herzegovina",
  "city": "Velika Kladuša",
  "geonameid": 3188225,
  "target_addresses": 5,
  "samples": [
    {
      "lat": 45.171445806489544,
      "lon": 15.821661226703318,
      "geoinfo": {
        "display_name": "Nepeke, Velika Kladuša municipality, Una-Sana Canton, Federation of Bosnia and Herzegovina, 77230, Bosnia and Herzegovina",
        "road": null,
        "house_number": null,
        "neighbourhood": null,
        "suburb": null,
        "city_district": null,
        "city": "Nepeke",
        "state": "Federation of Bosnia and Herzegovina",
        "postcode": "77230",
        "country": "Bosnia and Herzegovina",
        "country_code": "ba"
      },
      "address": "Velika Kladuša, Federation of Bosnia and Herzegovina, Bosnia and Herzegovina"
    },
    {
      "lat": 45.194737223787016,
      "lon": 15.810238175421631,
      "geoinfo": {
        "display_name": "R-400a, Miljkovići, Velika Kladuša municipality, Una-Sana Canton, Federation of Bosnia and Herzegovina, 77230, Bosnia and Herzegovina",
        "road": "R-400a",
        "house_number": null,
        "neighbourhood": null,
        "suburb": null,
        "city_district": null,
        "city": "Miljkovići",
        "state": "Federation of Bosnia and Herzegovina",
        "postcode": "77230",
        "country": "Bosnia and Herzegovina",
        "country_code": "ba"
      },
      "address": "R-400a, Velika Kladuša, Federation of Bosnia and Herzegovina, Bosnia and Herzegovina"
    },
    {
      "lat": 45.200748914780924,
      "lon": 15.792044420164416,
      "geoinfo": {
        "display_name": "3229, Maljevac, Općina Cetingrad, Karlovac County, Croatia",
        "road": "3229",
        "house_number": null,
        "neighbourhood": null,
        "suburb": null,
        "city_district": null,
        "city": "Maljevac",
        "state": null,
        "postcode": null,
        "country": "Croatia",
        "country_code": "hr"
      },
      "address": "3229, Velika Kladuša, Federation of Bosnia and Herzegovina, Bosnia and Herzegovina"
    },
    {
      "lat": 45.159088102953206,
      "lon": 15.753984911225684,
      "geoinfo": {
        "display_name": "3258, Međedi, Grabarska, Općina Cetingrad, Karlovac County, 47222, Croatia",
        "road": "3258",
        "house_number": null,
        "neighbourhood": null,
        "suburb": null,
        "city_district": null,
        "city": "Grabarska",
        "state": null,
        "postcode": "47222",
        "country": "Croatia",
        "country_code": "hr"
      },
      "address": "3258, Velika Kladuša, Federation of Bosnia and Herzegovina, Bosnia and Herzegovina"
    },
    {
      "lat": 45.21476963106958,
      "lon": 15.761456387794873,
      "geoinfo": {
        "display_name": "D216, Vilin Križ, Široka Rijeka, Općina Vojnić, Karlovac County, Croatia",
        "road": "D216",
        "house_number": null,
        "neighbourhood": null,
        "suburb": null,
        "city_district": null,
        "city": "Široka Rijeka",
        "state": null,
        "postcode": null,
        "country": "Croatia",
        "country_code": "hr"
      },
      "address": "D216, Velika Kladuša, Federation of Bosnia and Herzegovina, Bosnia and Herzegovina"
    },
    {
      "lat": 45.14522851062979,
      "lon": 15.799538097651974,
      "geoinfo": {
        "display_name": "Šiljkovača, Velika Kladuša municipality, Una-Sana Canton, Federation of Bosnia and Herzegovina, 77230, Bosnia and Herzegovina",
        "road": null,
        "house_number": null,
        "neighbourhood": null,
        "suburb": null,
        "city_district": null,
        "city": "Šiljkovača",
        "state": "Federation of Bosnia and Herzegovina",
        "postcode": "77230",
        "country": "Bosnia and Herzegovina",
        "country_code": "ba"
      },
      "address": "286, Šiljkovača, Velika Kladuša municipality, Una-Sana Canton, Federation of Bosnia and Herzegovina, 77230, Bosnia and Herzegovina"
    },
    {
      "lat": 45.14841541047021,
      "lon": 15.814141565121579,
      "geoinfo": {
        "display_name": "Grahovići, Velika Kladuša municipality, Una-Sana Canton, Federation of Bosnia and Herzegovina, 77230, Bosnia and Herzegovina",
        "road": null,
        "house_number": null,
        "neighbourhood": null,
        "suburb": null,
        "city_district": null,
        "city": "Grahovići",
        "state": "Federation of Bosnia and Herzegovina",
        "postcode": "77230",
        "country": "Bosnia and Herzegovina",
        "country_code": "ba"
      },
      "address": "565, Grahovići, Velika Kladuša municipality, Una-Sana Canton, Federation of Bosnia and Herzegovina, 77230, Bosnia and Herzegovina"
    },
    {
      "lat": 45.191747584371114,
      "lon": 15.84135701041368,
      "geoinfo": {
        "display_name": "Klupe, Velika Kladuša municipality, Una-Sana Canton, Federation of Bosnia and Herzegovina, 77230, Bosnia and Herzegovina",
        "road": null,
        "house_number": null,
        "neighbourhood": null,
        "suburb": null,
        "city_district": null,
        "city": "Klupe",
        "state": "Federation of Bosnia and Herzegovina",
        "postcode": "77230",
        "country": "Bosnia and Herzegovina",
        "country_code": "ba"
      },
      "address": "992, Klupe, Velika Kladuša municipality, Una-Sana Canton, Federation of Bosnia and Herzegovina, 77230, Bosnia and Herzegovina"
    },
    {
      "lat": 45.16928673644159,
      "lon": 15.831471512309225,
      "geoinfo": {
        "display_name": "Polje, Velika Kladuša municipality, Una-Sana Canton, Federation of Bosnia and Herzegovina, 77230, Bosnia and Herzegovina",
        "road": null,
        "house_number": null,
        "neighbourhood": null,
        "suburb": null,
        "city_district": null,
        "city": "Polje",
        "state": "Federation of Bosnia and Herzegovina",
        "postcode": "77230",
        "country": "Bosnia and Herzegovina",
        "country_code": "ba"
      },
      "address": "679, Polje, Velika Kladuša municipality, Una-Sana Canton, Federation of Bosnia and Herzegovina, 77230, Bosnia and Herzegovina"
    },
    {
      "lat": 45.19356551391612,
      "lon": 15.809826465075071,
      "geoinfo": {
        "display_name": "Miljkovići, Velika Kladuša municipality, Una-Sana Canton, Federation of Bosnia and Herzegovina, Bosnia and Herzegovina",
        "road": null,
        "house_number": null,
        "neighbourhood": null,
        "suburb": null,
        "city_district": null,
        "city": "Miljkovići",
        "state": "Federation of Bosnia and Herzegovina",
        "postcode": null,
        "country": "Bosnia and Herzegovina",
        "country_code": "ba"
      },
      "address": "474, Miljkovići, Velika Kladuša municipality, Una-Sana Canton, 68354 Federation of Bosnia and Herzegovina, Bosnia and Herzegovina"
    }
  ],
  "updated_at": "2025-10-19T02:33:43.372479+00:00",
  "_kind": "geo_samples"
}