{
  "country_code": "DO",
  "country": "Dominican Republic",
  "city": "Bajos de Haina",
  "geonameid": 3512128,
  "target_addresses": 3,
  "samples": [
    {
      "lat": 18.42937884670016,
      "lon": -70.04471271617935,
      "geoinfo": {
        "display_name": "Carretera Francisco del Rosario Sánchez, Bajos de Haina, San Cristóbal, 92301, Dominican Republic",
        "road": "Carretera Francisco del Rosario Sánchez",
        "house_number": null,
        "neighbourhood": null,
        "suburb": null,
        "city_district": null,
        "city": "Bajos de Haina",
        "state": "San Cristóbal",
        "postcode": "92301",
        "country": "Dominican Republic",
        "country_code": "do"
      },
      "address": "Carretera Francisco del Rosario Sánchez, Bajos de Haina, San Cristóbal, Dominican Republic"
    },
    {
      "lat": 18.40318598627694,
      "lon": -70.0019521133899,
      "geoinfo": {
        "display_name": "Bajos de Haina, San Cristóbal, 92301, Dominican Republic",
        "road": null,
        "house_number": null,
        "neighbourhood": null,
        "suburb": null,
        "city_district": null,
        "city": "Bajos de Haina",
        "state": "San Cristóbal",
        "postcode": "92301",
        "country": "Dominican Republic",
        "country_code": "do"
      },
      "address": "Bajos de Haina, San Cristóbal, Dominican Republic"
    },
    {
      "lat": 18.408851973043667,
      "lon": -70.04337889635563,
      "geoinfo": {
        "display_name": "Acceso a Lubricantes Dominicanos, Bajos de Haina, San Cristóbal, 92301, Dominican Republic",
        "road": "Acceso a Lubricantes Dominicanos",
        "house_number": null,
        "neighbourhood": null,
        "suburb": null,
        "city_district": null,
        "city": "Bajos de Haina",
        "state": "San Cristóbal",
        "postcode": "92301",
        "country": "Dominican Republic",
        "country_code": "do"
      },
      "address": "Acceso a Lubricantes Dominicanos, Bajos de Haina, San Cristóbal, Dominican Republic"
    },
    {
      "lat": 18.37898800412251,
      "lon": -70.00755070538025,
      "geoinfo": {
        "display_name": "Itabo, Bajos de Haina, San Cristóbal, 92301, Dominican Republic",
        "road": null,
        "house_number": null,
        "neighbourhood": null,
        "suburb": null,
        "city_district": null,
        "city": "Itabo",
        "state": "San Cristóbal",
        "postcode": "92301",
        "country": "Dominican Republic",
        "country_code": "do"
      },
      "address": "089, Itabo, Bajos de Haina, San Cristóbal, 92301, Dominican Republic"
    },
    {
      "lat": 18.40371197901525,
      "lon": -70.03266127116422,
      "geoinfo": {
        "display_name": "Antigua Carretera Francisco del Rosario Sánchez, Itabo, Bajos de Haina, San Cristóbal, 92301, Dominican Republic",
        "road": "Antigua Carretera Francisco del Rosario Sánchez",
        "house_number": null,
        "neighbourhood": null,
        "suburb": null,
        "city_district": null,
        "city": "Itabo",
        "state": "San Cristóbal",
        "postcode": "92301",
        "country": "Dominican Republic",
        "country_code": "do"
      },
      "address": "319, Antigua Carretera Francisco del Rosario Sánchez, Itabo, Bajos de Haina, San Cristóbal, 92301, Dominican Republic"
    },
    {
      "lat": 18.448726210607628,
      "lon": -70.03898881952652,
      "geoinfo": {
        "display_name": "Avenida Florencio de León, El Caliche, La Pared, Bajos de Haina, San Cristóbal, 92301, Dominican Republic",
        "road": "Avenida Florencio de León",
        "house_number": null,
        "neighbourhood": null,
        "suburb": null,
        "city_district": null,
        "city": "La Pared",
        "state": "San Cristóbal",
        "postcode": "92301",
        "country": "Dominican Republic",
        "country_code": "do"
      },
      "address": "548, Avenida Florencio de León, El Caliche, La Pared, Bajos de Haina, San Cristóbal, 92301, Dominican Republic"
    }
  ],
  "updated_at": "2025-10-19T03:40:58.909166+00:00",
  "_kind": "geo_samples"
}