{
  "country_code": "DO",
  "country": "Dominican Republic",
  "city": "Bonao",
  "geonameid": 3511233,
  "target_addresses": 3,
  "samples": [
    {
      "lat": 18.963446908192648,
      "lon": -70.37732127977485,
      "geoinfo": {
        "display_name": "Bonao, Monseñor Nouel, 42000, Dominican Republic",
        "road": null,
        "house_number": null,
        "neighbourhood": null,
        "suburb": null,
        "city_district": null,
        "city": "Bonao",
        "state": "Monseñor Nouel",
        "postcode": "42000",
        "country": "Dominican Republic",
        "country_code": "do"
      },
      "address": "Bonao, Monseñor Nouel, Dominican Republic"
    },
    {
      "lat": 18.94601529980333,
      "lon": -70.38008508855587,
      "geoinfo": {
        "display_name": "Las Palmas, Bonao, Monseñor Nouel, 42002, Dominican Republic",
        "road": null,
        "house_number": null,
        "neighbourhood": "Las Palmas",
        "suburb": null,
        "city_district": null,
        "city": "Bonao",
        "state": "Monseñor Nouel",
        "postcode": "42002",
        "country": "Dominican Republic",
        "country_code": "do"
      },
      "address": "Las Palmas, Bonao, Monseñor Nouel, Dominican Republic"
    },
    {
      "lat": 18.909606262797976,
      "lon": -70.37965975305319,
      "geoinfo": {
        "display_name": "Autopista Duarte, San Isidro, Bonao, Monseñor Nouel, 42002, Dominican Republic",
        "road": "Autopista Duarte",
        "house_number": null,
        "neighbourhood": null,
        "suburb": null,
        "city_district": null,
        "city": "San Isidro",
        "state": "Monseñor Nouel",
        "postcode": "42002",
        "country": "Dominican Republic",
        "country_code": "do"
      },
      "address": "Autopista Duarte, Bonao, Monseñor Nouel, Dominican Republic"
    },
    {
      "lat": 18.944475347584646,
      "lon": -70.44651193620616,
      "geoinfo": {
        "display_name": "Juma Adentro, Bonao, Monseñor Nouel, 42002, Dominican Republic",
        "road": null,
        "house_number": null,
        "neighbourhood": null,
        "suburb": null,
        "city_district": null,
        "city": "Juma Adentro",
        "state": "Monseñor Nouel",
        "postcode": "42002",
        "country": "Dominican Republic",
        "country_code": "do"
      },
      "address": "711, Juma Adentro, Bonao, Monseñor Nouel, 42002, Dominican Republic"
    },
    {
      "lat": 18.958980624083132,
      "lon": -70.37379248082,
      "geoinfo": {
        "display_name": "Bonao, Monseñor Nouel, 42002, Dominican Republic",
        "road": null,
        "house_number": null,
        "neighbourhood": null,
        "suburb": null,
        "city_district": null,
        "city": "Bonao",
        "state": "Monseñor Nouel",
        "postcode": "42002",
        "country": "Dominican Republic",
        "country_code": "do"
      },
      "address": "963, Bonao, Monseñor Nouel, 42002, Dominican Republic"
    },
    {
      "lat": 18.95076211203954,
      "lon": -70.38282405827555,
      "geoinfo": {
        "display_name": "Las Palmas, Bonao, Monseñor Nouel, 42002, Dominican Republic",
        "road": null,
        "house_number": null,
        "neighbourhood": "Las Palmas",
        "suburb": null,
        "city_district": null,
        "city": "Bonao",
        "state": "Monseñor Nouel",
        "postcode": "42002",
        "country": "Dominican Republic",
        "country_code": "do"
      },
      "address": "502, Las Palmas, Bonao, Monseñor Nouel, 42002, Dominican Republic"
    }
  ],
  "updated_at": "2025-10-19T01:59:38.837306+00:00",
  "_kind": "geo_samples"
}