{
  "country_code": "DO",
  "country": "Dominican Republic",
  "city": "Cristo Rey",
  "geonameid": 3509183,
  "target_addresses": 3,
  "samples": [
    {
      "lat": 18.479644440767892,
      "lon": -69.95578579436496,
      "geoinfo": {
        "display_name": "Calle Juan Isidro Ortega, Gala, Santo Domingo, Santo Domingo de Guzm치n, Distrito Nacional, 03201, Dominican Republic",
        "road": "Calle Juan Isidro Ortega",
        "house_number": null,
        "neighbourhood": "Gala",
        "suburb": null,
        "city_district": null,
        "city": "Santo Domingo",
        "state": "Distrito Nacional",
        "postcode": "03201",
        "country": "Dominican Republic",
        "country_code": "do"
      },
      "address": "186, Calle Juan Isidro Ortega, Gala, Santo Domingo, Santo Domingo de Guzm치n, Distrito Nacional, 03201, Dominican Republic"
    },
    {
      "lat": 18.52561960118599,
      "lon": -69.91248633526733,
      "geoinfo": {
        "display_name": "16, Calle Universo, Villa Mella, Santo Domingo Norte, Santo Domingo, 11204, Dominican Republic",
        "road": "Calle Universo",
        "house_number": "16",
        "neighbourhood": null,
        "suburb": null,
        "city_district": null,
        "city": "Villa Mella",
        "state": "Santo Domingo",
        "postcode": "11204",
        "country": "Dominican Republic",
        "country_code": "do"
      },
      "address": "16, Calle Universo, Villa Mella, Santo Domingo Norte, Santo Domingo, 11204, Dominican Republic"
    },
    {
      "lat": 18.506173180834924,
      "lon": -69.94750767212747,
      "geoinfo": {
        "display_name": "Carretera La Isabela, Cuesta Hermosa I, Santo Domingo, Santo Domingo de Guzm치n, Distrito Nacional, 03201, Dominican Republic",
        "road": "Carretera La Isabela",
        "house_number": null,
        "neighbourhood": "Cuesta Hermosa I",
        "suburb": null,
        "city_district": null,
        "city": "Santo Domingo",
        "state": "Distrito Nacional",
        "postcode": "03201",
        "country": "Dominican Republic",
        "country_code": "do"
      },
      "address": "191, Carretera La Isabela, Cuesta Hermosa I, Santo Domingo, Santo Domingo de Guzm치n, Distrito Nacional, 03201, Dominican Republic"
    }
  ],
  "updated_at": "2025-10-19T01:59:17.211843+00:00",
  "_kind": "geo_samples"
}