{
  "country_code": "DO",
  "country": "Dominican Republic",
  "city": "Jarabacoa",
  "geonameid": 3504158,
  "target_addresses": 3,
  "samples": [
    {
      "lat": 19.153875005277133,
      "lon": -70.62151397956535,
      "geoinfo": {
        "display_name": "Jarabacoa, La Vega, 41200, Dominican Republic",
        "road": null,
        "house_number": null,
        "neighbourhood": null,
        "suburb": null,
        "city_district": null,
        "city": "Jarabacoa",
        "state": "La Vega",
        "postcode": "41200",
        "country": "Dominican Republic",
        "country_code": "do"
      },
      "address": "Jarabacoa, La Vega, Dominican Republic"
    },
    {
      "lat": 19.122682670237207,
      "lon": -70.6079918797782,
      "geoinfo": {
        "display_name": "Raúl Ruiz, Jarabacoa, La Vega, 41200, Dominican Republic",
        "road": null,
        "house_number": null,
        "neighbourhood": "Raúl Ruiz",
        "suburb": null,
        "city_district": null,
        "city": null,
        "state": "La Vega",
        "postcode": "41200",
        "country": "Dominican Republic",
        "country_code": "do"
      },
      "address": "Raúl Ruiz, Jarabacoa, La Vega, Dominican Republic"
    },
    {
      "lat": 19.140119943520734,
      "lon": -70.63608860612197,
      "geoinfo": {
        "display_name": "Los Corralitos, Jarabacoa, La Vega, 41200, Dominican Republic",
        "road": null,
        "house_number": null,
        "neighbourhood": "Los Corralitos",
        "suburb": null,
        "city_district": null,
        "city": "Jarabacoa",
        "state": "La Vega",
        "postcode": "41200",
        "country": "Dominican Republic",
        "country_code": "do"
      },
      "address": "Los Corralitos, Jarabacoa, La Vega, Dominican Republic"
    },
    {
      "lat": 19.122715604909274,
      "lon": -70.65349843635144,
      "geoinfo": {
        "display_name": "Negro, Jarabacoa, La Vega, 41200, Dominican Republic",
        "road": null,
        "house_number": null,
        "neighbourhood": "Negro",
        "suburb": null,
        "city_district": null,
        "city": "Jarabacoa",
        "state": "La Vega",
        "postcode": "41200",
        "country": "Dominican Republic",
        "country_code": "do"
      },
      "address": "861, Negro, Jarabacoa, La Vega, 41200, Dominican Republic"
    },
    {
      "lat": 19.130545619093624,
      "lon": -70.6692021595973,
      "geoinfo": {
        "display_name": "Jarabacoa, La Vega, 41200, Dominican Republic",
        "road": null,
        "house_number": null,
        "neighbourhood": null,
        "suburb": null,
        "city_district": null,
        "city": "Jarabacoa",
        "state": "La Vega",
        "postcode": "41200",
        "country": "Dominican Republic",
        "country_code": "do"
      },
      "address": "681, Jarabacoa, La Vega, 41200, Dominican Republic"
    },
    {
      "lat": 19.10150043788628,
      "lon": -70.63877735933075,
      "geoinfo": {
        "display_name": "Rescate 94, Jarabacoa, La Vega, 41200, Dominican Republic",
        "road": null,
        "house_number": null,
        "neighbourhood": "Rescate 94",
        "suburb": null,
        "city_district": null,
        "city": "Jarabacoa",
        "state": "La Vega",
        "postcode": "41200",
        "country": "Dominican Republic",
        "country_code": "do"
      },
      "address": "Rescate 94, Jarabacoa, La Vega, 41200, Dominican Republic"
    }
  ],
  "updated_at": "2025-10-19T03:40:35.553164+00:00",
  "_kind": "geo_samples"
}