{
  "country_code": "DO",
  "country": "Dominican Republic",
  "city": "La Romana",
  "geonameid": 3500957,
  "target_addresses": 3,
  "samples": [
    {
      "lat": 18.399399752314817,
      "lon": -68.9691915191372,
      "geoinfo": {
        "display_name": "Area de Interiores, Residencial Melissa, Caleta, La Romana, 41302, Dominican Republic",
        "road": null,
        "house_number": null,
        "neighbourhood": "Residencial Melissa",
        "suburb": null,
        "city_district": null,
        "city": "La Romana",
        "state": "La Romana",
        "postcode": "41302",
        "country": "Dominican Republic",
        "country_code": "do"
      },
      "address": "Residencial Melissa, La Romana, La Romana, Dominican Republic"
    },
    {
      "lat": 18.457015975407987,
      "lon": -68.9582771668734,
      "geoinfo": {
        "display_name": "La Romana, 41302, Dominican Republic",
        "road": null,
        "house_number": null,
        "neighbourhood": null,
        "suburb": null,
        "city_district": null,
        "city": "La Romana",
        "state": "La Romana",
        "postcode": "41302",
        "country": "Dominican Republic",
        "country_code": "do"
      },
      "address": "La Romana, La Romana, Dominican Republic"
    },
    {
      "lat": 18.436691361640683,
      "lon": -69.0010428546792,
      "geoinfo": {
        "display_name": "Calle 3ra, Urbanización Torres, Villa Hermosa, La Romana, 41303, Dominican Republic",
        "road": "Calle 3ra",
        "house_number": null,
        "neighbourhood": "Urbanización Torres",
        "suburb": null,
        "city_district": null,
        "city": "Villa Hermosa",
        "state": "La Romana",
        "postcode": "41303",
        "country": "Dominican Republic",
        "country_code": "do"
      },
      "address": "Calle 3ra, La Romana, La Romana, Dominican Republic"
    },
    {
      "lat": 18.401891672677888,
      "lon": -68.96331473499771,
      "geoinfo": {
        "display_name": "Area de Interiores, Residencial Melissa, Caleta, La Romana, 41302, Dominican Republic",
        "road": null,
        "house_number": null,
        "neighbourhood": "Residencial Melissa",
        "suburb": null,
        "city_district": null,
        "city": "La Romana",
        "state": "La Romana",
        "postcode": "41302",
        "country": "Dominican Republic",
        "country_code": "do"
      },
      "address": "403, Area de Interiores, Residencial Melissa, Caleta, La Romana, 41302, Dominican Republic"
    },
    {
      "lat": 18.40970344426475,
      "lon": -68.92814304329836,
      "geoinfo": {
        "display_name": "Calle Golf Villas VII, Golf Villas VII, Casa de Campo, La Romana, 22000, Dominican Republic",
        "road": "Calle Golf Villas VII",
        "house_number": null,
        "neighbourhood": "Golf Villas VII",
        "suburb": null,
        "city_district": null,
        "city": "La Romana",
        "state": "La Romana",
        "postcode": "22000",
        "country": "Dominican Republic",
        "country_code": "do"
      },
      "address": "096, Calle Golf Villas VII, Golf Villas VII, Casa de Campo, La Romana, 22000, Dominican Republic"
    },
    {
      "lat": 18.42570468859948,
      "lon": -68.93792421089888,
      "geoinfo": {
        "display_name": "Calle La Catalina 1, La Catalina, Casa de Campo, La Romana, 22000, Dominican Republic",
        "road": "Calle La Catalina 1",
        "house_number": null,
        "neighbourhood": "La Catalina",
        "suburb": null,
        "city_district": null,
        "city": "La Romana",
        "state": "La Romana",
        "postcode": "22000",
        "country": "Dominican Republic",
        "country_code": "do"
      },
      "address": "Calle La Catalina 1, La Catalina, Casa de Campo, La Romana, 22000, Dominican Republic"
    }
  ],
  "updated_at": "2025-10-19T04:32:50.232227+00:00",
  "_kind": "geo_samples"
}