{
  "country_code": "DO",
  "country": "Dominican Republic",
  "city": "Las Matas de Farfán",
  "geonameid": 3500370,
  "target_addresses": 11,
  "samples": [
    {
      "lat": 18.90821644530793,
      "lon": -71.50612763070284,
      "geoinfo": {
        "display_name": "Las Matas de Farfán, San Juan, 12504, Dominican Republic",
        "road": null,
        "house_number": null,
        "neighbourhood": null,
        "suburb": null,
        "city_district": null,
        "city": "Las Matas de Farfán",
        "state": "San Juan",
        "postcode": "12504",
        "country": "Dominican Republic",
        "country_code": "do"
      },
      "address": "Las Matas de Farfán, San Juan, Dominican Republic"
    },
    {
      "lat": 18.885322786430297,
      "lon": -71.52148374709536,
      "geoinfo": {
        "display_name": "Calle K, La Cruz, Las Matas de Farfán, San Juan, 12504, Dominican Republic",
        "road": "Calle K",
        "house_number": null,
        "neighbourhood": "La Cruz",
        "suburb": null,
        "city_district": null,
        "city": "Las Matas de Farfán",
        "state": "San Juan",
        "postcode": "12504",
        "country": "Dominican Republic",
        "country_code": "do"
      },
      "address": "Calle K, Las Matas de Farfán, San Juan, Dominican Republic"
    },
    {
      "lat": 18.851290195871368,
      "lon": -71.5226557119818,
      "geoinfo": {
        "display_name": "Carretera Las Matas de Farfán - El Cercado, La Rancha, Las Matas de Farfán, El Cercado, San Juan, Dominican Republic",
        "road": "Carretera Las Matas de Farfán - El Cercado",
        "house_number": null,
        "neighbourhood": null,
        "suburb": null,
        "city_district": null,
        "city": "Las Matas de Farfán",
        "state": "San Juan",
        "postcode": null,
        "country": "Dominican Republic",
        "country_code": "do"
      },
      "address": "Carretera Las Matas de Farfán - El Cercado, Las Matas de Farfán, San Juan, Dominican Republic"
    },
    {
      "lat": 18.900410204643322,
      "lon": -71.5226556374768,
      "geoinfo": {
        "display_name": "Las Matas de Farfán, San Juan, 12504, Dominican Republic",
        "road": null,
        "house_number": null,
        "neighbourhood": null,
        "suburb": null,
        "city_district": null,
        "city": "Las Matas de Farfán",
        "state": "San Juan",
        "postcode": "12504",
        "country": "Dominican Republic",
        "country_code": "do"
      },
      "address": "594, Las Matas de Farfán, San Juan, 12504, Dominican Republic"
    },
    {
      "lat": 18.889770124069937,
      "lon": -71.53261776700681,
      "geoinfo": {
        "display_name": "Las Matas de Farfán, San Juan, 72000, Dominican Republic",
        "road": null,
        "house_number": null,
        "neighbourhood": null,
        "suburb": null,
        "city_district": null,
        "city": "Las Matas de Farfán",
        "state": "San Juan",
        "postcode": "72000",
        "country": "Dominican Republic",
        "country_code": "do"
      },
      "address": "395, Las Matas de Farfán, San Juan, 72000, Dominican Republic"
    },
    {
      "lat": 18.895328755188043,
      "lon": -71.52057877038844,
      "geoinfo": {
        "display_name": "La Cruz, Las Matas de Farfán, San Juan, 72000, Dominican Republic",
        "road": null,
        "house_number": null,
        "neighbourhood": "La Cruz",
        "suburb": null,
        "city_district": null,
        "city": "Las Matas de Farfán",
        "state": "San Juan",
        "postcode": "72000",
        "country": "Dominican Republic",
        "country_code": "do"
      },
      "address": "972, La Cruz, Las Matas de Farfán, San Juan, 72000, Dominican Republic"
    },
    {
      "lat": 18.840155325606002,
      "lon": -71.52898856637881,
      "geoinfo": {
        "display_name": "Las Matas de Farfán, San Juan, 72000, Dominican Republic",
        "road": null,
        "house_number": null,
        "neighbourhood": null,
        "suburb": null,
        "city_district": null,
        "city": "Las Matas de Farfán",
        "state": "San Juan",
        "postcode": "72000",
        "country": "Dominican Republic",
        "country_code": "do"
      },
      "address": "281, Las Matas de Farfán, San Juan, 72000, Dominican Republic"
    },
    {
      "lat": 18.880910074085236,
      "lon": -71.49732960560563,
      "geoinfo": {
        "display_name": "Las Matas de Farfán, San Juan, 72000, Dominican Republic",
        "road": null,
        "house_number": null,
        "neighbourhood": null,
        "suburb": null,
        "city_district": null,
        "city": "Las Matas de Farfán",
        "state": "San Juan",
        "postcode": "72000",
        "country": "Dominican Republic",
        "country_code": "do"
      },
      "address": "306, Las Matas de Farfán, San Juan, 72000, Dominican Republic"
    },
    {
      "lat": 18.84633204091458,
      "lon": -71.54911110661497,
      "geoinfo": {
        "display_name": "El Cajuil, Las Matas de Farfán, San Juan, 72000, Dominican Republic",
        "road": null,
        "house_number": null,
        "neighbourhood": "El Cajuil",
        "suburb": null,
        "city_district": null,
        "city": "Las Matas de Farfán",
        "state": "San Juan",
        "postcode": "72000",
        "country": "Dominican Republic",
        "country_code": "do"
      },
      "address": "241, El Cajuil, Las Matas de Farfán, San Juan, 72000, Dominican Republic"
    },
    {
      "lat": 18.895303793189665,
      "lon": -71.48101211894175,
      "geoinfo": {
        "display_name": "Las Matas de Farfán, San Juan, Dominican Republic",
        "road": null,
        "house_number": null,
        "neighbourhood": null,
        "suburb": null,
        "city_district": null,
        "city": "Las Matas de Farfán",
        "state": "San Juan",
        "postcode": null,
        "country": "Dominican Republic",
        "country_code": "do"
      },
      "address": "313, Las Matas de Farfán, 63375 San Juan, Dominican Republic"
    },
    {
      "lat": 18.881137720372593,
      "lon": -71.51118512796698,
      "geoinfo": {
        "display_name": "Los Cartones, Las Matas de Farfán, San Juan, 72000, Dominican Republic",
        "road": null,
        "house_number": null,
        "neighbourhood": "Los Cartones",
        "suburb": null,
        "city_district": null,
        "city": "Las Matas de Farfán",
        "state": "San Juan",
        "postcode": "72000",
        "country": "Dominican Republic",
        "country_code": "do"
      },
      "address": "321, Los Cartones, Las Matas de Farfán, San Juan, 72000, Dominican Republic"
    }
  ],
  "updated_at": "2025-10-19T04:10:37.074538+00:00",
  "_kind": "geo_samples"
}