{
  "country_code": "DO",
  "country": "Dominican Republic",
  "city": "Nagua",
  "geonameid": 3496021,
  "target_addresses": 3,
  "samples": [
    {
      "lat": 19.37037039281058,
      "lon": -69.86098826664099,
      "geoinfo": {
        "display_name": "Quisqueyano, Nagua, María Trinidad Sánchez, Dominican Republic",
        "road": null,
        "house_number": null,
        "neighbourhood": "Quisqueyano",
        "suburb": null,
        "city_district": null,
        "city": "Nagua",
        "state": "María Trinidad Sánchez",
        "postcode": null,
        "country": "Dominican Republic",
        "country_code": "do"
      },
      "address": "Quisqueyano, Nagua, María Trinidad Sánchez, Dominican Republic"
    },
    {
      "lat": 19.360015113433104,
      "lon": -69.84057896968949,
      "geoinfo": {
        "display_name": "Camino La Marga, Río Mar, Nagua, María Trinidad Sánchez, Dominican Republic",
        "road": "Camino La Marga",
        "house_number": null,
        "neighbourhood": "Río Mar",
        "suburb": null,
        "city_district": null,
        "city": "Nagua",
        "state": "María Trinidad Sánchez",
        "postcode": null,
        "country": "Dominican Republic",
        "country_code": "do"
      },
      "address": "Camino La Marga, Nagua, María Trinidad Sánchez, Dominican Republic"
    },
    {
      "lat": 19.350086316891776,
      "lon": -69.87637681384129,
      "geoinfo": {
        "display_name": "José Lucas, Residencial Vista del Atlántico, Nagua, María Trinidad Sánchez, Dominican Republic",
        "road": null,
        "house_number": null,
        "neighbourhood": "José Lucas",
        "suburb": null,
        "city_district": null,
        "city": "Nagua",
        "state": "María Trinidad Sánchez",
        "postcode": null,
        "country": "Dominican Republic",
        "country_code": "do"
      },
      "address": "José Lucas, Nagua, María Trinidad Sánchez, Dominican Republic"
    }
  ],
  "updated_at": "2025-10-16T13:01:50.881775+00:00",
  "_kind": "geo_samples"
}