{
  "country_code": "DO",
  "country": "Dominican Republic",
  "city": "Salvaleón de Higüey",
  "geonameid": 3493240,
  "target_addresses": 11,
  "samples": [
    {
      "lat": 18.61842137141219,
      "lon": -68.73414887691025,
      "geoinfo": {
        "display_name": "Avenida Monte Santa María, Monte Santa María, Higüey, La Altagracia, Dominican Republic",
        "road": "Avenida Monte Santa María",
        "house_number": null,
        "neighbourhood": "Monte Santa María",
        "suburb": null,
        "city_district": null,
        "city": "Higüey",
        "state": "La Altagracia",
        "postcode": null,
        "country": "Dominican Republic",
        "country_code": "do"
      },
      "address": "Avenida Monte Santa María, Salvaleón de Higüey, La Altagracia, Dominican Republic"
    },
    {
      "lat": 18.648802719587543,
      "lon": -68.68861978405984,
      "geoinfo": {
        "display_name": "Higüey, La Altagracia, Dominican Republic",
        "road": null,
        "house_number": null,
        "neighbourhood": null,
        "suburb": null,
        "city_district": null,
        "city": "Higüey",
        "state": "La Altagracia",
        "postcode": null,
        "country": "Dominican Republic",
        "country_code": "do"
      },
      "address": "Salvaleón de Higüey, La Altagracia, Dominican Republic"
    },
    {
      "lat": 18.595515372666714,
      "lon": -68.70297768527676,
      "geoinfo": {
        "display_name": "Pepe Santana, La Cabrera, La Malena, Higüey, La Altagracia, Dominican Republic",
        "road": "Pepe Santana",
        "house_number": null,
        "neighbourhood": "La Cabrera",
        "suburb": null,
        "city_district": null,
        "city": "Higüey",
        "state": "La Altagracia",
        "postcode": null,
        "country": "Dominican Republic",
        "country_code": "do"
      },
      "address": "Pepe Santana, Salvaleón de Higüey, La Altagracia, Dominican Republic"
    },
    {
      "lat": 18.588689349657418,
      "lon": -68.69063496277306,
      "geoinfo": {
        "display_name": "Haití Chiquito, La Malena, Higüey, La Altagracia, Dominican Republic",
        "road": null,
        "house_number": null,
        "neighbourhood": "Haití Chiquito",
        "suburb": null,
        "city_district": null,
        "city": "Higüey",
        "state": "La Altagracia",
        "postcode": null,
        "country": "Dominican Republic",
        "country_code": "do"
      },
      "address": "966, Haití Chiquito, La Malena, Higüey, 27673 La Altagracia, Dominican Republic"
    },
    {
      "lat": 18.65157057519716,
      "lon": -68.73186571015663,
      "geoinfo": {
        "display_name": "Villa Cerro, Higüey, La Altagracia, Dominican Republic",
        "road": null,
        "house_number": null,
        "neighbourhood": null,
        "suburb": "Villa Cerro",
        "city_district": null,
        "city": "Higüey",
        "state": "La Altagracia",
        "postcode": null,
        "country": "Dominican Republic",
        "country_code": "do"
      },
      "address": "472, Villa Cerro, Higüey, 89543 La Altagracia, Dominican Republic"
    },
    {
      "lat": 18.641415626058446,
      "lon": -68.72681944853832,
      "geoinfo": {
        "display_name": "Villa Cerro, Higüey, La Altagracia, Dominican Republic",
        "road": null,
        "house_number": null,
        "neighbourhood": null,
        "suburb": "Villa Cerro",
        "city_district": null,
        "city": "Higüey",
        "state": "La Altagracia",
        "postcode": null,
        "country": "Dominican Republic",
        "country_code": "do"
      },
      "address": "790, Villa Cerro, Higüey, 60414 La Altagracia, Dominican Republic"
    },
    {
      "lat": 18.61461260815829,
      "lon": -68.73005403874878,
      "geoinfo": {
        "display_name": "Calle 8 de Marzo, Sajour, Higüey, La Altagracia, Dominican Republic",
        "road": "Calle 8 de Marzo",
        "house_number": null,
        "neighbourhood": "Sajour",
        "suburb": null,
        "city_district": null,
        "city": "Higüey",
        "state": "La Altagracia",
        "postcode": null,
        "country": "Dominican Republic",
        "country_code": "do"
      },
      "address": "Calle 8 de Marzo, Sajour, Higüey, 19479 La Altagracia, Dominican Republic"
    },
    {
      "lat": 18.577736621372033,
      "lon": -68.72503666330394,
      "geoinfo": {
        "display_name": "La Malena, Higüey, La Altagracia, Dominican Republic",
        "road": null,
        "house_number": null,
        "neighbourhood": null,
        "suburb": null,
        "city_district": null,
        "city": "Higüey",
        "state": "La Altagracia",
        "postcode": null,
        "country": "Dominican Republic",
        "country_code": "do"
      },
      "address": "174, La Malena, Higüey, 48301 La Altagracia, Dominican Republic"
    },
    {
      "lat": 18.655089150976707,
      "lon": -68.70084768816317,
      "geoinfo": {
        "display_name": "Villa Cerro, Higüey, La Altagracia, Dominican Republic",
        "road": null,
        "house_number": null,
        "neighbourhood": null,
        "suburb": "Villa Cerro",
        "city_district": null,
        "city": "Higüey",
        "state": "La Altagracia",
        "postcode": null,
        "country": "Dominican Republic",
        "country_code": "do"
      },
      "address": "288, Villa Cerro, Higüey, 77341 La Altagracia, Dominican Republic"
    },
    {
      "lat": 18.6001791588266,
      "lon": -68.67390159473604,
      "geoinfo": {
        "display_name": "La Malena, Higüey, La Altagracia, Dominican Republic",
        "road": null,
        "house_number": null,
        "neighbourhood": null,
        "suburb": null,
        "city_district": null,
        "city": "Higüey",
        "state": "La Altagracia",
        "postcode": null,
        "country": "Dominican Republic",
        "country_code": "do"
      },
      "address": "901, La Malena, Higüey, 87213 La Altagracia, Dominican Republic"
    },
    {
      "lat": 18.608550407194496,
      "lon": -68.7330204887965,
      "geoinfo": {
        "display_name": "Luisa Perla II, Higüey, La Altagracia, Dominican Republic",
        "road": null,
        "house_number": null,
        "neighbourhood": "Luisa Perla II",
        "suburb": null,
        "city_district": null,
        "city": "Higüey",
        "state": "La Altagracia",
        "postcode": null,
        "country": "Dominican Republic",
        "country_code": "do"
      },
      "address": "597, Luisa Perla II, Higüey, 22155 La Altagracia, Dominican Republic"
    }
  ],
  "updated_at": "2025-10-19T04:09:58.011460+00:00",
  "_kind": "geo_samples"
}