{
  "country_code": "DO",
  "country": "Dominican Republic",
  "city": "Santo Domingo Oeste",
  "geonameid": 7874116,
  "target_addresses": 3,
  "samples": [
    {
      "lat": 18.468497201396836,
      "lon": -70.02113660767553,
      "geoinfo": {
        "display_name": "Hato Nuevo de Manoguayabo, Santo Domingo Oeste, Santo Domingo, 03008, Dominican Republic",
        "road": null,
        "house_number": null,
        "neighbourhood": null,
        "suburb": null,
        "city_district": null,
        "city": "Santo Domingo Oeste",
        "state": "Santo Domingo",
        "postcode": "03008",
        "country": "Dominican Republic",
        "country_code": "do"
      },
      "address": "Santo Domingo Oeste, Santo Domingo, Dominican Republic"
    },
    {
      "lat": 18.494370172372154,
      "lon": -70.02064229078412,
      "geoinfo": {
        "display_name": "Calle Los Claveles, Hato Nuevo de Manoguayabo, Santo Domingo Oeste, Santo Domingo, 03008, Dominican Republic",
        "road": "Calle Los Claveles",
        "house_number": null,
        "neighbourhood": null,
        "suburb": null,
        "city_district": null,
        "city": "Santo Domingo Oeste",
        "state": "Santo Domingo",
        "postcode": "03008",
        "country": "Dominican Republic",
        "country_code": "do"
      },
      "address": "Calle Los Claveles, Santo Domingo Oeste, Santo Domingo, Dominican Republic"
    },
    {
      "lat": 18.51503567126275,
      "lon": -70.03690831736733,
      "geoinfo": {
        "display_name": "Calle 17, Barrio 24 de Abril, Palmarejo-Villa Linda, Los Alcarrizos, Santo Domingo, 03003, Dominican Republic",
        "road": "Calle 17",
        "house_number": null,
        "neighbourhood": "Barrio 24 de Abril",
        "suburb": null,
        "city_district": null,
        "city": "Palmarejo-Villa Linda",
        "state": "Santo Domingo",
        "postcode": "03003",
        "country": "Dominican Republic",
        "country_code": "do"
      },
      "address": "Calle 17, Santo Domingo Oeste, Santo Domingo, Dominican Republic"
    },
    {
      "lat": 18.523506648265286,
      "lon": -69.9874015078421,
      "geoinfo": {
        "display_name": "Calle Las Flores, Palma Real, Santo Domingo de Guzmán, Distrito Nacional, 03201, Dominican Republic",
        "road": "Calle Las Flores",
        "house_number": null,
        "neighbourhood": "Palma Real",
        "suburb": null,
        "city_district": null,
        "city": null,
        "state": "Distrito Nacional",
        "postcode": "03201",
        "country": "Dominican Republic",
        "country_code": "do"
      },
      "address": "324, Calle Las Flores, Palma Real, Santo Domingo de Guzmán, Distrito Nacional, 03201, Dominican Republic"
    },
    {
      "lat": 18.466756628321633,
      "lon": -70.02181783218393,
      "geoinfo": {
        "display_name": "El Carril, Bajos de Haina, San Cristóbal, 92301, Dominican Republic",
        "road": null,
        "house_number": null,
        "neighbourhood": null,
        "suburb": null,
        "city_district": null,
        "city": "El Carril",
        "state": "San Cristóbal",
        "postcode": "92301",
        "country": "Dominican Republic",
        "country_code": "do"
      },
      "address": "336, El Carril, Bajos de Haina, San Cristóbal, 92301, Dominican Republic"
    },
    {
      "lat": 18.460643868688987,
      "lon": -70.01236957804672,
      "geoinfo": {
        "display_name": "El Cielo, Hato Nuevo de Manoguayabo, Santo Domingo Oeste, Santo Domingo, 03008, Dominican Republic",
        "road": null,
        "house_number": null,
        "neighbourhood": "El Cielo",
        "suburb": null,
        "city_district": null,
        "city": "Santo Domingo Oeste",
        "state": "Santo Domingo",
        "postcode": "03008",
        "country": "Dominican Republic",
        "country_code": "do"
      },
      "address": "951, El Cielo, Hato Nuevo de Manoguayabo, Santo Domingo Oeste, Santo Domingo, 03008, Dominican Republic"
    }
  ],
  "updated_at": "2025-10-19T03:46:01.954010+00:00",
  "_kind": "geo_samples"
}