{
  "country_code": "DO",
  "country": "Dominican Republic",
  "city": "Santa Cruz de El Seibo",
  "geonameid": 3492984,
  "target_addresses": 3,
  "samples": [
    {
      "lat": 18.769926805680164,
      "lon": -69.04455724810772,
      "geoinfo": {
        "display_name": "Martina de Castro, Mirador Sur, El Seibo, 40601, Dominican Republic",
        "road": "Martina de Castro",
        "house_number": null,
        "neighbourhood": "Mirador Sur",
        "suburb": null,
        "city_district": null,
        "city": "El Seibo",
        "state": "El Seibo",
        "postcode": "40601",
        "country": "Dominican Republic",
        "country_code": "do"
      },
      "address": "Martina de Castro, Santa Cruz de El Seibo, El Seibo, Dominican Republic"
    },
    {
      "lat": 18.790557034894704,
      "lon": -69.02765276967692,
      "geoinfo": {
        "display_name": "Camino Arroyo Grande, Capitán, El Seibo, 40601, Dominican Republic",
        "road": "Camino Arroyo Grande",
        "house_number": null,
        "neighbourhood": null,
        "suburb": null,
        "city_district": null,
        "city": "El Seibo",
        "state": "El Seibo",
        "postcode": "40601",
        "country": "Dominican Republic",
        "country_code": "do"
      },
      "address": "Camino Arroyo Grande, Santa Cruz de El Seibo, El Seibo, Dominican Republic"
    },
    {
      "lat": 18.76810654170588,
      "lon": -69.05432492492203,
      "geoinfo": {
        "display_name": "Tienda Zaglul, Hato Mayor - El Seibo, Villa Progreso, El Seibo, 40601, Dominican Republic",
        "road": "Hato Mayor - El Seibo",
        "house_number": null,
        "neighbourhood": "Villa Progreso",
        "suburb": null,
        "city_district": null,
        "city": "El Seibo",
        "state": "El Seibo",
        "postcode": "40601",
        "country": "Dominican Republic",
        "country_code": "do"
      },
      "address": "Hato Mayor - El Seibo, Santa Cruz de El Seibo, El Seibo, Dominican Republic"
    },
    {
      "lat": 18.785315958229265,
      "lon": -69.08205372431974,
      "geoinfo": {
        "display_name": "El Seibo, 40601, Dominican Republic",
        "road": null,
        "house_number": null,
        "neighbourhood": null,
        "suburb": null,
        "city_district": null,
        "city": "El Seibo",
        "state": "El Seibo",
        "postcode": "40601",
        "country": "Dominican Republic",
        "country_code": "do"
      },
      "address": "687, El Seibo, 40601, Dominican Republic"
    },
    {
      "lat": 18.801687654972476,
      "lon": -69.02546639126462,
      "geoinfo": {
        "display_name": "Camino Arroyo Grande, Capitán, El Seibo, 40601, Dominican Republic",
        "road": "Camino Arroyo Grande",
        "house_number": null,
        "neighbourhood": null,
        "suburb": null,
        "city_district": null,
        "city": "El Seibo",
        "state": "El Seibo",
        "postcode": "40601",
        "country": "Dominican Republic",
        "country_code": "do"
      },
      "address": "931, Camino Arroyo Grande, Capitán, El Seibo, 40601, Dominican Republic"
    },
    {
      "lat": 18.777117406104896,
      "lon": -69.07532842510571,
      "geoinfo": {
        "display_name": "El Seibo, 40601, Dominican Republic",
        "road": null,
        "house_number": null,
        "neighbourhood": null,
        "suburb": null,
        "city_district": null,
        "city": "El Seibo",
        "state": "El Seibo",
        "postcode": "40601",
        "country": "Dominican Republic",
        "country_code": "do"
      },
      "address": "107, El Seibo, 40601, Dominican Republic"
    }
  ],
  "updated_at": "2025-10-19T02:18:17.005837+00:00",
  "_kind": "geo_samples"
}