{
  "country_code": "SM",
  "country": "San Marino",
  "city": "San Marino",
  "geonameid": 3168070,
  "target_addresses": 300,
  "samples": [
    {
      "lat": 43.919399643136714,
      "lon": 12.435381467318889,
      "geoinfo": {
        "display_name": "36f, Strada Monte Diodato, Casole, Murata, City of San Marino, 47890, San Marino",
        "road": "Strada Monte Diodato",
        "house_number": "36f",
        "neighbourhood": null,
        "suburb": null,
        "city_district": null,
        "city": "City of San Marino",
        "state": null,
        "postcode": "47890",
        "country": "San Marino",
        "country_code": "sm"
      },
      "address": "36f Strada Monte Diodato, San Marino, San Marino"
    },
    {
      "lat": 43.92169430394175,
      "lon": 12.468895000850297,
      "geoinfo": {
        "display_name": "Maiano, Borgo Maggiore, 47898, San Marino",
        "road": null,
        "house_number": null,
        "neighbourhood": null,
        "suburb": null,
        "city_district": null,
        "city": "Borgo Maggiore",
        "state": null,
        "postcode": "47898",
        "country": "San Marino",
        "country_code": "sm"
      },
      "address": "San Marino, Emilia-Romagna, San Marino"
    },
    {
      "lat": 43.975313194174014,
      "lon": 12.452774911663639,
      "geoinfo": {
        "display_name": "SP32, Verucchio, Unione di comuni Valmarecchia, Rimini, Emilia-Romagna, 47826, Italy",
        "road": "SP32",
        "house_number": null,
        "neighbourhood": null,
        "suburb": null,
        "city_district": null,
        "city": "Verucchio",
        "state": "Emilia-Romagna",
        "postcode": "47826",
        "country": "Italy",
        "country_code": "it"
      },
      "address": "SP32, San Marino, Emilia-Romagna, San Marino"
    },
    {
      "lat": 43.9745490783921,
      "lon": 12.44578409605131,
      "geoinfo": {
        "display_name": "Sentiero V3, Verucchio, Unione di comuni Valmarecchia, Rimini, Emilia-Romagna, 47826, Italy",
        "road": "Sentiero V3",
        "house_number": null,
        "neighbourhood": null,
        "suburb": null,
        "city_district": null,
        "city": "Verucchio",
        "state": "Emilia-Romagna",
        "postcode": "47826",
        "country": "Italy",
        "country_code": "it"
      },
      "address": "Sentiero V3, San Marino, Emilia-Romagna, San Marino"
    },
    {
      "lat": 43.90425406220234,
      "lon": 12.404213874278634,
      "geoinfo": {
        "display_name": "SP89, Pieve Corena, Verucchio, Unione di comuni Valmarecchia, Rimini, Emilia-Romagna, 47894, Italy",
        "road": "SP89",
        "house_number": null,
        "neighbourhood": null,
        "suburb": null,
        "city_district": null,
        "city": "Verucchio",
        "state": "Emilia-Romagna",
        "postcode": "47894",
        "country": "Italy",
        "country_code": "it"
      },
      "address": "SP89, San Marino, Emilia-Romagna, San Marino"
    },
    {
      "lat": 43.91017459667664,
      "lon": 12.495180927883686,
      "geoinfo": {
        "display_name": "Strada del Poggio, Poggio, Montegiardino, 47898, San Marino",
        "road": "Strada del Poggio",
        "house_number": null,
        "neighbourhood": null,
        "suburb": null,
        "city_district": null,
        "city": "Montegiardino",
        "state": null,
        "postcode": "47898",
        "country": "San Marino",
        "country_code": "sm"
      },
      "address": "Strada del Poggio, San Marino, Emilia-Romagna, San Marino"
    },
    {
      "lat": 43.952923305910495,
      "lon": 12.43461765494699,
      "geoinfo": {
        "display_name": "Strada vicinale, Gaviano, Acquaviva, 47892, San Marino",
        "road": "Strada vicinale",
        "house_number": null,
        "neighbourhood": null,
        "suburb": null,
        "city_district": null,
        "city": "Acquaviva",
        "state": null,
        "postcode": "47892",
        "country": "San Marino",
        "country_code": "sm"
      },
      "address": "Strada vicinale, San Marino, Emilia-Romagna, San Marino"
    },
    {
      "lat": 43.90885425144928,
      "lon": 12.488238287647428,
      "geoinfo": {
        "display_name": "31, Strada del Poggio, Poggio, Montegiardino, 47898, San Marino",
        "road": "Strada del Poggio",
        "house_number": "31",
        "neighbourhood": null,
        "suburb": null,
        "city_district": null,
        "city": "Montegiardino",
        "state": null,
        "postcode": "47898",
        "country": "San Marino",
        "country_code": "sm"
      },
      "address": "31 Strada del Poggio, San Marino, Emilia-Romagna, San Marino"
    },
    {
      "lat": 43.92273566484746,
      "lon": 12.415548833139363,
      "geoinfo": {
        "display_name": "Strada del Lavoro, Poggio Casalino, Chiesanuova, 47894, San Marino",
        "road": "Strada del Lavoro",
        "house_number": null,
        "neighbourhood": null,
        "suburb": null,
        "city_district": null,
        "city": "Chiesanuova",
        "state": null,
        "postcode": "47894",
        "country": "San Marino",
        "country_code": "sm"
      },
      "address": "379, Strada del Lavoro, 47894 San Marino, San Marino"
    },
    {
      "lat": 43.91890153463911,
      "lon": 12.446735271353198,
      "geoinfo": {
        "display_name": "29, Via la Viviana, Ghiandaio, Murata, City of San Marino, 47890, San Marino",
        "road": "Via la Viviana",
        "house_number": "29",
        "neighbourhood": null,
        "suburb": null,
        "city_district": null,
        "city": "City of San Marino",
        "state": null,
        "postcode": "47890",
        "country": "San Marino",
        "country_code": "sm"
      },
      "address": "29, Via la Viviana, Ghiandaio, Murata, City of San Marino, 47890, San Marino"
    },
    {
      "lat": 43.96719614084573,
      "lon": 12.48097331667403,
      "geoinfo": {
        "display_name": "75, Via Marino Moretti, Olivella, Serravalle, 47899, San Marino",
        "road": "Via Marino Moretti",
        "house_number": "75",
        "neighbourhood": null,
        "suburb": null,
        "city_district": null,
        "city": "Serravalle",
        "state": null,
        "postcode": "47899",
        "country": "San Marino",
        "country_code": "sm"
      },
      "address": "75, Via Marino Moretti, Olivella, Serravalle, 47899, San Marino"
    },
    {
      "lat": 43.92455051182177,
      "lon": 12.430441838844,
      "geoinfo": {
        "display_name": "20a, Strada del Passaggio, Cà Centino, City of San Marino, 47890, San Marino",
        "road": "Strada del Passaggio",
        "house_number": "20a",
        "neighbourhood": null,
        "suburb": null,
        "city_district": null,
        "city": "City of San Marino",
        "state": null,
        "postcode": "47890",
        "country": "San Marino",
        "country_code": "sm"
      },
      "address": "20a, Strada del Passaggio, Cà Centino, City of San Marino, 47890, San Marino"
    },
    {
      "lat": 43.93102376356373,
      "lon": 12.425988178031297,
      "geoinfo": {
        "display_name": "123, Strada Prima Gualdaria, Monte Cucco, City of San Marino, 47890, San Marino",
        "road": "Strada Prima Gualdaria",
        "house_number": "123",
        "neighbourhood": null,
        "suburb": null,
        "city_district": null,
        "city": "City of San Marino",
        "state": null,
        "postcode": "47890",
        "country": "San Marino",
        "country_code": "sm"
      },
      "address": "123, Strada Prima Gualdaria, Monte Cucco, City of San Marino, 47890, San Marino"
    },
    {
      "lat": 43.93082465941326,
      "lon": 12.44500558633971,
      "geoinfo": {
        "display_name": "Strada Campo dei Giudei, Fonte dell'Ovo, Murata, City of San Marino, 47890, San Marino",
        "road": "Strada Campo dei Giudei",
        "house_number": null,
        "neighbourhood": null,
        "suburb": null,
        "city_district": null,
        "city": "City of San Marino",
        "state": null,
        "postcode": "47890",
        "country": "San Marino",
        "country_code": "sm"
      },
      "address": "714, Strada Campo dei Giudei, Fonte dell'Ovo, Murata, City of San Marino, 47890, San Marino"
    },
    {
      "lat": 43.94371686749751,
      "lon": 12.3995896814464,
      "geoinfo": {
        "display_name": "Ciclabile Torrente San Marino, Molino dei Fratti, Gualdicciolo, Acquaviva, 47892, San Marino",
        "road": "Ciclabile Torrente San Marino",
        "house_number": null,
        "neighbourhood": null,
        "suburb": null,
        "city_district": null,
        "city": "Gualdicciolo",
        "state": null,
        "postcode": "47892",
        "country": "San Marino",
        "country_code": "sm"
      },
      "address": "613, Ciclabile Torrente San Marino, Molino dei Fratti, Gualdicciolo, Acquaviva, 47892, San Marino"
    },
    {
      "lat": 43.93277477050543,
      "lon": 12.455863088542998,
      "geoinfo": {
        "display_name": "Strada Burricaia, Burricaia, Borgo Maggiore, 47890, San Marino",
        "road": "Strada Burricaia",
        "house_number": null,
        "neighbourhood": null,
        "suburb": null,
        "city_district": null,
        "city": "Borgo Maggiore",
        "state": null,
        "postcode": "47890",
        "country": "San Marino",
        "country_code": "sm"
      },
      "address": "324, Strada Burricaia, 47890 San Marino, San Marino"
    },
    {
      "lat": 43.93961108274263,
      "lon": 12.442632319426014,
      "geoinfo": {
        "display_name": "Via Piana, La Costa, Borgo Maggiore, 47893, San Marino",
        "road": "Via Piana",
        "house_number": null,
        "neighbourhood": null,
        "suburb": null,
        "city_district": null,
        "city": "Borgo Maggiore",
        "state": null,
        "postcode": "47893",
        "country": "San Marino",
        "country_code": "sm"
      },
      "address": "923, Via Piana, 47893 San Marino, San Marino"
    },
    {
      "lat": 43.9308916516466,
      "lon": 12.419410770409096,
      "geoinfo": {
        "display_name": "Strada di Galavotto, Genga Aguzza, Chiesanuova, 47892, San Marino",
        "road": "Strada di Galavotto",
        "house_number": null,
        "neighbourhood": null,
        "suburb": null,
        "city_district": null,
        "city": "Chiesanuova",
        "state": null,
        "postcode": "47892",
        "country": "San Marino",
        "country_code": "sm"
      },
      "address": "883, Strada di Galavotto, 47892 San Marino, San Marino"
    },
    {
      "lat": 43.91864835786681,
      "lon": 12.434881088931691,
      "geoinfo": {
        "display_name": "36f, Strada Monte Diodato, Casole, Murata, City of San Marino, 47890, San Marino",
        "road": "Strada Monte Diodato",
        "house_number": "36f",
        "neighbourhood": null,
        "suburb": null,
        "city_district": null,
        "city": "City of San Marino",
        "state": null,
        "postcode": "47890",
        "country": "San Marino",
        "country_code": "sm"
      },
      "address": "36f, Strada Monte Diodato, Casole, Murata, City of San Marino, 47890, San Marino"
    },
    {
      "lat": 43.91860762581468,
      "lon": 12.449928303786786,
      "geoinfo": {
        "display_name": "16, Via del Ghandaio, Ghiandaio, Murata, City of San Marino, 47890, San Marino",
        "road": "Via del Ghandaio",
        "house_number": "16",
        "neighbourhood": null,
        "suburb": null,
        "city_district": null,
        "city": "City of San Marino",
        "state": null,
        "postcode": "47890",
        "country": "San Marino",
        "country_code": "sm"
      },
      "address": "16, Via del Ghandaio, Ghiandaio, Murata, City of San Marino, 47890, San Marino"
    },
    {
      "lat": 43.90954886237381,
      "lon": 12.48808496551359,
      "geoinfo": {
        "display_name": "31, Strada del Poggio, Poggio, Montegiardino, 47898, San Marino",
        "road": "Strada del Poggio",
        "house_number": "31",
        "neighbourhood": null,
        "suburb": null,
        "city_district": null,
        "city": "Montegiardino",
        "state": null,
        "postcode": "47898",
        "country": "San Marino",
        "country_code": "sm"
      },
      "address": "31, Strada del Poggio, 47898 San Marino, San Marino"
    },
    {
      "lat": 43.93173000973949,
      "lon": 12.419466258984071,
      "geoinfo": {
        "display_name": "Strada di Galavotto, Genga Aguzza, Chiesanuova, 47892, San Marino",
        "road": "Strada di Galavotto",
        "house_number": null,
        "neighbourhood": null,
        "suburb": null,
        "city_district": null,
        "city": "Chiesanuova",
        "state": null,
        "postcode": "47892",
        "country": "San Marino",
        "country_code": "sm"
      },
      "address": "230, Strada di Galavotto, 47892 San Marino, San Marino"
    },
    {
      "lat": 43.91801533179681,
      "lon": 12.454709052485972,
      "geoinfo": {
        "display_name": "8, Via Lucantonio Gentili, Ghiandaio, Murata, City of San Marino, 47890, San Marino",
        "road": "Via Lucantonio Gentili",
        "house_number": "8",
        "neighbourhood": null,
        "suburb": null,
        "city_district": null,
        "city": "City of San Marino",
        "state": null,
        "postcode": "47890",
        "country": "San Marino",
        "country_code": "sm"
      },
      "address": "8, Via Lucantonio Gentili, Ghiandaio, Murata, City of San Marino, 47890, San Marino"
    },
    {
      "lat": 43.9263687676446,
      "lon": 12.480410630022341,
      "geoinfo": {
        "display_name": "9, Via Primo Maggio, Bove, Faetano, 47896, San Marino",
        "road": "Via Primo Maggio",
        "house_number": "9",
        "neighbourhood": null,
        "suburb": null,
        "city_district": null,
        "city": "Faetano",
        "state": null,
        "postcode": "47896",
        "country": "San Marino",
        "country_code": "sm"
      },
      "address": "9, Via Primo Maggio, 47896 San Marino, San Marino"
    },
    {
      "lat": 43.93365594920159,
      "lon": 12.448839900796079,
      "geoinfo": {
        "display_name": "3, Piazzetta Madroni, Fratta, City of San Marino, 47890, San Marino",
        "road": "Piazzetta Madroni",
        "house_number": "3",
        "neighbourhood": null,
        "suburb": null,
        "city_district": null,
        "city": "City of San Marino",
        "state": null,
        "postcode": "47890",
        "country": "San Marino",
        "country_code": "sm"
      },
      "address": "3, Piazzetta Madroni, Fratta, City of San Marino, 47890, San Marino"
    },
    {
      "lat": 43.930804090874695,
      "lon": 12.440219387972544,
      "geoinfo": {
        "display_name": "Fabbrica, Murata, City of San Marino, 47890, San Marino",
        "road": null,
        "house_number": null,
        "neighbourhood": null,
        "suburb": null,
        "city_district": null,
        "city": "City of San Marino",
        "state": null,
        "postcode": "47890",
        "country": "San Marino",
        "country_code": "sm"
      },
      "address": "397, Fabbrica, Murata, City of San Marino, 47890, San Marino"
    },
    {
      "lat": 43.93302477139671,
      "lon": 12.421867330396125,
      "geoinfo": {
        "display_name": "Via Vigna della Fontanina, Cà Berlone, City of San Marino, 47890, San Marino",
        "road": "Via Vigna della Fontanina",
        "house_number": null,
        "neighbourhood": null,
        "suburb": null,
        "city_district": null,
        "city": "City of San Marino",
        "state": null,
        "postcode": "47890",
        "country": "San Marino",
        "country_code": "sm"
      },
      "address": "225, Via Vigna della Fontanina, Cà Berlone, City of San Marino, 47890, San Marino"
    },
    {
      "lat": 43.92581425483653,
      "lon": 12.452464739436927,
      "geoinfo": {
        "display_name": "116, Via del Voltone, Montale, Murata, City of San Marino, 47890, San Marino",
        "road": "Via del Voltone",
        "house_number": "116",
        "neighbourhood": null,
        "suburb": null,
        "city_district": null,
        "city": "City of San Marino",
        "state": null,
        "postcode": "47890",
        "country": "San Marino",
        "country_code": "sm"
      },
      "address": "116, Via del Voltone, Montale, Murata, City of San Marino, 47890, San Marino"
    },
    {
      "lat": 43.930002267582076,
      "lon": 12.420436630438553,
      "geoinfo": {
        "display_name": "Strada di Galavotto, Genga Aguzza, Chiesanuova, 47892, San Marino",
        "road": "Strada di Galavotto",
        "house_number": null,
        "neighbourhood": null,
        "suburb": null,
        "city_district": null,
        "city": "Chiesanuova",
        "state": null,
        "postcode": "47892",
        "country": "San Marino",
        "country_code": "sm"
      },
      "address": "075, Strada di Galavotto, 47892 San Marino, San Marino"
    },
    {
      "lat": 43.93279425078081,
      "lon": 12.45165240196894,
      "geoinfo": {
        "display_name": "De La Fratta Castle, Salita Alla Cesta, Fratta, City of San Marino, 47890, San Marino",
        "road": "Salita Alla Cesta",
        "house_number": null,
        "neighbourhood": null,
        "suburb": null,
        "city_district": null,
        "city": "City of San Marino",
        "state": null,
        "postcode": "47890",
        "country": "San Marino",
        "country_code": "sm"
      },
      "address": "249, Salita Alla Cesta, 47890 San Marino, San Marino"
    },
    {
      "lat": 43.940301662713914,
      "lon": 12.4225620340198,
      "geoinfo": {
        "display_name": "Strada Guido Lambertizio, Vignale, Gualdicciolo, Acquaviva, 47892, San Marino",
        "road": "Strada Guido Lambertizio",
        "house_number": null,
        "neighbourhood": null,
        "suburb": null,
        "city_district": null,
        "city": "Gualdicciolo",
        "state": null,
        "postcode": "47892",
        "country": "San Marino",
        "country_code": "sm"
      },
      "address": "829, Strada Guido Lambertizio, 47892 San Marino, San Marino"
    },
    {
      "lat": 43.93054995831451,
      "lon": 12.453618192496231,
      "geoinfo": {
        "display_name": "Sentiero della Rupe, La Rupe, Murata, City of San Marino, 47890, San Marino",
        "road": "Sentiero della Rupe",
        "house_number": null,
        "neighbourhood": null,
        "suburb": null,
        "city_district": null,
        "city": "City of San Marino",
        "state": null,
        "postcode": "47890",
        "country": "San Marino",
        "country_code": "sm"
      },
      "address": "873, Sentiero della Rupe, La Rupe, Murata, City of San Marino, 47890, San Marino"
    },
    {
      "lat": 43.92888713186467,
      "lon": 12.449083850330014,
      "geoinfo": {
        "display_name": "7, Via Vanne di Fiordalisie, Via della Tana, Murata, City of San Marino, 47890, San Marino",
        "road": "Via Vanne di Fiordalisie",
        "house_number": "7",
        "neighbourhood": null,
        "suburb": null,
        "city_district": null,
        "city": "City of San Marino",
        "state": null,
        "postcode": "47890",
        "country": "San Marino",
        "country_code": "sm"
      },
      "address": "7, Via Vanne di Fiordalisie, Via della Tana, Murata, City of San Marino, 47890, San Marino"
    },
    {
      "lat": 43.91035444947012,
      "lon": 12.491170954003653,
      "geoinfo": {
        "display_name": "Strada del Poggio, Poggio, Montegiardino, 47898, San Marino",
        "road": "Strada del Poggio",
        "house_number": null,
        "neighbourhood": null,
        "suburb": null,
        "city_district": null,
        "city": "Montegiardino",
        "state": null,
        "postcode": "47898",
        "country": "San Marino",
        "country_code": "sm"
      },
      "address": "552, Strada del Poggio, 47898 San Marino, San Marino"
    },
    {
      "lat": 43.948355118694835,
      "lon": 12.457588900825657,
      "geoinfo": {
        "display_name": "Via Leo Marino Dominici, Tavolucci, Borgo Maggiore, 47893, San Marino",
        "road": "Via Leo Marino Dominici",
        "house_number": null,
        "neighbourhood": null,
        "suburb": null,
        "city_district": null,
        "city": "Borgo Maggiore",
        "state": null,
        "postcode": "47893",
        "country": "San Marino",
        "country_code": "sm"
      },
      "address": "875, Via Leo Marino Dominici, Tavolucci, Borgo Maggiore, 47893, San Marino"
    },
    {
      "lat": 43.91110242624008,
      "lon": 12.41546428465041,
      "geoinfo": {
        "display_name": "Strada della Valle, Cà Rinaldo, Chiesanuova, 47894, San Marino",
        "road": "Strada della Valle",
        "house_number": null,
        "neighbourhood": null,
        "suburb": null,
        "city_district": null,
        "city": "Chiesanuova",
        "state": null,
        "postcode": "47894",
        "country": "San Marino",
        "country_code": "sm"
      },
      "address": "291, Strada della Valle, 47894 San Marino, San Marino"
    },
    {
      "lat": 43.9249118451894,
      "lon": 12.430751891823537,
      "geoinfo": {
        "display_name": "20a, Strada del Passaggio, Cà Centino, City of San Marino, 47890, San Marino",
        "road": "Strada del Passaggio",
        "house_number": "20a",
        "neighbourhood": null,
        "suburb": null,
        "city_district": null,
        "city": "City of San Marino",
        "state": null,
        "postcode": "47890",
        "country": "San Marino",
        "country_code": "sm"
      },
      "address": "20a, Strada del Passaggio, 47890 San Marino, San Marino"
    },
    {
      "lat": 43.92057382781025,
      "lon": 12.44905756767053,
      "geoinfo": {
        "display_name": "37a, Strada Terza Gualdaria, Ghiandaio, Murata, City of San Marino, 47890, San Marino",
        "road": "Strada Terza Gualdaria",
        "house_number": "37a",
        "neighbourhood": null,
        "suburb": null,
        "city_district": null,
        "city": "City of San Marino",
        "state": null,
        "postcode": "47890",
        "country": "San Marino",
        "country_code": "sm"
      },
      "address": "37a, Strada Terza Gualdaria, Ghiandaio, Murata, City of San Marino, 47890, San Marino"
    },
    {
      "lat": 43.91517931043786,
      "lon": 12.448734410011042,
      "geoinfo": {
        "display_name": "4, Via Santa Caterina, Zona industriale di Murata, Ghiandaio, Murata, City of San Marino, 47890, San Marino",
        "road": "Via Santa Caterina",
        "house_number": "4",
        "neighbourhood": null,
        "suburb": null,
        "city_district": null,
        "city": "City of San Marino",
        "state": null,
        "postcode": "47890",
        "country": "San Marino",
        "country_code": "sm"
      },
      "address": "4, Via Santa Caterina, Zona industriale di Murata, Ghiandaio, Murata, City of San Marino, 47890, San Marino"
    },
    {
      "lat": 43.908724825171255,
      "lon": 12.44239702600674,
      "geoinfo": {
        "display_name": "Strada del Ponte, San Giorgio, Fiorentino, 47897, San Marino",
        "road": "Strada del Ponte",
        "house_number": null,
        "neighbourhood": null,
        "suburb": null,
        "city_district": null,
        "city": "Fiorentino",
        "state": null,
        "postcode": "47897",
        "country": "San Marino",
        "country_code": "sm"
      },
      "address": "671, Strada del Ponte, San Giorgio, Fiorentino, 47897, San Marino"
    },
    {
      "lat": 43.91753469198144,
      "lon": 12.407234539681534,
      "geoinfo": {
        "display_name": "San Leo, Unione di comuni Valmarecchia, Rimini, Emilia-Romagna, 47894, Italy",
        "road": null,
        "house_number": null,
        "neighbourhood": null,
        "suburb": null,
        "city_district": null,
        "city": "San Leo",
        "state": "Emilia-Romagna",
        "postcode": "47894",
        "country": "Italy",
        "country_code": "it"
      },
      "address": "280, San Marino, 47894 Emilia-Romagna, San Marino"
    },
    {
      "lat": 43.907570280417715,
      "lon": 12.492189220712064,
      "geoinfo": {
        "display_name": "Strada del Poggio, Poggio, Montegiardino, 47898, San Marino",
        "road": "Strada del Poggio",
        "house_number": null,
        "neighbourhood": null,
        "suburb": null,
        "city_district": null,
        "city": "Montegiardino",
        "state": null,
        "postcode": "47898",
        "country": "San Marino",
        "country_code": "sm"
      },
      "address": "913, Strada del Poggio, 47898 San Marino, San Marino"
    },
    {
      "lat": 43.89784285397738,
      "lon": 12.42264033193815,
      "geoinfo": {
        "display_name": "Monte, Sassofeltrio, Unione di comuni Valmarecchia, Rimini, Emilia-Romagna, 47894, Italy",
        "road": null,
        "house_number": null,
        "neighbourhood": null,
        "suburb": null,
        "city_district": null,
        "city": "Sassofeltrio",
        "state": "Emilia-Romagna",
        "postcode": "47894",
        "country": "Italy",
        "country_code": "it"
      },
      "address": "288, San Marino, 47894 Emilia-Romagna, San Marino"
    },
    {
      "lat": 43.91709848542848,
      "lon": 12.459828847185511,
      "geoinfo": {
        "display_name": "Strada di San Gianno, Crociale di Fiorentino, Fiorentino, 47897, San Marino",
        "road": "Strada di San Gianno",
        "house_number": null,
        "neighbourhood": null,
        "suburb": null,
        "city_district": null,
        "city": "Fiorentino",
        "state": null,
        "postcode": "47897",
        "country": "San Marino",
        "country_code": "sm"
      },
      "address": "022, Strada di San Gianno, Crociale di Fiorentino, Fiorentino, 47897, San Marino"
    },
    {
      "lat": 43.93109856350769,
      "lon": 12.443601314749756,
      "geoinfo": {
        "display_name": "Strada Campo dei Giudei, Fonte dell'Ovo, Murata, City of San Marino, 47890, San Marino",
        "road": "Strada Campo dei Giudei",
        "house_number": null,
        "neighbourhood": null,
        "suburb": null,
        "city_district": null,
        "city": "City of San Marino",
        "state": null,
        "postcode": "47890",
        "country": "San Marino",
        "country_code": "sm"
      },
      "address": "243, Strada Campo dei Giudei, Fonte dell'Ovo, Murata, City of San Marino, 47890, San Marino"
    },
    {
      "lat": 43.92712094060302,
      "lon": 12.44151298084763,
      "geoinfo": {
        "display_name": "21, Strada di Montecchio, Montecchio, Murata, City of San Marino, 47890, San Marino",
        "road": "Strada di Montecchio",
        "house_number": "21",
        "neighbourhood": null,
        "suburb": null,
        "city_district": null,
        "city": "City of San Marino",
        "state": null,
        "postcode": "47890",
        "country": "San Marino",
        "country_code": "sm"
      },
      "address": "21, Strada di Montecchio, Montecchio, Murata, City of San Marino, 47890, San Marino"
    },
    {
      "lat": 43.91696894476504,
      "lon": 12.400541443089605,
      "geoinfo": {
        "display_name": "San Leo, Unione di comuni Valmarecchia, Rimini, Emilia-Romagna, 47894, Italy",
        "road": null,
        "house_number": null,
        "neighbourhood": null,
        "suburb": null,
        "city_district": null,
        "city": "San Leo",
        "state": "Emilia-Romagna",
        "postcode": "47894",
        "country": "Italy",
        "country_code": "it"
      },
      "address": "902, San Marino, 47894 Emilia-Romagna, San Marino"
    },
    {
      "lat": 43.93826436116626,
      "lon": 12.409961443943688,
      "geoinfo": {
        "display_name": "Ciclabile Torrente San Marino, Molino dei Fratti, Gualdicciolo, Acquaviva, 47892, San Marino",
        "road": "Ciclabile Torrente San Marino",
        "house_number": null,
        "neighbourhood": null,
        "suburb": null,
        "city_district": null,
        "city": "Gualdicciolo",
        "state": null,
        "postcode": "47892",
        "country": "San Marino",
        "country_code": "sm"
      },
      "address": "030, Ciclabile Torrente San Marino, Molino dei Fratti, Gualdicciolo, Acquaviva, 47892, San Marino"
    },
    {
      "lat": 43.92941641025445,
      "lon": 12.417403926568902,
      "geoinfo": {
        "display_name": "40, Strada delle Seriole, Genga Aguzza, Chiesanuova, 47894, San Marino",
        "road": "Strada delle Seriole",
        "house_number": "40",
        "neighbourhood": null,
        "suburb": null,
        "city_district": null,
        "city": "Chiesanuova",
        "state": null,
        "postcode": "47894",
        "country": "San Marino",
        "country_code": "sm"
      },
      "address": "40, Strada delle Seriole, 47894 San Marino, San Marino"
    },
    {
      "lat": 43.901538531048374,
      "lon": 12.435760751398488,
      "geoinfo": {
        "display_name": "Castello, Sassofeltrio, Rimini, Emilia-Romagna, 47894, Italy",
        "road": null,
        "house_number": null,
        "neighbourhood": null,
        "suburb": null,
        "city_district": null,
        "city": "Sassofeltrio",
        "state": "Emilia-Romagna",
        "postcode": "47894",
        "country": "Italy",
        "country_code": "it"
      },
      "address": "163, San Marino, 47894 Emilia-Romagna, San Marino"
    },
    {
      "lat": 43.922446845977476,
      "lon": 12.455562503215281,
      "geoinfo": {
        "display_name": "Strada di San Gianno, Burricaia, Borgo Maggiore, 47890, San Marino",
        "road": "Strada di San Gianno",
        "house_number": null,
        "neighbourhood": null,
        "suburb": null,
        "city_district": null,
        "city": "Borgo Maggiore",
        "state": null,
        "postcode": "47890",
        "country": "San Marino",
        "country_code": "sm"
      },
      "address": "337, Strada di San Gianno, Burricaia, Borgo Maggiore, 47890, San Marino"
    },
    {
      "lat": 43.916213826250804,
      "lon": 12.440898955372559,
      "geoinfo": {
        "display_name": "1, Via Ranco Petroso, San Donnino, Murata, City of San Marino, 47890, San Marino",
        "road": "Via Ranco Petroso",
        "house_number": "1",
        "neighbourhood": null,
        "suburb": null,
        "city_district": null,
        "city": "City of San Marino",
        "state": null,
        "postcode": "47890",
        "country": "San Marino",
        "country_code": "sm"
      },
      "address": "1, Via Ranco Petroso, San Donnino, Murata, City of San Marino, 47890, San Marino"
    },
    {
      "lat": 43.950923932085715,
      "lon": 12.432233490815122,
      "geoinfo": {
        "display_name": "Strada vicinale, Gaviano, Acquaviva, 47892, San Marino",
        "road": "Strada vicinale",
        "house_number": null,
        "neighbourhood": null,
        "suburb": null,
        "city_district": null,
        "city": "Acquaviva",
        "state": null,
        "postcode": "47892",
        "country": "San Marino",
        "country_code": "sm"
      },
      "address": "810, Strada vicinale, 47892 San Marino, San Marino"
    },
    {
      "lat": 43.92747422553834,
      "lon": 12.418808281348985,
      "geoinfo": {
        "display_name": "Strada delle Seriole, Genga Aguzza, Chiesanuova, 47892, San Marino",
        "road": "Strada delle Seriole",
        "house_number": null,
        "neighbourhood": null,
        "suburb": null,
        "city_district": null,
        "city": "Chiesanuova",
        "state": null,
        "postcode": "47892",
        "country": "San Marino",
        "country_code": "sm"
      },
      "address": "900, Strada delle Seriole, 47892 San Marino, San Marino"
    },
    {
      "lat": 43.931144521546614,
      "lon": 12.444362897420055,
      "geoinfo": {
        "display_name": "Strada Campo dei Giudei, Fonte dell'Ovo, Murata, City of San Marino, 47890, San Marino",
        "road": "Strada Campo dei Giudei",
        "house_number": null,
        "neighbourhood": null,
        "suburb": null,
        "city_district": null,
        "city": "City of San Marino",
        "state": null,
        "postcode": "47890",
        "country": "San Marino",
        "country_code": "sm"
      },
      "address": "799, Strada Campo dei Giudei, Fonte dell'Ovo, Murata, City of San Marino, 47890, San Marino"
    },
    {
      "lat": 43.9367642629353,
      "lon": 12.416238062640392,
      "geoinfo": {
        "display_name": "40, Costa dello Spino, Gualdicciolo, City of San Marino, 47890, San Marino",
        "road": "Costa dello Spino",
        "house_number": "40",
        "neighbourhood": null,
        "suburb": null,
        "city_district": null,
        "city": "City of San Marino",
        "state": null,
        "postcode": "47890",
        "country": "San Marino",
        "country_code": "sm"
      },
      "address": "40, Costa dello Spino, Gualdicciolo, City of San Marino, 47890, San Marino"
    },
    {
      "lat": 43.907310723078695,
      "lon": 12.492418383900059,
      "geoinfo": {
        "display_name": "Strada del Poggio, Poggio, Montegiardino, 47898, San Marino",
        "road": "Strada del Poggio",
        "house_number": null,
        "neighbourhood": null,
        "suburb": null,
        "city_district": null,
        "city": "Montegiardino",
        "state": null,
        "postcode": "47898",
        "country": "San Marino",
        "country_code": "sm"
      },
      "address": "602, Strada del Poggio, 47898 San Marino, San Marino"
    },
    {
      "lat": 43.92374301460856,
      "lon": 12.4416547340461,
      "geoinfo": {
        "display_name": "36, Strada del Lupo, Casetta, Murata, City of San Marino, 47890, San Marino",
        "road": "Strada del Lupo",
        "house_number": "36",
        "neighbourhood": null,
        "suburb": null,
        "city_district": null,
        "city": "City of San Marino",
        "state": null,
        "postcode": "47890",
        "country": "San Marino",
        "country_code": "sm"
      },
      "address": "36, Strada del Lupo, Casetta, Murata, City of San Marino, 47890, San Marino"
    },
    {
      "lat": 43.89631608058277,
      "lon": 12.423329323481164,
      "geoinfo": {
        "display_name": "Monte, Sassofeltrio, Unione di comuni Valmarecchia, Rimini, Emilia-Romagna, 47894, Italy",
        "road": null,
        "house_number": null,
        "neighbourhood": null,
        "suburb": null,
        "city_district": null,
        "city": "Sassofeltrio",
        "state": "Emilia-Romagna",
        "postcode": "47894",
        "country": "Italy",
        "country_code": "it"
      },
      "address": "582, San Marino, 47894 Emilia-Romagna, San Marino"
    },
    {
      "lat": 43.91740603004614,
      "lon": 12.40116113171346,
      "geoinfo": {
        "display_name": "San Leo, Unione di comuni Valmarecchia, Rimini, Emilia-Romagna, 47894, Italy",
        "road": null,
        "house_number": null,
        "neighbourhood": null,
        "suburb": null,
        "city_district": null,
        "city": "San Leo",
        "state": "Emilia-Romagna",
        "postcode": "47894",
        "country": "Italy",
        "country_code": "it"
      },
      "address": "682, San Marino, 47894 Emilia-Romagna, San Marino"
    },
    {
      "lat": 43.916373821434114,
      "lon": 12.402183528195614,
      "geoinfo": {
        "display_name": "San Leo, Unione di comuni Valmarecchia, Rimini, Emilia-Romagna, 47894, Italy",
        "road": null,
        "house_number": null,
        "neighbourhood": null,
        "suburb": null,
        "city_district": null,
        "city": "San Leo",
        "state": "Emilia-Romagna",
        "postcode": "47894",
        "country": "Italy",
        "country_code": "it"
      },
      "address": "990, San Marino, 47894 Emilia-Romagna, San Marino"
    },
    {
      "lat": 43.92093620195323,
      "lon": 12.402088604023755,
      "geoinfo": {
        "display_name": "124, Ca' Torsano, San Leo, Unione di comuni Valmarecchia, Rimini, Emilia-Romagna, 47894, Italy",
        "road": null,
        "house_number": "124",
        "neighbourhood": null,
        "suburb": null,
        "city_district": null,
        "city": "San Leo",
        "state": "Emilia-Romagna",
        "postcode": "47894",
        "country": "Italy",
        "country_code": "it"
      },
      "address": "124, San Marino, 47894 Emilia-Romagna, San Marino"
    },
    {
      "lat": 43.914580744381006,
      "lon": 12.444858386232225,
      "geoinfo": {
        "display_name": "Via di Pennarossa, Campettino, Murata, City of San Marino, 47897, San Marino",
        "road": "Via di Pennarossa",
        "house_number": null,
        "neighbourhood": null,
        "suburb": null,
        "city_district": null,
        "city": "City of San Marino",
        "state": null,
        "postcode": "47897",
        "country": "San Marino",
        "country_code": "sm"
      },
      "address": "450, Via di Pennarossa, Campettino, Murata, City of San Marino, 47897, San Marino"
    },
    {
      "lat": 43.92999696215057,
      "lon": 12.439472829303423,
      "geoinfo": {
        "display_name": "Strada di Canepa, Canepa, Murata, City of San Marino, 47890, San Marino",
        "road": "Strada di Canepa",
        "house_number": null,
        "neighbourhood": null,
        "suburb": null,
        "city_district": null,
        "city": "City of San Marino",
        "state": null,
        "postcode": "47890",
        "country": "San Marino",
        "country_code": "sm"
      },
      "address": "583, Strada di Canepa, Canepa, Murata, City of San Marino, 47890, San Marino"
    },
    {
      "lat": 43.907870116184014,
      "lon": 12.494106566797514,
      "geoinfo": {
        "display_name": "Strada del Poggio, Poggio, Montegiardino, 47898, San Marino",
        "road": "Strada del Poggio",
        "house_number": null,
        "neighbourhood": null,
        "suburb": null,
        "city_district": null,
        "city": "Montegiardino",
        "state": null,
        "postcode": "47898",
        "country": "San Marino",
        "country_code": "sm"
      },
      "address": "463, Strada del Poggio, 47898 San Marino, San Marino"
    },
    {
      "lat": 43.90794788373342,
      "lon": 12.434372648268118,
      "geoinfo": {
        "display_name": "12, Strada la Costa, La Costa, Chiesanuova, 47894, San Marino",
        "road": "Strada la Costa",
        "house_number": "12",
        "neighbourhood": null,
        "suburb": null,
        "city_district": null,
        "city": "Chiesanuova",
        "state": null,
        "postcode": "47894",
        "country": "San Marino",
        "country_code": "sm"
      },
      "address": "12, Strada la Costa, 47894 San Marino, San Marino"
    },
    {
      "lat": 43.92481844691488,
      "lon": 12.467699187637368,
      "geoinfo": {
        "display_name": "Strada di Maiano, Maiano, Borgo Maggiore, 47890, San Marino",
        "road": "Strada di Maiano",
        "house_number": null,
        "neighbourhood": null,
        "suburb": null,
        "city_district": null,
        "city": "Borgo Maggiore",
        "state": null,
        "postcode": "47890",
        "country": "San Marino",
        "country_code": "sm"
      },
      "address": "934, Strada di Maiano, 47890 San Marino, San Marino"
    },
    {
      "lat": 43.920908418427345,
      "lon": 12.450251021122117,
      "geoinfo": {
        "display_name": "29, Strada Terza Gualdaria, Ghiandaio, Murata, City of San Marino, 47890, San Marino",
        "road": "Strada Terza Gualdaria",
        "house_number": "29",
        "neighbourhood": null,
        "suburb": null,
        "city_district": null,
        "city": "City of San Marino",
        "state": null,
        "postcode": "47890",
        "country": "San Marino",
        "country_code": "sm"
      },
      "address": "29, Strada Terza Gualdaria, Ghiandaio, Murata, City of San Marino, 47890, San Marino"
    },
    {
      "lat": 43.899224413392226,
      "lon": 12.430301012898926,
      "geoinfo": {
        "display_name": "Cà Guidi, Sassofeltrio, Rimini, Emilia-Romagna, 47894, Italy",
        "road": null,
        "house_number": null,
        "neighbourhood": null,
        "suburb": null,
        "city_district": null,
        "city": "Sassofeltrio",
        "state": "Emilia-Romagna",
        "postcode": "47894",
        "country": "Italy",
        "country_code": "it"
      },
      "address": "942, San Marino, 47894 Emilia-Romagna, San Marino"
    },
    {
      "lat": 43.929028052357694,
      "lon": 12.461552428104142,
      "geoinfo": {
        "display_name": "Strada vicinale del Prato, San Giovanni sotto le Penne, Borgo Maggiore, 47890, San Marino",
        "road": "Strada vicinale del Prato",
        "house_number": null,
        "neighbourhood": null,
        "suburb": null,
        "city_district": null,
        "city": "Borgo Maggiore",
        "state": null,
        "postcode": "47890",
        "country": "San Marino",
        "country_code": "sm"
      },
      "address": "390, Strada vicinale del Prato, San Giovanni sotto le Penne, Borgo Maggiore, 47890, San Marino"
    },
    {
      "lat": 43.92601487801707,
      "lon": 12.453280178950305,
      "geoinfo": {
        "display_name": "Via del Voltone, Montale, Murata, City of San Marino, 47890, San Marino",
        "road": "Via del Voltone",
        "house_number": null,
        "neighbourhood": null,
        "suburb": null,
        "city_district": null,
        "city": "City of San Marino",
        "state": null,
        "postcode": "47890",
        "country": "San Marino",
        "country_code": "sm"
      },
      "address": "863, Via del Voltone, Montale, Murata, City of San Marino, 47890, San Marino"
    },
    {
      "lat": 43.96749375554962,
      "lon": 12.48255416236375,
      "geoinfo": {
        "display_name": "1, Strada della Cava, Olivella, Serravalle, 47899, San Marino",
        "road": "Strada della Cava",
        "house_number": "1",
        "neighbourhood": null,
        "suburb": null,
        "city_district": null,
        "city": "Serravalle",
        "state": null,
        "postcode": "47899",
        "country": "San Marino",
        "country_code": "sm"
      },
      "address": "1, Strada della Cava, 47899 San Marino, San Marino"
    },
    {
      "lat": 43.89574831830146,
      "lon": 12.422292941620432,
      "geoinfo": {
        "display_name": "Monte, Sassofeltrio, Unione di comuni Valmarecchia, Rimini, Emilia-Romagna, 47894, Italy",
        "road": null,
        "house_number": null,
        "neighbourhood": null,
        "suburb": null,
        "city_district": null,
        "city": "Sassofeltrio",
        "state": "Emilia-Romagna",
        "postcode": "47894",
        "country": "Italy",
        "country_code": "it"
      },
      "address": "802, San Marino, 47894 Emilia-Romagna, San Marino"
    },
    {
      "lat": 43.935898862546594,
      "lon": 12.411477951827043,
      "geoinfo": {
        "display_name": "Ciclabile Torrente San Marino, Molino dei Fratti, Gualdicciolo, City of San Marino, 47892, San Marino",
        "road": "Ciclabile Torrente San Marino",
        "house_number": null,
        "neighbourhood": null,
        "suburb": null,
        "city_district": null,
        "city": "City of San Marino",
        "state": null,
        "postcode": "47892",
        "country": "San Marino",
        "country_code": "sm"
      },
      "address": "843, Ciclabile Torrente San Marino, Molino dei Fratti, Gualdicciolo, City of San Marino, 47892, San Marino"
    },
    {
      "lat": 43.919965767438406,
      "lon": 12.427915779153933,
      "geoinfo": {
        "display_name": "83, Strada Monte Diodato, Castellaro, City of San Marino, 47890, San Marino",
        "road": "Strada Monte Diodato",
        "house_number": "83",
        "neighbourhood": null,
        "suburb": null,
        "city_district": null,
        "city": "City of San Marino",
        "state": null,
        "postcode": "47890",
        "country": "San Marino",
        "country_code": "sm"
      },
      "address": "83, Strada Monte Diodato, Castellaro, City of San Marino, 47890, San Marino"
    },
    {
      "lat": 43.91128292106507,
      "lon": 12.49406014261204,
      "geoinfo": {
        "display_name": "Strada del Poggio, Poggio, Montegiardino, 47898, San Marino",
        "road": "Strada del Poggio",
        "house_number": null,
        "neighbourhood": null,
        "suburb": null,
        "city_district": null,
        "city": "Montegiardino",
        "state": null,
        "postcode": "47898",
        "country": "San Marino",
        "country_code": "sm"
      },
      "address": "550, Strada del Poggio, 47898 San Marino, San Marino"
    },
    {
      "lat": 43.9622960562613,
      "lon": 12.46455337876777,
      "geoinfo": {
        "display_name": "155, Strada di San Michele, Cà Borgo, Serravalle, 47899, San Marino",
        "road": "Strada di San Michele",
        "house_number": "155",
        "neighbourhood": null,
        "suburb": null,
        "city_district": null,
        "city": "Serravalle",
        "state": null,
        "postcode": "47899",
        "country": "San Marino",
        "country_code": "sm"
      },
      "address": "155, Strada di San Michele, Cà Borgo, Serravalle, 47899, San Marino"
    },
    {
      "lat": 43.91706135663497,
      "lon": 12.450749710805116,
      "geoinfo": {
        "display_name": "48, Via delle Carrare, Zona industriale di Murata, Campettino, Murata, City of San Marino, 47890, San Marino",
        "road": "Via delle Carrare",
        "house_number": "48",
        "neighbourhood": null,
        "suburb": null,
        "city_district": null,
        "city": "City of San Marino",
        "state": null,
        "postcode": "47890",
        "country": "San Marino",
        "country_code": "sm"
      },
      "address": "48, Via delle Carrare, Zona industriale di Murata, Campettino, Murata, City of San Marino, 47890, San Marino"
    },
    {
      "lat": 43.925939881466945,
      "lon": 12.472903939878895,
      "geoinfo": {
        "display_name": "45, Strada di Maiano, Maiano, Borgo Maggiore, 47893, San Marino",
        "road": "Strada di Maiano",
        "house_number": "45",
        "neighbourhood": null,
        "suburb": null,
        "city_district": null,
        "city": "Borgo Maggiore",
        "state": null,
        "postcode": "47893",
        "country": "San Marino",
        "country_code": "sm"
      },
      "address": "45, Strada di Maiano, 47893 San Marino, San Marino"
    },
    {
      "lat": 43.90543923918265,
      "lon": 12.47220391235219,
      "geoinfo": {
        "display_name": "11, Strada Monte San Lorenzo, Murcia, Fiorentino, 47897, San Marino",
        "road": "Strada Monte San Lorenzo",
        "house_number": "11",
        "neighbourhood": null,
        "suburb": null,
        "city_district": null,
        "city": "Fiorentino",
        "state": null,
        "postcode": "47897",
        "country": "San Marino",
        "country_code": "sm"
      },
      "address": "11, Strada Monte San Lorenzo, Murcia, Fiorentino, 47897, San Marino"
    },
    {
      "lat": 43.937326953975074,
      "lon": 12.450821407052636,
      "geoinfo": {
        "display_name": "9, Via del Gengone, Gengone, Borgo Maggiore, 47893, San Marino",
        "road": "Via del Gengone",
        "house_number": "9",
        "neighbourhood": null,
        "suburb": null,
        "city_district": null,
        "city": "Borgo Maggiore",
        "state": null,
        "postcode": "47893",
        "country": "San Marino",
        "country_code": "sm"
      },
      "address": "9, Via del Gengone, 47893 San Marino, San Marino"
    },
    {
      "lat": 43.898327192224336,
      "lon": 12.435096779504722,
      "geoinfo": {
        "display_name": "Castello, Sassofeltrio, Rimini, Emilia-Romagna, 47894, Italy",
        "road": null,
        "house_number": null,
        "neighbourhood": null,
        "suburb": null,
        "city_district": null,
        "city": "Sassofeltrio",
        "state": "Emilia-Romagna",
        "postcode": "47894",
        "country": "Italy",
        "country_code": "it"
      },
      "address": "100, San Marino, 47894 Emilia-Romagna, San Marino"
    },
    {
      "lat": 43.93469790597112,
      "lon": 12.427788601803764,
      "geoinfo": {
        "display_name": "77, Strada Prima Gualdaria, Cà Torre, City of San Marino, 47890, San Marino",
        "road": "Strada Prima Gualdaria",
        "house_number": "77",
        "neighbourhood": null,
        "suburb": null,
        "city_district": null,
        "city": "City of San Marino",
        "state": null,
        "postcode": "47890",
        "country": "San Marino",
        "country_code": "sm"
      },
      "address": "77, Strada Prima Gualdaria, Cà Torre, City of San Marino, 47890, San Marino"
    },
    {
      "lat": 43.929567752633076,
      "lon": 12.426334988302504,
      "geoinfo": {
        "display_name": "123, Strada Prima Gualdaria, Monte Cucco, City of San Marino, 47890, San Marino",
        "road": "Strada Prima Gualdaria",
        "house_number": "123",
        "neighbourhood": null,
        "suburb": null,
        "city_district": null,
        "city": "City of San Marino",
        "state": null,
        "postcode": "47890",
        "country": "San Marino",
        "country_code": "sm"
      },
      "address": "123, Strada Prima Gualdaria, 47890 San Marino, San Marino"
    },
    {
      "lat": 43.93055928569924,
      "lon": 12.455361248291254,
      "geoinfo": {
        "display_name": "5, Strada di San Gianno, Burricaia, Borgo Maggiore, 47893, San Marino",
        "road": "Strada di San Gianno",
        "house_number": "5",
        "neighbourhood": null,
        "suburb": null,
        "city_district": null,
        "city": "Borgo Maggiore",
        "state": null,
        "postcode": "47893",
        "country": "San Marino",
        "country_code": "sm"
      },
      "address": "5, Strada di San Gianno, Burricaia, Borgo Maggiore, 47893, San Marino"
    },
    {
      "lat": 43.9402990729776,
      "lon": 12.423648109050157,
      "geoinfo": {
        "display_name": "21, Strada Guido Lambertizio, Vignale, Gualdicciolo, Acquaviva, 47892, San Marino",
        "road": "Strada Guido Lambertizio",
        "house_number": "21",
        "neighbourhood": null,
        "suburb": null,
        "city_district": null,
        "city": "Gualdicciolo",
        "state": null,
        "postcode": "47892",
        "country": "San Marino",
        "country_code": "sm"
      },
      "address": "21, Strada Guido Lambertizio, 47892 San Marino, San Marino"
    },
    {
      "lat": 43.92128202041788,
      "lon": 12.41392802585391,
      "geoinfo": {
        "display_name": "Strada del Lavoro, Poggio Casalino, Chiesanuova, 47894, San Marino",
        "road": "Strada del Lavoro",
        "house_number": null,
        "neighbourhood": null,
        "suburb": null,
        "city_district": null,
        "city": "Chiesanuova",
        "state": null,
        "postcode": "47894",
        "country": "San Marino",
        "country_code": "sm"
      },
      "address": "950, Strada del Lavoro, 47894 San Marino, San Marino"
    },
    {
      "lat": 43.92368639008089,
      "lon": 12.43162007008119,
      "geoinfo": {
        "display_name": "Strada del Passaggio, Cà Centino, City of San Marino, 47890, San Marino",
        "road": "Strada del Passaggio",
        "house_number": null,
        "neighbourhood": null,
        "suburb": null,
        "city_district": null,
        "city": "City of San Marino",
        "state": null,
        "postcode": "47890",
        "country": "San Marino",
        "country_code": "sm"
      },
      "address": "409, Strada del Passaggio, Cà Centino, City of San Marino, 47890, San Marino"
    },
    {
      "lat": 43.9423305776526,
      "lon": 12.401560235735754,
      "geoinfo": {
        "display_name": "Ciclabile Torrente San Marino, Molino dei Fratti, Gualdicciolo, Acquaviva, 47892, San Marino",
        "road": "Ciclabile Torrente San Marino",
        "house_number": null,
        "neighbourhood": null,
        "suburb": null,
        "city_district": null,
        "city": "Gualdicciolo",
        "state": null,
        "postcode": "47892",
        "country": "San Marino",
        "country_code": "sm"
      },
      "address": "095, Ciclabile Torrente San Marino, Molino dei Fratti, Gualdicciolo, Acquaviva, 47892, San Marino"
    },
    {
      "lat": 43.96062484782355,
      "lon": 12.466717567180511,
      "geoinfo": {
        "display_name": "Strada di San Michele, Cà Borgo, Serravalle, 47895, San Marino",
        "road": "Strada di San Michele",
        "house_number": null,
        "neighbourhood": null,
        "suburb": null,
        "city_district": null,
        "city": "Serravalle",
        "state": null,
        "postcode": "47895",
        "country": "San Marino",
        "country_code": "sm"
      },
      "address": "075, Strada di San Michele, Cà Borgo, Serravalle, 47895, San Marino"
    },
    {
      "lat": 43.89470740237089,
      "lon": 12.427855273012513,
      "geoinfo": {
        "display_name": "Monte, Sassofeltrio, Unione di comuni Valmarecchia, Rimini, Emilia-Romagna, 47894, Italy",
        "road": null,
        "house_number": null,
        "neighbourhood": null,
        "suburb": null,
        "city_district": null,
        "city": "Sassofeltrio",
        "state": "Emilia-Romagna",
        "postcode": "47894",
        "country": "Italy",
        "country_code": "it"
      },
      "address": "309, San Marino, 47894 Emilia-Romagna, San Marino"
    },
    {
      "lat": 43.9394835115608,
      "lon": 12.42607540514108,
      "geoinfo": {
        "display_name": "Strada Guido Lambertizio, Vignale, Gualdicciolo, Acquaviva, 47892, San Marino",
        "road": "Strada Guido Lambertizio",
        "house_number": null,
        "neighbourhood": null,
        "suburb": null,
        "city_district": null,
        "city": "Gualdicciolo",
        "state": null,
        "postcode": "47892",
        "country": "San Marino",
        "country_code": "sm"
      },
      "address": "403, Strada Guido Lambertizio, 47892 San Marino, San Marino"
    },
    {
      "lat": 43.89625639836029,
      "lon": 12.424474311619624,
      "geoinfo": {
        "display_name": "Monte, Sassofeltrio, Unione di comuni Valmarecchia, Rimini, Emilia-Romagna, 47894, Italy",
        "road": null,
        "house_number": null,
        "neighbourhood": null,
        "suburb": null,
        "city_district": null,
        "city": "Sassofeltrio",
        "state": "Emilia-Romagna",
        "postcode": "47894",
        "country": "Italy",
        "country_code": "it"
      },
      "address": "692, San Marino, 47894 Emilia-Romagna, San Marino"
    },
    {
      "lat": 43.9241583557836,
      "lon": 12.444952507260378,
      "geoinfo": {
        "display_name": "Strada della Ginestrina, Cà Mazzocchetto, Murata, City of San Marino, 47890, San Marino",
        "road": "Strada della Ginestrina",
        "house_number": null,
        "neighbourhood": null,
        "suburb": null,
        "city_district": null,
        "city": "City of San Marino",
        "state": null,
        "postcode": "47890",
        "country": "San Marino",
        "country_code": "sm"
      },
      "address": "139, Strada della Ginestrina, Cà Mazzocchetto, Murata, City of San Marino, 47890, San Marino"
    },
    {
      "lat": 43.95901908605518,
      "lon": 12.461292950812135,
      "geoinfo": {
        "display_name": "Centro Vacanze San Marino, 50, Strada di San Michele, Cà Borgo, Borgo Maggiore, 47895, San Marino",
        "road": "Strada di San Michele",
        "house_number": "50",
        "neighbourhood": null,
        "suburb": null,
        "city_district": null,
        "city": "Borgo Maggiore",
        "state": null,
        "postcode": "47895",
        "country": "San Marino",
        "country_code": "sm"
      },
      "address": "Centro Vacanze San Marino, 50, Strada di San Michele, Cà Borgo, Borgo Maggiore, 47895, San Marino"
    },
    {
      "lat": 43.898363788387215,
      "lon": 12.421411594883592,
      "geoinfo": {
        "display_name": "Monte, Sassofeltrio, Unione di comuni Valmarecchia, Rimini, Emilia-Romagna, 47894, Italy",
        "road": null,
        "house_number": null,
        "neighbourhood": null,
        "suburb": null,
        "city_district": null,
        "city": "Sassofeltrio",
        "state": "Emilia-Romagna",
        "postcode": "47894",
        "country": "Italy",
        "country_code": "it"
      },
      "address": "895, San Marino, 47894 Emilia-Romagna, San Marino"
    },
    {
      "lat": 43.92205371300702,
      "lon": 12.429625036397704,
      "geoinfo": {
        "display_name": "Strada di Canepa, Castellaro, City of San Marino, 47890, San Marino",
        "road": "Strada di Canepa",
        "house_number": null,
        "neighbourhood": null,
        "suburb": null,
        "city_district": null,
        "city": "City of San Marino",
        "state": null,
        "postcode": "47890",
        "country": "San Marino",
        "country_code": "sm"
      },
      "address": "551, Strada di Canepa, Castellaro, City of San Marino, 47890, San Marino"
    },
    {
      "lat": 43.94544232559894,
      "lon": 12.405091276444004,
      "geoinfo": {
        "display_name": "Ciclabile Torrente San Marino, Molino dei Fratti, Gualdicciolo, Acquaviva, 47892, San Marino",
        "road": "Ciclabile Torrente San Marino",
        "house_number": null,
        "neighbourhood": null,
        "suburb": null,
        "city_district": null,
        "city": "Gualdicciolo",
        "state": null,
        "postcode": "47892",
        "country": "San Marino",
        "country_code": "sm"
      },
      "address": "485, Ciclabile Torrente San Marino, Molino dei Fratti, Gualdicciolo, Acquaviva, 47892, San Marino"
    },
    {
      "lat": 43.91778256580155,
      "lon": 12.421047867015142,
      "geoinfo": {
        "display_name": "Strada Ca' Busignano, La Fratta, Chiesanuova, 47894, San Marino",
        "road": "Strada Ca' Busignano",
        "house_number": null,
        "neighbourhood": null,
        "suburb": null,
        "city_district": null,
        "city": "Chiesanuova",
        "state": null,
        "postcode": "47894",
        "country": "San Marino",
        "country_code": "sm"
      },
      "address": "510, Strada Ca' Busignano, 47894 San Marino, San Marino"
    },
    {
      "lat": 43.94413212686333,
      "lon": 12.405516031582719,
      "geoinfo": {
        "display_name": "Ciclabile Torrente San Marino, Molino dei Fratti, Gualdicciolo, Acquaviva, 47892, San Marino",
        "road": "Ciclabile Torrente San Marino",
        "house_number": null,
        "neighbourhood": null,
        "suburb": null,
        "city_district": null,
        "city": "Gualdicciolo",
        "state": null,
        "postcode": "47892",
        "country": "San Marino",
        "country_code": "sm"
      },
      "address": "594, Ciclabile Torrente San Marino, Molino dei Fratti, Gualdicciolo, Acquaviva, 47892, San Marino"
    },
    {
      "lat": 43.940779146978954,
      "lon": 12.4267946390068,
      "geoinfo": {
        "display_name": "16, Strada Guido Lambertizio, Vignale, Gualdicciolo, Acquaviva, 47892, San Marino",
        "road": "Strada Guido Lambertizio",
        "house_number": "16",
        "neighbourhood": null,
        "suburb": null,
        "city_district": null,
        "city": "Gualdicciolo",
        "state": null,
        "postcode": "47892",
        "country": "San Marino",
        "country_code": "sm"
      },
      "address": "16, Strada Guido Lambertizio, 47892 San Marino, San Marino"
    },
    {
      "lat": 43.93744809495048,
      "lon": 12.416667081371434,
      "geoinfo": {
        "display_name": "Costa dello Spino, Gualdicciolo, City of San Marino, 47892, San Marino",
        "road": "Costa dello Spino",
        "house_number": null,
        "neighbourhood": null,
        "suburb": null,
        "city_district": null,
        "city": "City of San Marino",
        "state": null,
        "postcode": "47892",
        "country": "San Marino",
        "country_code": "sm"
      },
      "address": "348, Costa dello Spino, Gualdicciolo, City of San Marino, 47892, San Marino"
    },
    {
      "lat": 43.94323682768331,
      "lon": 12.40153179242063,
      "geoinfo": {
        "display_name": "Ciclabile Torrente San Marino, Molino dei Fratti, Gualdicciolo, Acquaviva, 47892, San Marino",
        "road": "Ciclabile Torrente San Marino",
        "house_number": null,
        "neighbourhood": null,
        "suburb": null,
        "city_district": null,
        "city": "Gualdicciolo",
        "state": null,
        "postcode": "47892",
        "country": "San Marino",
        "country_code": "sm"
      },
      "address": "764, Ciclabile Torrente San Marino, Molino dei Fratti, Gualdicciolo, Acquaviva, 47892, San Marino"
    },
    {
      "lat": 43.967149532411774,
      "lon": 12.481114673114737,
      "geoinfo": {
        "display_name": "75, Via Marino Moretti, Olivella, Serravalle, 47899, San Marino",
        "road": "Via Marino Moretti",
        "house_number": "75",
        "neighbourhood": null,
        "suburb": null,
        "city_district": null,
        "city": "Serravalle",
        "state": null,
        "postcode": "47899",
        "country": "San Marino",
        "country_code": "sm"
      },
      "address": "75, Via Marino Moretti, Olivella, Serravalle, 47899, San Marino"
    },
    {
      "lat": 43.95843309063136,
      "lon": 12.46287322171686,
      "geoinfo": {
        "display_name": "Centro Vacanze San Marino, 50, Strada di San Michele, Cà Borgo, Borgo Maggiore, 47895, San Marino",
        "road": "Strada di San Michele",
        "house_number": "50",
        "neighbourhood": null,
        "suburb": null,
        "city_district": null,
        "city": "Borgo Maggiore",
        "state": null,
        "postcode": "47895",
        "country": "San Marino",
        "country_code": "sm"
      },
      "address": "Centro Vacanze San Marino, 50, Strada di San Michele, Cà Borgo, Borgo Maggiore, 47895, San Marino"
    },
    {
      "lat": 43.92715857692184,
      "lon": 12.452035224925604,
      "geoinfo": {
        "display_name": "121, Via della Tana, Murata, City of San Marino, 47890, San Marino",
        "road": "Via della Tana",
        "house_number": "121",
        "neighbourhood": null,
        "suburb": null,
        "city_district": null,
        "city": "City of San Marino",
        "state": null,
        "postcode": "47890",
        "country": "San Marino",
        "country_code": "sm"
      },
      "address": "121, Via della Tana, Murata, City of San Marino, 47890, San Marino"
    },
    {
      "lat": 43.94046270206527,
      "lon": 12.43772800299057,
      "geoinfo": {
        "display_name": "Strada della Baldasserona, Baldasserona, City of San Marino, 47890, San Marino",
        "road": "Strada della Baldasserona",
        "house_number": null,
        "neighbourhood": null,
        "suburb": null,
        "city_district": null,
        "city": "City of San Marino",
        "state": null,
        "postcode": "47890",
        "country": "San Marino",
        "country_code": "sm"
      },
      "address": "572, Strada della Baldasserona, Baldasserona, City of San Marino, 47890, San Marino"
    },
    {
      "lat": 43.91475137821629,
      "lon": 12.433917049058605,
      "geoinfo": {
        "display_name": "51, Strada Monte Diodato, Casole, Murata, City of San Marino, 47890, San Marino",
        "road": "Strada Monte Diodato",
        "house_number": "51",
        "neighbourhood": null,
        "suburb": null,
        "city_district": null,
        "city": "City of San Marino",
        "state": null,
        "postcode": "47890",
        "country": "San Marino",
        "country_code": "sm"
      },
      "address": "51, Strada Monte Diodato, Casole, Murata, City of San Marino, 47890, San Marino"
    },
    {
      "lat": 43.93094635301916,
      "lon": 12.437674259503392,
      "geoinfo": {
        "display_name": "83, Strada di Canepa, Canepa, Murata, City of San Marino, 47890, San Marino",
        "road": "Strada di Canepa",
        "house_number": "83",
        "neighbourhood": null,
        "suburb": null,
        "city_district": null,
        "city": "City of San Marino",
        "state": null,
        "postcode": "47890",
        "country": "San Marino",
        "country_code": "sm"
      },
      "address": "83, Strada di Canepa, Canepa, Murata, City of San Marino, 47890, San Marino"
    },
    {
      "lat": 43.928604023992825,
      "lon": 12.42978185734683,
      "geoinfo": {
        "display_name": "Strada dell Vecchia, Palazzo, City of San Marino, 47890, San Marino",
        "road": "Strada dell Vecchia",
        "house_number": null,
        "neighbourhood": null,
        "suburb": null,
        "city_district": null,
        "city": "City of San Marino",
        "state": null,
        "postcode": "47890",
        "country": "San Marino",
        "country_code": "sm"
      },
      "address": "214, Strada dell Vecchia, Palazzo, City of San Marino, 47890, San Marino"
    },
    {
      "lat": 43.92708350120336,
      "lon": 12.415155204134859,
      "geoinfo": {
        "display_name": "Ciclabile Torrente San Marino, Busignano, Chiesanuova, 47894, San Marino",
        "road": "Ciclabile Torrente San Marino",
        "house_number": null,
        "neighbourhood": null,
        "suburb": null,
        "city_district": null,
        "city": "Chiesanuova",
        "state": null,
        "postcode": "47894",
        "country": "San Marino",
        "country_code": "sm"
      },
      "address": "457, Ciclabile Torrente San Marino, Busignano, Chiesanuova, 47894, San Marino"
    },
    {
      "lat": 43.92906130754864,
      "lon": 12.445120353014229,
      "geoinfo": {
        "display_name": "Strada Campo dei Giudei, Fonte dell'Ovo, Murata, City of San Marino, 47890, San Marino",
        "road": "Strada Campo dei Giudei",
        "house_number": null,
        "neighbourhood": null,
        "suburb": null,
        "city_district": null,
        "city": "City of San Marino",
        "state": null,
        "postcode": "47890",
        "country": "San Marino",
        "country_code": "sm"
      },
      "address": "171, Strada Campo dei Giudei, Fonte dell'Ovo, Murata, City of San Marino, 47890, San Marino"
    },
    {
      "lat": 43.93414433866967,
      "lon": 12.412583387200527,
      "geoinfo": {
        "display_name": "Ciclabile Torrente San Marino, Genga Aguzza, City of San Marino, 47892, San Marino",
        "road": "Ciclabile Torrente San Marino",
        "house_number": null,
        "neighbourhood": null,
        "suburb": null,
        "city_district": null,
        "city": "City of San Marino",
        "state": null,
        "postcode": "47892",
        "country": "San Marino",
        "country_code": "sm"
      },
      "address": "834, Ciclabile Torrente San Marino, Genga Aguzza, City of San Marino, 47892, San Marino"
    },
    {
      "lat": 43.92117592089515,
      "lon": 12.432964610498177,
      "geoinfo": {
        "display_name": "Strada di Canepa, Castellaro, City of San Marino, 47890, San Marino",
        "road": "Strada di Canepa",
        "house_number": null,
        "neighbourhood": null,
        "suburb": null,
        "city_district": null,
        "city": "City of San Marino",
        "state": null,
        "postcode": "47890",
        "country": "San Marino",
        "country_code": "sm"
      },
      "address": "257, Strada di Canepa, Castellaro, City of San Marino, 47890, San Marino"
    },
    {
      "lat": 43.95571691094442,
      "lon": 12.457377530812233,
      "geoinfo": {
        "display_name": "2, Strada di San Michele, Cà Borgo, Borgo Maggiore, 47893, San Marino",
        "road": "Strada di San Michele",
        "house_number": "2",
        "neighbourhood": null,
        "suburb": null,
        "city_district": null,
        "city": "Borgo Maggiore",
        "state": null,
        "postcode": "47893",
        "country": "San Marino",
        "country_code": "sm"
      },
      "address": "2, Strada di San Michele, Cà Borgo, Borgo Maggiore, 47893, San Marino"
    },
    {
      "lat": 43.93409826217524,
      "lon": 12.418521562990962,
      "geoinfo": {
        "display_name": "9, Strada delle Seriole, Genga Aguzza, Chiesanuova, 47894, San Marino",
        "road": "Strada delle Seriole",
        "house_number": "9",
        "neighbourhood": null,
        "suburb": null,
        "city_district": null,
        "city": "Chiesanuova",
        "state": null,
        "postcode": "47894",
        "country": "San Marino",
        "country_code": "sm"
      },
      "address": "9, Strada delle Seriole, 47894 San Marino, San Marino"
    },
    {
      "lat": 43.93871591823627,
      "lon": 12.426315979694447,
      "geoinfo": {
        "display_name": "Strada Guido Lambertizio, Vignale, Gualdicciolo, Acquaviva, 47892, San Marino",
        "road": "Strada Guido Lambertizio",
        "house_number": null,
        "neighbourhood": null,
        "suburb": null,
        "city_district": null,
        "city": "Gualdicciolo",
        "state": null,
        "postcode": "47892",
        "country": "San Marino",
        "country_code": "sm"
      },
      "address": "062, Strada Guido Lambertizio, 47892 San Marino, San Marino"
    },
    {
      "lat": 43.96329152241777,
      "lon": 12.43618546551061,
      "geoinfo": {
        "display_name": "Verucchio, Unione di comuni Valmarecchia, Rimini, Emilia-Romagna, 47826, Italy",
        "road": null,
        "house_number": null,
        "neighbourhood": null,
        "suburb": null,
        "city_district": null,
        "city": "Verucchio",
        "state": "Emilia-Romagna",
        "postcode": "47826",
        "country": "Italy",
        "country_code": "it"
      },
      "address": "177, San Marino, 47826 Emilia-Romagna, San Marino"
    },
    {
      "lat": 43.927388466236245,
      "lon": 12.455060040250101,
      "geoinfo": {
        "display_name": "San Giovanni, Strada di San Gianno, Burricaia, Borgo Maggiore, 47890, San Marino",
        "road": "Strada di San Gianno",
        "house_number": null,
        "neighbourhood": null,
        "suburb": null,
        "city_district": null,
        "city": "Borgo Maggiore",
        "state": null,
        "postcode": "47890",
        "country": "San Marino",
        "country_code": "sm"
      },
      "address": "063, Strada di San Gianno, 47890 San Marino, San Marino"
    },
    {
      "lat": 43.97310487093446,
      "lon": 12.438096119972714,
      "geoinfo": {
        "display_name": "Villa Verucchio, Verucchio, Unione di comuni Valmarecchia, Rimini, Emilia-Romagna, 47826, Italy",
        "road": null,
        "house_number": null,
        "neighbourhood": null,
        "suburb": null,
        "city_district": null,
        "city": "Verucchio",
        "state": "Emilia-Romagna",
        "postcode": "47826",
        "country": "Italy",
        "country_code": "it"
      },
      "address": "084, San Marino, 47826 Emilia-Romagna, San Marino"
    },
    {
      "lat": 43.92162800503448,
      "lon": 12.413471725675894,
      "geoinfo": {
        "display_name": "Strada del Lavoro, Poggio Casalino, Chiesanuova, 47894, San Marino",
        "road": "Strada del Lavoro",
        "house_number": null,
        "neighbourhood": null,
        "suburb": null,
        "city_district": null,
        "city": "Chiesanuova",
        "state": null,
        "postcode": "47894",
        "country": "San Marino",
        "country_code": "sm"
      },
      "address": "003, Strada del Lavoro, 47894 San Marino, San Marino"
    },
    {
      "lat": 43.91599936130448,
      "lon": 12.400408777640735,
      "geoinfo": {
        "display_name": "San Leo, Unione di comuni Valmarecchia, Rimini, Emilia-Romagna, 47894, Italy",
        "road": null,
        "house_number": null,
        "neighbourhood": null,
        "suburb": null,
        "city_district": null,
        "city": "San Leo",
        "state": "Emilia-Romagna",
        "postcode": "47894",
        "country": "Italy",
        "country_code": "it"
      },
      "address": "830, San Marino, 47894 Emilia-Romagna, San Marino"
    },
    {
      "lat": 43.9177576494157,
      "lon": 12.417742375131008,
      "geoinfo": {
        "display_name": "9, Strada Ca' Busignano, La Fratta, Chiesanuova, 47894, San Marino",
        "road": "Strada Ca' Busignano",
        "house_number": "9",
        "neighbourhood": null,
        "suburb": null,
        "city_district": null,
        "city": "Chiesanuova",
        "state": null,
        "postcode": "47894",
        "country": "San Marino",
        "country_code": "sm"
      },
      "address": "9, Strada Ca' Busignano, 47894 San Marino, San Marino"
    },
    {
      "lat": 43.916902120185654,
      "lon": 12.441982855859505,
      "geoinfo": {
        "display_name": "Via delle Carrare, Campettino, Murata, City of San Marino, 47890, San Marino",
        "road": "Via delle Carrare",
        "house_number": null,
        "neighbourhood": null,
        "suburb": null,
        "city_district": null,
        "city": "City of San Marino",
        "state": null,
        "postcode": "47890",
        "country": "San Marino",
        "country_code": "sm"
      },
      "address": "419, Via delle Carrare, Campettino, Murata, City of San Marino, 47890, San Marino"
    },
    {
      "lat": 43.94235372187538,
      "lon": 12.426880636800536,
      "geoinfo": {
        "display_name": "Strada Guido Lambertizio, Vignale, Gualdicciolo, Acquaviva, 47892, San Marino",
        "road": "Strada Guido Lambertizio",
        "house_number": null,
        "neighbourhood": null,
        "suburb": null,
        "city_district": null,
        "city": "Gualdicciolo",
        "state": null,
        "postcode": "47892",
        "country": "San Marino",
        "country_code": "sm"
      },
      "address": "913, Strada Guido Lambertizio, 47892 San Marino, San Marino"
    },
    {
      "lat": 43.898116739865166,
      "lon": 12.431118504808339,
      "geoinfo": {
        "display_name": "Castello, Sassofeltrio, Rimini, Emilia-Romagna, 47894, Italy",
        "road": null,
        "house_number": null,
        "neighbourhood": null,
        "suburb": null,
        "city_district": null,
        "city": "Sassofeltrio",
        "state": "Emilia-Romagna",
        "postcode": "47894",
        "country": "Italy",
        "country_code": "it"
      },
      "address": "382, San Marino, 47894 Emilia-Romagna, San Marino"
    },
    {
      "lat": 43.96404208463161,
      "lon": 12.436092159621275,
      "geoinfo": {
        "display_name": "Verucchio, Unione di comuni Valmarecchia, Rimini, Emilia-Romagna, 47826, Italy",
        "road": null,
        "house_number": null,
        "neighbourhood": null,
        "suburb": null,
        "city_district": null,
        "city": "Verucchio",
        "state": "Emilia-Romagna",
        "postcode": "47826",
        "country": "Italy",
        "country_code": "it"
      },
      "address": "481, San Marino, 47826 Emilia-Romagna, San Marino"
    },
    {
      "lat": 43.94738054196772,
      "lon": 12.399941622714055,
      "geoinfo": {
        "display_name": "Ciclabile Torrente San Marino, Molino dei Fratti, Gualdicciolo, Acquaviva, 47892, San Marino",
        "road": "Ciclabile Torrente San Marino",
        "house_number": null,
        "neighbourhood": null,
        "suburb": null,
        "city_district": null,
        "city": "Gualdicciolo",
        "state": null,
        "postcode": "47892",
        "country": "San Marino",
        "country_code": "sm"
      },
      "address": "112, Ciclabile Torrente San Marino, Molino dei Fratti, Gualdicciolo, Acquaviva, 47892, San Marino"
    },
    {
      "lat": 43.90028175002431,
      "lon": 12.438609933385429,
      "geoinfo": {
        "display_name": "Castello, Sassofeltrio, Rimini, Emilia-Romagna, 47894, Italy",
        "road": null,
        "house_number": null,
        "neighbourhood": null,
        "suburb": null,
        "city_district": null,
        "city": "Sassofeltrio",
        "state": "Emilia-Romagna",
        "postcode": "47894",
        "country": "Italy",
        "country_code": "it"
      },
      "address": "570, San Marino, 47894 Emilia-Romagna, San Marino"
    },
    {
      "lat": 43.91821707725501,
      "lon": 12.407252338474017,
      "geoinfo": {
        "display_name": "San Leo, Unione di comuni Valmarecchia, Rimini, Emilia-Romagna, 47894, Italy",
        "road": null,
        "house_number": null,
        "neighbourhood": null,
        "suburb": null,
        "city_district": null,
        "city": "San Leo",
        "state": "Emilia-Romagna",
        "postcode": "47894",
        "country": "Italy",
        "country_code": "it"
      },
      "address": "623, San Marino, 47894 Emilia-Romagna, San Marino"
    },
    {
      "lat": 43.93750139082804,
      "lon": 12.442035054374003,
      "geoinfo": {
        "display_name": "6, Via Montalbo, Piagge, City of San Marino, 47890, San Marino",
        "road": "Via Montalbo",
        "house_number": "6",
        "neighbourhood": null,
        "suburb": null,
        "city_district": null,
        "city": "City of San Marino",
        "state": null,
        "postcode": "47890",
        "country": "San Marino",
        "country_code": "sm"
      },
      "address": "6, Via Montalbo, Piagge, City of San Marino, 47890, San Marino"
    },
    {
      "lat": 43.89563604319354,
      "lon": 12.45622410549257,
      "geoinfo": {
        "display_name": "Strada della Selva, La Selva, Fiorentino, 47897, San Marino",
        "road": "Strada della Selva",
        "house_number": null,
        "neighbourhood": null,
        "suburb": null,
        "city_district": null,
        "city": "Fiorentino",
        "state": null,
        "postcode": "47897",
        "country": "San Marino",
        "country_code": "sm"
      },
      "address": "862, Strada della Selva, 47897 San Marino, San Marino"
    },
    {
      "lat": 43.916511554497276,
      "lon": 12.400574876204713,
      "geoinfo": {
        "display_name": "San Leo, Unione di comuni Valmarecchia, Rimini, Emilia-Romagna, 47894, Italy",
        "road": null,
        "house_number": null,
        "neighbourhood": null,
        "suburb": null,
        "city_district": null,
        "city": "San Leo",
        "state": "Emilia-Romagna",
        "postcode": "47894",
        "country": "Italy",
        "country_code": "it"
      },
      "address": "178, San Marino, 47894 Emilia-Romagna, San Marino"
    },
    {
      "lat": 43.958812957969656,
      "lon": 12.461929948573207,
      "geoinfo": {
        "display_name": "Centro Vacanze San Marino, 50, Strada di San Michele, Cà Borgo, Borgo Maggiore, 47895, San Marino",
        "road": "Strada di San Michele",
        "house_number": "50",
        "neighbourhood": null,
        "suburb": null,
        "city_district": null,
        "city": "Borgo Maggiore",
        "state": null,
        "postcode": "47895",
        "country": "San Marino",
        "country_code": "sm"
      },
      "address": "50, Strada di San Michele, 47895 San Marino, San Marino"
    },
    {
      "lat": 43.926369162315616,
      "lon": 12.437157949966982,
      "geoinfo": {
        "display_name": "100, Strada di Canepa, Canepa, Murata, City of San Marino, 47890, San Marino",
        "road": "Strada di Canepa",
        "house_number": "100",
        "neighbourhood": null,
        "suburb": null,
        "city_district": null,
        "city": "City of San Marino",
        "state": null,
        "postcode": "47890",
        "country": "San Marino",
        "country_code": "sm"
      },
      "address": "100, Strada di Canepa, Canepa, Murata, City of San Marino, 47890, San Marino"
    },
    {
      "lat": 43.92047887461529,
      "lon": 12.411014884097746,
      "geoinfo": {
        "display_name": "Strada del Lavoro, Poggio Casalino, Chiesanuova, 47894, San Marino",
        "road": "Strada del Lavoro",
        "house_number": null,
        "neighbourhood": null,
        "suburb": null,
        "city_district": null,
        "city": "Chiesanuova",
        "state": null,
        "postcode": "47894",
        "country": "San Marino",
        "country_code": "sm"
      },
      "address": "277, Strada del Lavoro, 47894 San Marino, San Marino"
    },
    {
      "lat": 43.90882386680971,
      "lon": 12.489343956483546,
      "geoinfo": {
        "display_name": "37, Strada del Poggio, Poggio, Montegiardino, 47898, San Marino",
        "road": "Strada del Poggio",
        "house_number": "37",
        "neighbourhood": null,
        "suburb": null,
        "city_district": null,
        "city": "Montegiardino",
        "state": null,
        "postcode": "47898",
        "country": "San Marino",
        "country_code": "sm"
      },
      "address": "37, Strada del Poggio, 47898 San Marino, San Marino"
    },
    {
      "lat": 43.906596086736926,
      "lon": 12.459748339106335,
      "geoinfo": {
        "display_name": "27d, Via Vascone, Monte San Cristoforo, Fiorentino, 47897, San Marino",
        "road": "Via Vascone",
        "house_number": "27d",
        "neighbourhood": null,
        "suburb": null,
        "city_district": null,
        "city": "Fiorentino",
        "state": null,
        "postcode": "47897",
        "country": "San Marino",
        "country_code": "sm"
      },
      "address": "27d, Via Vascone, Monte San Cristoforo, Fiorentino, 47897, San Marino"
    },
    {
      "lat": 43.96648733186504,
      "lon": 12.466213386673951,
      "geoinfo": {
        "display_name": "Strada Borrana, San Michele, Serravalle, 47899, San Marino",
        "road": "Strada Borrana",
        "house_number": null,
        "neighbourhood": null,
        "suburb": null,
        "city_district": null,
        "city": "Serravalle",
        "state": null,
        "postcode": "47899",
        "country": "San Marino",
        "country_code": "sm"
      },
      "address": "737, Strada Borrana, San Michele, Serravalle, 47899, San Marino"
    },
    {
      "lat": 43.89635494283046,
      "lon": 12.438618277885173,
      "geoinfo": {
        "display_name": "Castello, Sassofeltrio, Rimini, Emilia-Romagna, 47894, Italy",
        "road": null,
        "house_number": null,
        "neighbourhood": null,
        "suburb": null,
        "city_district": null,
        "city": "Sassofeltrio",
        "state": "Emilia-Romagna",
        "postcode": "47894",
        "country": "Italy",
        "country_code": "it"
      },
      "address": "297, San Marino, 47894 Emilia-Romagna, San Marino"
    },
    {
      "lat": 43.96350015045684,
      "lon": 12.436645863126925,
      "geoinfo": {
        "display_name": "Verucchio, Unione di comuni Valmarecchia, Rimini, Emilia-Romagna, 47826, Italy",
        "road": null,
        "house_number": null,
        "neighbourhood": null,
        "suburb": null,
        "city_district": null,
        "city": "Verucchio",
        "state": "Emilia-Romagna",
        "postcode": "47826",
        "country": "Italy",
        "country_code": "it"
      },
      "address": "623, San Marino, 47826 Emilia-Romagna, San Marino"
    },
    {
      "lat": 43.909605002442575,
      "lon": 12.441030804338663,
      "geoinfo": {
        "display_name": "Strada del Ponte, San Giorgio, Fiorentino, 47897, San Marino",
        "road": "Strada del Ponte",
        "house_number": null,
        "neighbourhood": null,
        "suburb": null,
        "city_district": null,
        "city": "Fiorentino",
        "state": null,
        "postcode": "47897",
        "country": "San Marino",
        "country_code": "sm"
      },
      "address": "463, Strada del Ponte, San Giorgio, Fiorentino, 47897, San Marino"
    },
    {
      "lat": 43.926380405902464,
      "lon": 12.449867312938826,
      "geoinfo": {
        "display_name": "12, Via del Serrone, Via della Tana, Murata, City of San Marino, 47890, San Marino",
        "road": "Via del Serrone",
        "house_number": "12",
        "neighbourhood": null,
        "suburb": null,
        "city_district": null,
        "city": "City of San Marino",
        "state": null,
        "postcode": "47890",
        "country": "San Marino",
        "country_code": "sm"
      },
      "address": "12, Via del Serrone, Via della Tana, Murata, City of San Marino, 47890, San Marino"
    },
    {
      "lat": 43.89540403121075,
      "lon": 12.455943212681992,
      "geoinfo": {
        "display_name": "Strada della Selva, La Selva, Fiorentino, 47897, San Marino",
        "road": "Strada della Selva",
        "house_number": null,
        "neighbourhood": null,
        "suburb": null,
        "city_district": null,
        "city": "Fiorentino",
        "state": null,
        "postcode": "47897",
        "country": "San Marino",
        "country_code": "sm"
      },
      "address": "753, Strada della Selva, 47897 San Marino, San Marino"
    },
    {
      "lat": 43.93107528479014,
      "lon": 12.42952284486336,
      "geoinfo": {
        "display_name": "Strada dell Vecchia, Palazzo, City of San Marino, 47890, San Marino",
        "road": "Strada dell Vecchia",
        "house_number": null,
        "neighbourhood": null,
        "suburb": null,
        "city_district": null,
        "city": "City of San Marino",
        "state": null,
        "postcode": "47890",
        "country": "San Marino",
        "country_code": "sm"
      },
      "address": "480, Strada dell Vecchia, Palazzo, City of San Marino, 47890, San Marino"
    },
    {
      "lat": 43.925128630096204,
      "lon": 12.466076125431721,
      "geoinfo": {
        "display_name": "Strada di Maiano, Maiano, Borgo Maggiore, 47890, San Marino",
        "road": "Strada di Maiano",
        "house_number": null,
        "neighbourhood": null,
        "suburb": null,
        "city_district": null,
        "city": "Borgo Maggiore",
        "state": null,
        "postcode": "47890",
        "country": "San Marino",
        "country_code": "sm"
      },
      "address": "690, Strada di Maiano, 47890 San Marino, San Marino"
    },
    {
      "lat": 43.917142358310926,
      "lon": 12.449068141382085,
      "geoinfo": {
        "display_name": "Via don Bosco, Ghiandaio, Murata, City of San Marino, 47897, San Marino",
        "road": "Via don Bosco",
        "house_number": null,
        "neighbourhood": null,
        "suburb": null,
        "city_district": null,
        "city": "City of San Marino",
        "state": null,
        "postcode": "47897",
        "country": "San Marino",
        "country_code": "sm"
      },
      "address": "306, Via don Bosco, Ghiandaio, Murata, City of San Marino, 47897, San Marino"
    },
    {
      "lat": 43.93462209414689,
      "lon": 12.422779607973952,
      "geoinfo": {
        "display_name": "Via Vigna della Fontanina, Cà Berlone, City of San Marino, 47890, San Marino",
        "road": "Via Vigna della Fontanina",
        "house_number": null,
        "neighbourhood": null,
        "suburb": null,
        "city_district": null,
        "city": "City of San Marino",
        "state": null,
        "postcode": "47890",
        "country": "San Marino",
        "country_code": "sm"
      },
      "address": "243, Via Vigna della Fontanina, Cà Berlone, City of San Marino, 47890, San Marino"
    },
    {
      "lat": 43.936497943125595,
      "lon": 12.427687969167575,
      "geoinfo": {
        "display_name": "Strada Prima Gualdaria, Cà Torre, City of San Marino, 47890, San Marino",
        "road": "Strada Prima Gualdaria",
        "house_number": null,
        "neighbourhood": null,
        "suburb": null,
        "city_district": null,
        "city": "City of San Marino",
        "state": null,
        "postcode": "47890",
        "country": "San Marino",
        "country_code": "sm"
      },
      "address": "057, Strada Prima Gualdaria, Cà Torre, City of San Marino, 47890, San Marino"
    },
    {
      "lat": 43.89549876405865,
      "lon": 12.4271587271994,
      "geoinfo": {
        "display_name": "Monte, Sassofeltrio, Unione di comuni Valmarecchia, Rimini, Emilia-Romagna, 47894, Italy",
        "road": null,
        "house_number": null,
        "neighbourhood": null,
        "suburb": null,
        "city_district": null,
        "city": "Sassofeltrio",
        "state": "Emilia-Romagna",
        "postcode": "47894",
        "country": "Italy",
        "country_code": "it"
      },
      "address": "339, San Marino, 47894 Emilia-Romagna, San Marino"
    },
    {
      "lat": 43.91761040897582,
      "lon": 12.42805193812984,
      "geoinfo": {
        "display_name": "83, Strada Monte Diodato, Castellaro, City of San Marino, 47890, San Marino",
        "road": "Strada Monte Diodato",
        "house_number": "83",
        "neighbourhood": null,
        "suburb": null,
        "city_district": null,
        "city": "City of San Marino",
        "state": null,
        "postcode": "47890",
        "country": "San Marino",
        "country_code": "sm"
      },
      "address": "83, Strada Monte Diodato, 47890 San Marino, San Marino"
    },
    {
      "lat": 43.96206662557929,
      "lon": 12.436179208240901,
      "geoinfo": {
        "display_name": "Verucchio, Unione di comuni Valmarecchia, Rimini, Emilia-Romagna, 47826, Italy",
        "road": null,
        "house_number": null,
        "neighbourhood": null,
        "suburb": null,
        "city_district": null,
        "city": "Verucchio",
        "state": "Emilia-Romagna",
        "postcode": "47826",
        "country": "Italy",
        "country_code": "it"
      },
      "address": "272, San Marino, 47826 Emilia-Romagna, San Marino"
    },
    {
      "lat": 43.91428788853656,
      "lon": 12.497518314369271,
      "geoinfo": {
        "display_name": "Brardina, Sassofeltrio, Rimini, Emilia-Romagna, 61013, Italy",
        "road": null,
        "house_number": null,
        "neighbourhood": null,
        "suburb": null,
        "city_district": null,
        "city": "Sassofeltrio",
        "state": "Emilia-Romagna",
        "postcode": "61013",
        "country": "Italy",
        "country_code": "it"
      },
      "address": "209, San Marino, 61013 Emilia-Romagna, San Marino"
    },
    {
      "lat": 43.97121525047133,
      "lon": 12.483099331402265,
      "geoinfo": {
        "display_name": "23, Via Marino Moretti, Piandolano, Dogana, Serravalle, 47899, San Marino",
        "road": "Via Marino Moretti",
        "house_number": "23",
        "neighbourhood": null,
        "suburb": null,
        "city_district": null,
        "city": "Serravalle",
        "state": null,
        "postcode": "47899",
        "country": "San Marino",
        "country_code": "sm"
      },
      "address": "23, Via Marino Moretti, Piandolano, Dogana, Serravalle, 47899, San Marino"
    },
    {
      "lat": 43.93068234888385,
      "lon": 12.422427141387132,
      "geoinfo": {
        "display_name": "152, Strada Prima Gualdaria, Monte Cucco, Chiesanuova, 47894, San Marino",
        "road": "Strada Prima Gualdaria",
        "house_number": "152",
        "neighbourhood": null,
        "suburb": null,
        "city_district": null,
        "city": "Chiesanuova",
        "state": null,
        "postcode": "47894",
        "country": "San Marino",
        "country_code": "sm"
      },
      "address": "152, Strada Prima Gualdaria, 47894 San Marino, San Marino"
    },
    {
      "lat": 43.93211607045094,
      "lon": 12.450436357694866,
      "geoinfo": {
        "display_name": "P 7, Salita Alla Cesta, Fratta, City of San Marino, 47890, San Marino",
        "road": "Salita Alla Cesta",
        "house_number": null,
        "neighbourhood": null,
        "suburb": null,
        "city_district": null,
        "city": "City of San Marino",
        "state": null,
        "postcode": "47890",
        "country": "San Marino",
        "country_code": "sm"
      },
      "address": "P 7, Salita Alla Cesta, Fratta, City of San Marino, 47890, San Marino"
    },
    {
      "lat": 43.92777390972384,
      "lon": 12.451941799614575,
      "geoinfo": {
        "display_name": "P3, Salita al Montale, Montale, Murata, City of San Marino, 47890, San Marino",
        "road": "Salita al Montale",
        "house_number": null,
        "neighbourhood": null,
        "suburb": null,
        "city_district": null,
        "city": "City of San Marino",
        "state": null,
        "postcode": "47890",
        "country": "San Marino",
        "country_code": "sm"
      },
      "address": "P3, Salita al Montale, Montale, Murata, City of San Marino, 47890, San Marino"
    },
    {
      "lat": 43.89756592224249,
      "lon": 12.434664585410706,
      "geoinfo": {
        "display_name": "Castello, Sassofeltrio, Rimini, Emilia-Romagna, 47894, Italy",
        "road": null,
        "house_number": null,
        "neighbourhood": null,
        "suburb": null,
        "city_district": null,
        "city": "Sassofeltrio",
        "state": "Emilia-Romagna",
        "postcode": "47894",
        "country": "Italy",
        "country_code": "it"
      },
      "address": "731, San Marino, 47894 Emilia-Romagna, San Marino"
    },
    {
      "lat": 43.93392287860152,
      "lon": 12.437135938383802,
      "geoinfo": {
        "display_name": "2, Via Cannetaccio, Cà Brandano, City of San Marino, 47890, San Marino",
        "road": "Via Cannetaccio",
        "house_number": "2",
        "neighbourhood": null,
        "suburb": null,
        "city_district": null,
        "city": "City of San Marino",
        "state": null,
        "postcode": "47890",
        "country": "San Marino",
        "country_code": "sm"
      },
      "address": "2, Via Cannetaccio, Cà Brandano, City of San Marino, 47890, San Marino"
    },
    {
      "lat": 43.946059549288265,
      "lon": 12.403647854953073,
      "geoinfo": {
        "display_name": "Ciclabile Torrente San Marino, Molino dei Fratti, Gualdicciolo, Acquaviva, 47892, San Marino",
        "road": "Ciclabile Torrente San Marino",
        "house_number": null,
        "neighbourhood": null,
        "suburb": null,
        "city_district": null,
        "city": "Gualdicciolo",
        "state": null,
        "postcode": "47892",
        "country": "San Marino",
        "country_code": "sm"
      },
      "address": "089, Ciclabile Torrente San Marino, Molino dei Fratti, Gualdicciolo, Acquaviva, 47892, San Marino"
    },
    {
      "lat": 43.93545884859677,
      "lon": 12.420790992079933,
      "geoinfo": {
        "display_name": "Via Vigna della Fontanina, Cà Berlone, City of San Marino, 47890, San Marino",
        "road": "Via Vigna della Fontanina",
        "house_number": null,
        "neighbourhood": null,
        "suburb": null,
        "city_district": null,
        "city": "City of San Marino",
        "state": null,
        "postcode": "47890",
        "country": "San Marino",
        "country_code": "sm"
      },
      "address": "391, Via Vigna della Fontanina, Cà Berlone, City of San Marino, 47890, San Marino"
    },
    {
      "lat": 43.90790389127282,
      "lon": 12.45981568052128,
      "geoinfo": {
        "display_name": "43, Via Vascone, Monte San Cristoforo, Fiorentino, 47897, San Marino",
        "road": "Via Vascone",
        "house_number": "43",
        "neighbourhood": null,
        "suburb": null,
        "city_district": null,
        "city": "Fiorentino",
        "state": null,
        "postcode": "47897",
        "country": "San Marino",
        "country_code": "sm"
      },
      "address": "43, Via Vascone, Monte San Cristoforo, Fiorentino, 47897, San Marino"
    },
    {
      "lat": 43.93100237435538,
      "lon": 12.423224547564867,
      "geoinfo": {
        "display_name": "Strada Prima Gualdaria, Monte Cucco, Chiesanuova, 47892, San Marino",
        "road": "Strada Prima Gualdaria",
        "house_number": null,
        "neighbourhood": null,
        "suburb": null,
        "city_district": null,
        "city": "Chiesanuova",
        "state": null,
        "postcode": "47892",
        "country": "San Marino",
        "country_code": "sm"
      },
      "address": "238, Strada Prima Gualdaria, 47892 San Marino, San Marino"
    }
  ],
  "updated_at": "2025-10-19T06:23:19.831203+00:00",
  "_kind": "geo_samples"
}