{
  "country_code": "TD",
  "country": "Chad",
  "city": "Am Timan",
  "geonameid": 245338,
  "target_addresses": 3,
  "samples": [
    {
      "lat": 11.05679461904298,
      "lon": 20.2957277119617,
      "geoinfo": {
        "display_name": "Am Timan - Goz Beida - Abeche National Road طريق وطني أم تيمان أبو ضياء مونكو, Am Timan, El Ogna, Al-Hounga, Salamat, Chad",
        "road": "Am Timan - Goz Beida - Abeche National Road طريق وطني أم تيمان أبو ضياء مونكو",
        "house_number": null,
        "neighbourhood": null,
        "suburb": null,
        "city_district": null,
        "city": "Al-Hounga",
        "state": "Salamat",
        "postcode": null,
        "country": "Chad",
        "country_code": "td"
      },
      "address": "Am Timan - Goz Beida - Abeche National Road طريق وطني أم تيمان أبو ضياء مونكو, Am Timan, Salamat, Chad"
    },
    {
      "lat": 11.037418321296533,
      "lon": 20.302903194903674,
      "geoinfo": {
        "display_name": "Al - Kessi, Am Timan, Salamat, Chad",
        "road": null,
        "house_number": null,
        "neighbourhood": "Al - Kessi",
        "suburb": null,
        "city_district": null,
        "city": "Am Timan",
        "state": "Salamat",
        "postcode": null,
        "country": "Chad",
        "country_code": "td"
      },
      "address": "Al - Kessi, Am Timan, Salamat, Chad"
    },
    {
      "lat": 11.059077247979264,
      "lon": 20.32390595579488,
      "geoinfo": {
        "display_name": "El Ogna, Al-Hounga, Salamat, Chad",
        "road": null,
        "house_number": null,
        "neighbourhood": null,
        "suburb": null,
        "city_district": null,
        "city": "Al-Hounga",
        "state": "Salamat",
        "postcode": null,
        "country": "Chad",
        "country_code": "td"
      },
      "address": "Am Timan, Salamat, Chad"
    },
    {
      "lat": 11.076105008451329,
      "lon": 20.290419105410972,
      "geoinfo": {
        "display_name": "Amkarouba, Am Timan, Salamat, Chad",
        "road": null,
        "house_number": null,
        "neighbourhood": null,
        "suburb": null,
        "city_district": null,
        "city": "Am Timan",
        "state": "Salamat",
        "postcode": null,
        "country": "Chad",
        "country_code": "td"
      },
      "address": "520, Amkarouba, Am Timan, 35787 Salamat, Chad"
    },
    {
      "lat": 11.021834987801764,
      "lon": 20.316998142527353,
      "geoinfo": {
        "display_name": "Al - Kessi, Assicebara, Salamat, Chad",
        "road": null,
        "house_number": null,
        "neighbourhood": "Al - Kessi",
        "suburb": null,
        "city_district": null,
        "city": "Assicebara",
        "state": "Salamat",
        "postcode": null,
        "country": "Chad",
        "country_code": "td"
      },
      "address": "834, Al - Kessi, Am Timan, 02473 Salamat, Chad"
    },
    {
      "lat": 11.014117431139136,
      "lon": 20.285343833167385,
      "geoinfo": {
        "display_name": "Ambadoro, Dilema, Salamat, Chad",
        "road": null,
        "house_number": null,
        "neighbourhood": "Ambadoro",
        "suburb": null,
        "city_district": null,
        "city": "Dilema",
        "state": "Salamat",
        "postcode": null,
        "country": "Chad",
        "country_code": "td"
      },
      "address": "698, Ambadoro, Am Timan, 26256 Salamat, Chad"
    }
  ],
  "updated_at": "2025-10-19T06:44:59.595614+00:00",
  "_kind": "geo_samples"
}