{
  "country_code": "TD",
  "country": "Chad",
  "city": "Doba",
  "geonameid": 2433437,
  "target_addresses": 3,
  "samples": [
    {
      "lat": 8.651468253428998,
      "lon": 16.859644718686454,
      "geoinfo": {
        "display_name": "Dobambaye, Doba, Logone Oriental, Chad",
        "road": null,
        "house_number": null,
        "neighbourhood": null,
        "suburb": null,
        "city_district": null,
        "city": "Doba",
        "state": "Logone Oriental",
        "postcode": null,
        "country": "Chad",
        "country_code": "td"
      },
      "address": "Doba, Logone Oriental, Chad"
    },
    {
      "lat": 8.635308526216255,
      "lon": 16.874642094448305,
      "geoinfo": {
        "display_name": "Route Doba - Frontière RCA, Dobambaye, Doba, Logone Oriental, Chad",
        "road": "Route Doba - Frontière RCA",
        "house_number": null,
        "neighbourhood": null,
        "suburb": null,
        "city_district": null,
        "city": "Doba",
        "state": "Logone Oriental",
        "postcode": null,
        "country": "Chad",
        "country_code": "td"
      },
      "address": "Route Doba - Frontière RCA, Doba, Logone Oriental, Chad"
    },
    {
      "lat": 8.665345542997189,
      "lon": 16.85628306035974,
      "geoinfo": {
        "display_name": "Route Doba - Donga Manga, Forgeron, Doba, Logone Oriental, Chad",
        "road": "Route Doba - Donga Manga",
        "house_number": null,
        "neighbourhood": null,
        "suburb": null,
        "city_district": null,
        "city": "Doba",
        "state": "Logone Oriental",
        "postcode": null,
        "country": "Chad",
        "country_code": "td"
      },
      "address": "Route Doba - Donga Manga, Doba, Logone Oriental, Chad"
    },
    {
      "lat": 8.654879175429718,
      "lon": 16.837528127854224,
      "geoinfo": {
        "display_name": "Arabe العرب, Doba, Logone Oriental, Chad",
        "road": null,
        "house_number": null,
        "neighbourhood": null,
        "suburb": null,
        "city_district": null,
        "city": "Doba",
        "state": "Logone Oriental",
        "postcode": null,
        "country": "Chad",
        "country_code": "td"
      },
      "address": "810, Arabe العرب, Doba, 38249 Logone Oriental, Chad"
    },
    {
      "lat": 8.680822438222977,
      "lon": 16.818823747885496,
      "geoinfo": {
        "display_name": "Béraba, Doba, Logone Oriental, Chad",
        "road": null,
        "house_number": null,
        "neighbourhood": null,
        "suburb": null,
        "city_district": null,
        "city": "Doba",
        "state": "Logone Oriental",
        "postcode": null,
        "country": "Chad",
        "country_code": "td"
      },
      "address": "250, Béraba, Doba, 58967 Logone Oriental, Chad"
    },
    {
      "lat": 8.649163868202669,
      "lon": 16.838839192780576,
      "geoinfo": {
        "display_name": "Bornou, Doba, Logone Oriental, Chad",
        "road": null,
        "house_number": null,
        "neighbourhood": null,
        "suburb": null,
        "city_district": null,
        "city": "Doba",
        "state": "Logone Oriental",
        "postcode": null,
        "country": "Chad",
        "country_code": "td"
      },
      "address": "449, Bornou, Doba, 33500 Logone Oriental, Chad"
    }
  ],
  "updated_at": "2025-10-19T10:12:46.388830+00:00",
  "_kind": "geo_samples"
}