{
  "country_code": "TD",
  "country": "Chad",
  "city": "Faya-Largeau",
  "geonameid": 2432678,
  "target_addresses": 3,
  "samples": [
    {
      "lat": 17.917305055092516,
      "lon": 19.100884838652426,
      "geoinfo": {
        "display_name": "Housma هوسما, Centre مركز, Faya-Largeau, Borkou, Chad",
        "road": null,
        "house_number": null,
        "neighbourhood": "Housma هوسما",
        "suburb": "Centre مركز",
        "city_district": null,
        "city": "Faya-Largeau",
        "state": "Borkou",
        "postcode": null,
        "country": "Chad",
        "country_code": "td"
      },
      "address": "Housma هوسما, Faya-Largeau, Borkou, Chad"
    },
    {
      "lat": 17.900839576299795,
      "lon": 19.07526878249006,
      "geoinfo": {
        "display_name": "Omoule أمول, Kourkour, Faya-Largeau, Borkou, Chad",
        "road": null,
        "house_number": null,
        "neighbourhood": "Omoule أمول",
        "suburb": null,
        "city_district": null,
        "city": "Faya-Largeau",
        "state": "Borkou",
        "postcode": null,
        "country": "Chad",
        "country_code": "td"
      },
      "address": "Omoule أمول, Faya-Largeau, Borkou, Chad"
    },
    {
      "lat": 17.89698027624566,
      "lon": 19.110701472508214,
      "geoinfo": {
        "display_name": "Centre مركز, Faya-Largeau, Borkou, Chad",
        "road": null,
        "house_number": null,
        "neighbourhood": null,
        "suburb": "Centre مركز",
        "city_district": null,
        "city": "Faya-Largeau",
        "state": "Borkou",
        "postcode": null,
        "country": "Chad",
        "country_code": "td"
      },
      "address": "Centre مركز, Faya-Largeau, Borkou, Chad"
    },
    {
      "lat": 17.936055764840148,
      "lon": 19.067628621812723,
      "geoinfo": {
        "display_name": "Oweney أوني, Yougoudou يوقودو, Faya-Largeau, Borkou, Chad",
        "road": null,
        "house_number": null,
        "neighbourhood": "Oweney أوني",
        "suburb": "Yougoudou يوقودو",
        "city_district": null,
        "city": "Faya-Largeau",
        "state": "Borkou",
        "postcode": null,
        "country": "Chad",
        "country_code": "td"
      },
      "address": "027, Oweney أوني, Yougoudou يوقودو, Faya-Largeau, 58229 Borkou, Chad"
    },
    {
      "lat": 17.919406154779733,
      "lon": 19.140497282408223,
      "geoinfo": {
        "display_name": "Donzonga دونزونقا, Faya-Largeau, Borkou, Chad",
        "road": null,
        "house_number": null,
        "neighbourhood": null,
        "suburb": "Donzonga دونزونقا",
        "city_district": null,
        "city": "Faya-Largeau",
        "state": "Borkou",
        "postcode": null,
        "country": "Chad",
        "country_code": "td"
      },
      "address": "884, Donzonga دونزونقا, Faya-Largeau, 04877 Borkou, Chad"
    },
    {
      "lat": 17.88784919805304,
      "lon": 19.119593177993124,
      "geoinfo": {
        "display_name": "Faya-Largeau, Borkou, Chad",
        "road": null,
        "house_number": null,
        "neighbourhood": null,
        "suburb": null,
        "city_district": null,
        "city": "Faya-Largeau",
        "state": "Borkou",
        "postcode": null,
        "country": "Chad",
        "country_code": "td"
      },
      "address": "967, Faya-Largeau, 34582 Borkou, Chad"
    }
  ],
  "updated_at": "2025-10-19T06:45:31.157188+00:00",
  "_kind": "geo_samples"
}