{
  "country_code": "TD",
  "country": "Chad",
  "city": "Guelendeng",
  "geonameid": 2431573,
  "target_addresses": 3,
  "samples": [
    {
      "lat": 10.916117099780479,
      "lon": 15.513894491256696,
      "geoinfo": {
        "display_name": "Ouroul Oua, Guélendeng, Mayo-Kebbi Est, Chad",
        "road": null,
        "house_number": null,
        "neighbourhood": null,
        "suburb": null,
        "city_district": null,
        "city": "Guélendeng",
        "state": "Mayo-Kebbi Est",
        "postcode": null,
        "country": "Chad",
        "country_code": "td"
      },
      "address": "Guelendeng, Mayo-Kebbi Est, Chad"
    },
    {
      "lat": 10.889162837580134,
      "lon": 15.544136504458688,
      "geoinfo": {
        "display_name": "انجمينا-موندو, Miti witi, Mayo-Kebbi Est, Chad",
        "road": "انجمينا-موندو",
        "house_number": null,
        "neighbourhood": null,
        "suburb": null,
        "city_district": null,
        "city": "Miti witi",
        "state": "Mayo-Kebbi Est",
        "postcode": null,
        "country": "Chad",
        "country_code": "td"
      },
      "address": "انجمينا-موندو, Guelendeng, Mayo-Kebbi Est, Chad"
    },
    {
      "lat": 10.899894071559421,
      "lon": 15.508361712923783,
      "geoinfo": {
        "display_name": "Dabela, Guélendeng, Mayo-Kebbi Est, Chad",
        "road": null,
        "house_number": null,
        "neighbourhood": null,
        "suburb": null,
        "city_district": null,
        "city": "Guélendeng",
        "state": "Mayo-Kebbi Est",
        "postcode": null,
        "country": "Chad",
        "country_code": "td"
      },
      "address": "589, Guelendeng, 48283 Mayo-Kebbi Est, Chad"
    },
    {
      "lat": 10.940383029967183,
      "lon": 15.53011068701554,
      "geoinfo": {
        "display_name": "Médégué, Guélendeng, Mayo-Kebbi Est, Chad",
        "road": null,
        "house_number": null,
        "neighbourhood": null,
        "suburb": null,
        "city_district": null,
        "city": "Guélendeng",
        "state": "Mayo-Kebbi Est",
        "postcode": null,
        "country": "Chad",
        "country_code": "td"
      },
      "address": "072, Guelendeng, 31597 Mayo-Kebbi Est, Chad"
    },
    {
      "lat": 10.923413364773777,
      "lon": 15.547580315237582,
      "geoinfo": {
        "display_name": "Guélendeng, Mayo-Kebbi Est, Chad",
        "road": null,
        "house_number": null,
        "neighbourhood": null,
        "suburb": null,
        "city_district": null,
        "city": "Guélendeng",
        "state": "Mayo-Kebbi Est",
        "postcode": null,
        "country": "Chad",
        "country_code": "td"
      },
      "address": "460, Guelendeng, 13667 Mayo-Kebbi Est, Chad"
    }
  ],
  "updated_at": "2025-10-19T04:58:57.354121+00:00",
  "_kind": "geo_samples"
}