{
  "country_code": "TD",
  "country": "Chad",
  "city": "Kelo",
  "geonameid": 2430506,
  "target_addresses": 3,
  "samples": [
    {
      "lat": 9.31612096608657,
      "lon": 15.845522760572448,
      "geoinfo": {
        "display_name": "Kelo-Bere-Lai, Débrang, Kelo, Tandjilé, Chad",
        "road": "Kelo-Bere-Lai",
        "house_number": null,
        "neighbourhood": null,
        "suburb": null,
        "city_district": null,
        "city": "Kelo",
        "state": "Tandjilé",
        "postcode": null,
        "country": "Chad",
        "country_code": "td"
      },
      "address": "Kelo-Bere-Lai, Kelo, Tandjilé, Chad"
    },
    {
      "lat": 9.325261292890628,
      "lon": 15.84327364782982,
      "geoinfo": {
        "display_name": "Débrang, Kelo, Tandjilé, Chad",
        "road": null,
        "house_number": null,
        "neighbourhood": null,
        "suburb": null,
        "city_district": null,
        "city": "Kelo",
        "state": "Tandjilé",
        "postcode": null,
        "country": "Chad",
        "country_code": "td"
      },
      "address": "Kelo, Tandjilé, Chad"
    },
    {
      "lat": 9.315725656490876,
      "lon": 15.842543693930677,
      "geoinfo": {
        "display_name": "Kelo, Débrang, Kelo, Tandjilé, Chad",
        "road": null,
        "house_number": null,
        "neighbourhood": null,
        "suburb": null,
        "city_district": null,
        "city": "Kelo",
        "state": "Tandjilé",
        "postcode": null,
        "country": "Chad",
        "country_code": "td"
      },
      "address": "514, Kelo, Débrang, Kelo, 59280 Tandjilé, Chad"
    },
    {
      "lat": 9.339483248298855,
      "lon": 15.800925992652806,
      "geoinfo": {
        "display_name": "Kelo - Djuman - Bongor, Kelo, Kososey, Bakchoro, Tandjilé, Chad",
        "road": "Kelo - Djuman - Bongor",
        "house_number": null,
        "neighbourhood": null,
        "suburb": null,
        "city_district": null,
        "city": "Bakchoro",
        "state": "Tandjilé",
        "postcode": null,
        "country": "Chad",
        "country_code": "td"
      },
      "address": "431, Kelo - Djuman - Bongor, Kelo, Kososey, Bakchoro, 65027 Tandjilé, Chad"
    },
    {
      "lat": 9.311664822683671,
      "lon": 15.8411719135016,
      "geoinfo": {
        "display_name": "Kelo, Débrang, Kelo, Tandjilé, Chad",
        "road": null,
        "house_number": null,
        "neighbourhood": null,
        "suburb": null,
        "city_district": null,
        "city": "Kelo",
        "state": "Tandjilé",
        "postcode": null,
        "country": "Chad",
        "country_code": "td"
      },
      "address": "819, Kelo, Débrang, Kelo, 35474 Tandjilé, Chad"
    }
  ],
  "updated_at": "2025-10-19T07:06:12.002987+00:00",
  "_kind": "geo_samples"
}