{
  "country_code": "TD",
  "country": "Chad",
  "city": "Koumra",
  "geonameid": 2429605,
  "target_addresses": 3,
  "samples": [
    {
      "lat": 8.93908345633798,
      "lon": 17.52855419244298,
      "geoinfo": {
        "display_name": "Koumra, Mandoul Oriental, Mandoul, Chad",
        "road": null,
        "house_number": null,
        "neighbourhood": null,
        "suburb": null,
        "city_district": null,
        "city": "Koumra",
        "state": "Mandoul",
        "postcode": null,
        "country": "Chad",
        "country_code": "td"
      },
      "address": "Koumra, Mandoul, Chad"
    },
    {
      "lat": 8.89430698165974,
      "lon": 17.545355028605844,
      "geoinfo": {
        "display_name": "Massa-Mission, Ardef, Koumra, Mandoul Oriental, Mandoul, Chad",
        "road": null,
        "house_number": null,
        "neighbourhood": "Massa-Mission",
        "suburb": null,
        "city_district": null,
        "city": "Koumra",
        "state": "Mandoul",
        "postcode": null,
        "country": "Chad",
        "country_code": "td"
      },
      "address": "Massa-Mission, Koumra, Mandoul, Chad"
    },
    {
      "lat": 8.935747837560204,
      "lon": 17.509952559806006,
      "geoinfo": {
        "display_name": "Ngomana, Koumra, Mandoul Oriental, Mandoul, Chad",
        "road": null,
        "house_number": null,
        "neighbourhood": "Ngomana",
        "suburb": null,
        "city_district": null,
        "city": "Koumra",
        "state": "Mandoul",
        "postcode": null,
        "country": "Chad",
        "country_code": "td"
      },
      "address": "Ngomana, Koumra, Mandoul, Chad"
    },
    {
      "lat": 8.937657428679234,
      "lon": 17.514468355575765,
      "geoinfo": {
        "display_name": "Ngomana, Koumra, Mandoul Oriental, Mandoul, Chad",
        "road": null,
        "house_number": null,
        "neighbourhood": "Ngomana",
        "suburb": null,
        "city_district": null,
        "city": "Koumra",
        "state": "Mandoul",
        "postcode": null,
        "country": "Chad",
        "country_code": "td"
      },
      "address": "574, Ngomana, Koumra, Mandoul Oriental, 69664 Mandoul, Chad"
    },
    {
      "lat": 8.917222213600702,
      "lon": 17.505737063259303,
      "geoinfo": {
        "display_name": "Koumra, Mandoul Oriental, Mandoul, Chad",
        "road": null,
        "house_number": null,
        "neighbourhood": null,
        "suburb": null,
        "city_district": null,
        "city": "Koumra",
        "state": "Mandoul",
        "postcode": null,
        "country": "Chad",
        "country_code": "td"
      },
      "address": "164, Koumra, Mandoul Oriental, 72947 Mandoul, Chad"
    },
    {
      "lat": 8.889993786188956,
      "lon": 17.586789157206834,
      "geoinfo": {
        "display_name": "Bingueli, Koumra, Mandoul Oriental, Mandoul, Chad",
        "road": null,
        "house_number": null,
        "neighbourhood": null,
        "suburb": null,
        "city_district": null,
        "city": "Koumra",
        "state": "Mandoul",
        "postcode": null,
        "country": "Chad",
        "country_code": "td"
      },
      "address": "100, Bingueli, Koumra, Mandoul Oriental, 17500 Mandoul, Chad"
    }
  ],
  "updated_at": "2025-10-19T07:13:04.606601+00:00",
  "_kind": "geo_samples"
}