{
  "country_code": "TD",
  "country": "Chad",
  "city": "Kyabé",
  "geonameid": 2429344,
  "target_addresses": 3,
  "samples": [
    {
      "lat": 9.424936024585003,
      "lon": 18.964228591478268,
      "geoinfo": {
        "display_name": "Kitoko, Moyen-Chari, Chad",
        "road": null,
        "house_number": null,
        "neighbourhood": null,
        "suburb": null,
        "city_district": null,
        "city": "Kitoko",
        "state": "Moyen-Chari",
        "postcode": null,
        "country": "Chad",
        "country_code": "td"
      },
      "address": "Kyabé, Moyen-Chari, Chad"
    },
    {
      "lat": 9.456171558632576,
      "lon": 18.904678819976443,
      "geoinfo": {
        "display_name": "Sarh - Kyabe - Am Timan, Tamandi, Bebolo, Moyen-Chari, Chad",
        "road": "Sarh - Kyabe - Am Timan",
        "house_number": null,
        "neighbourhood": null,
        "suburb": null,
        "city_district": null,
        "city": "Bebolo",
        "state": "Moyen-Chari",
        "postcode": null,
        "country": "Chad",
        "country_code": "td"
      },
      "address": "Sarh - Kyabe - Am Timan, Kyabé, Moyen-Chari, Chad"
    },
    {
      "lat": 9.436193380773696,
      "lon": 18.93832207851308,
      "geoinfo": {
        "display_name": "Beya, Kyabé, Moyen-Chari, Chad",
        "road": null,
        "house_number": null,
        "neighbourhood": "Beya",
        "suburb": null,
        "city_district": null,
        "city": "Kyabé",
        "state": "Moyen-Chari",
        "postcode": null,
        "country": "Chad",
        "country_code": "td"
      },
      "address": "Beya, Kyabé, Moyen-Chari, Chad"
    },
    {
      "lat": 9.42625189167939,
      "lon": 18.912261184654234,
      "geoinfo": {
        "display_name": "Magou, Hania, Tatomoh, Moyen-Chari, Chad",
        "road": null,
        "house_number": null,
        "neighbourhood": "Magou",
        "suburb": null,
        "city_district": null,
        "city": "Tatomoh",
        "state": "Moyen-Chari",
        "postcode": null,
        "country": "Chad",
        "country_code": "td"
      },
      "address": "426, Magou, Kyabé, 86257 Moyen-Chari, Chad"
    },
    {
      "lat": 9.461618701461926,
      "lon": 18.91638500834703,
      "geoinfo": {
        "display_name": "Ndingambo, Kyabé, Moyen-Chari, Chad",
        "road": null,
        "house_number": null,
        "neighbourhood": null,
        "suburb": null,
        "city_district": null,
        "city": "Kyabé",
        "state": "Moyen-Chari",
        "postcode": null,
        "country": "Chad",
        "country_code": "td"
      },
      "address": "246, Ndingambo, Kyabé, 59182 Moyen-Chari, Chad"
    },
    {
      "lat": 9.432838582241972,
      "lon": 18.908919547489994,
      "geoinfo": {
        "display_name": "Magou, Hania, Grouie, Moyen-Chari, Chad",
        "road": null,
        "house_number": null,
        "neighbourhood": "Magou",
        "suburb": null,
        "city_district": null,
        "city": "Grouie",
        "state": "Moyen-Chari",
        "postcode": null,
        "country": "Chad",
        "country_code": "td"
      },
      "address": "909, Magou, Kyabé, 51215 Moyen-Chari, Chad"
    }
  ],
  "updated_at": "2025-10-19T05:42:56.806412+00:00",
  "_kind": "geo_samples"
}