{
  "country_code": "TD",
  "country": "Chad",
  "city": "Laï",
  "geonameid": 2429296,
  "target_addresses": 3,
  "samples": [
    {
      "lat": 9.40562234537621,
      "lon": 16.310807048259658,
      "geoinfo": {
        "display_name": "Laï, Tandjilé, Chad",
        "road": null,
        "house_number": null,
        "neighbourhood": null,
        "suburb": null,
        "city_district": null,
        "city": "Laï",
        "state": "Tandjilé",
        "postcode": null,
        "country": "Chad",
        "country_code": "td"
      },
      "address": "Laï, Tandjilé, Chad"
    },
    {
      "lat": 9.3968665102761,
      "lon": 16.28625992120167,
      "geoinfo": {
        "display_name": "Kelo-Bere-Lai, Laï, Tandjilé, Chad",
        "road": "Kelo-Bere-Lai",
        "house_number": null,
        "neighbourhood": null,
        "suburb": null,
        "city_district": null,
        "city": "Laï",
        "state": "Tandjilé",
        "postcode": null,
        "country": "Chad",
        "country_code": "td"
      },
      "address": "Kelo-Bere-Lai, Laï, Tandjilé, Chad"
    },
    {
      "lat": 9.384943960867211,
      "lon": 16.322221964455537,
      "geoinfo": {
        "display_name": "Djoun, Laï, Tandjilé, Chad",
        "road": null,
        "house_number": null,
        "neighbourhood": null,
        "suburb": null,
        "city_district": null,
        "city": "Laï",
        "state": "Tandjilé",
        "postcode": null,
        "country": "Chad",
        "country_code": "td"
      },
      "address": "298, Djoun, Laï, 34666 Tandjilé, Chad"
    },
    {
      "lat": 9.359155751904863,
      "lon": 16.295832473886268,
      "geoinfo": {
        "display_name": "Gabri Mbassa, Laï, Tandjilé, Chad",
        "road": null,
        "house_number": null,
        "neighbourhood": null,
        "suburb": null,
        "city_district": null,
        "city": "Laï",
        "state": "Tandjilé",
        "postcode": null,
        "country": "Chad",
        "country_code": "td"
      },
      "address": "014, Gabri Mbassa, Laï, 73967 Tandjilé, Chad"
    },
    {
      "lat": 9.384281561864425,
      "lon": 16.312251184390618,
      "geoinfo": {
        "display_name": "Djoun, Laï, Tandjilé, Chad",
        "road": null,
        "house_number": null,
        "neighbourhood": null,
        "suburb": null,
        "city_district": null,
        "city": "Laï",
        "state": "Tandjilé",
        "postcode": null,
        "country": "Chad",
        "country_code": "td"
      },
      "address": "025, Djoun, Laï, 98436 Tandjilé, Chad"
    }
  ],
  "updated_at": "2025-10-19T07:05:49.300234+00:00",
  "_kind": "geo_samples"
}