{
  "country_code": "TD",
  "country": "Chad",
  "city": "Mangalmé",
  "geonameid": 2428450,
  "target_addresses": 7,
  "samples": [
    {
      "lat": 12.367511737065241,
      "lon": 19.61121040809786,
      "geoinfo": {
        "display_name": "Mangalmé, Kortchalo, Mangalmé, Guéra, Chad",
        "road": null,
        "house_number": null,
        "neighbourhood": null,
        "suburb": null,
        "city_district": null,
        "city": "Mangalmé",
        "state": "Guéra",
        "postcode": null,
        "country": "Chad",
        "country_code": "td"
      },
      "address": "Mangalmé, Guéra, Chad"
    },
    {
      "lat": 12.383523406361865,
      "lon": 19.63011121167699,
      "geoinfo": {
        "display_name": "Mongo - Mangalme Regional Road, Mangalmé, Kortchalo, Mangalmé, Guéra, Chad",
        "road": "Mongo - Mangalme Regional Road",
        "house_number": null,
        "neighbourhood": null,
        "suburb": null,
        "city_district": null,
        "city": "Mangalmé",
        "state": "Guéra",
        "postcode": null,
        "country": "Chad",
        "country_code": "td"
      },
      "address": "Mongo - Mangalme Regional Road, Mangalmé, Guéra, Chad"
    },
    {
      "lat": 12.379532057565791,
      "lon": 19.624057991036885,
      "geoinfo": {
        "display_name": "Mongo - Mangalme Regional Road, Mangalmé, Kortchalo, Mangalmé, Guéra, Chad",
        "road": "Mongo - Mangalme Regional Road",
        "house_number": null,
        "neighbourhood": null,
        "suburb": null,
        "city_district": null,
        "city": "Mangalmé",
        "state": "Guéra",
        "postcode": null,
        "country": "Chad",
        "country_code": "td"
      },
      "address": "633, Mongo - Mangalme Regional Road, Mangalmé, Kortchalo, Mangalmé, 20439 Guéra, Chad"
    },
    {
      "lat": 12.366995642249181,
      "lon": 19.582546152935628,
      "geoinfo": {
        "display_name": "Mangalmé, Kortchalo, Mangalmé, Guéra, Chad",
        "road": null,
        "house_number": null,
        "neighbourhood": null,
        "suburb": null,
        "city_district": null,
        "city": "Mangalmé",
        "state": "Guéra",
        "postcode": null,
        "country": "Chad",
        "country_code": "td"
      },
      "address": "915, Mangalmé, Kortchalo, Mangalmé, 54073 Guéra, Chad"
    },
    {
      "lat": 12.35116303224394,
      "lon": 19.616052513723403,
      "geoinfo": {
        "display_name": "Mongo - Mangalme Regional Road, Ragé, Madoul, Guéra, Chad",
        "road": "Mongo - Mangalme Regional Road",
        "house_number": null,
        "neighbourhood": null,
        "suburb": null,
        "city_district": null,
        "city": "Madoul",
        "state": "Guéra",
        "postcode": null,
        "country": "Chad",
        "country_code": "td"
      },
      "address": "818, Mongo - Mangalme Regional Road, Ragé, Madoul, 48233 Guéra, Chad"
    },
    {
      "lat": 12.317528591471191,
      "lon": 19.631933420778523,
      "geoinfo": {
        "display_name": "Madoul Tilegey Road, Roal Kélib, Iréygé Kébir, Guéra, Chad",
        "road": "Madoul Tilegey Road",
        "house_number": null,
        "neighbourhood": null,
        "suburb": null,
        "city_district": null,
        "city": "Iréygé Kébir",
        "state": "Guéra",
        "postcode": null,
        "country": "Chad",
        "country_code": "td"
      },
      "address": "830, Madoul Tilegey Road, Mangalmé, 51207 Guéra, Chad"
    },
    {
      "lat": 12.393124936953697,
      "lon": 19.635725122845216,
      "geoinfo": {
        "display_name": "Mongo - Mangalme Regional Road, Mangalmé, Kortchalo, Mangalmé, Guéra, Chad",
        "road": "Mongo - Mangalme Regional Road",
        "house_number": null,
        "neighbourhood": null,
        "suburb": null,
        "city_district": null,
        "city": "Mangalmé",
        "state": "Guéra",
        "postcode": null,
        "country": "Chad",
        "country_code": "td"
      },
      "address": "995, Mongo - Mangalme Regional Road, Mangalmé, Kortchalo, Mangalmé, 84501 Guéra, Chad"
    }
  ],
  "updated_at": "2025-10-19T06:27:14.550466+00:00",
  "_kind": "geo_samples"
}