{
  "country_code": "TD",
  "country": "Chad",
  "city": "Moussoro",
  "geonameid": 2427336,
  "target_addresses": 3,
  "samples": [
    {
      "lat": 13.636467838309835,
      "lon": 16.46054388175742,
      "geoinfo": {
        "display_name": "Ariatjou, Bahr el Gazel, Chad",
        "road": null,
        "house_number": null,
        "neighbourhood": null,
        "suburb": null,
        "city_district": null,
        "city": "Ariatjou",
        "state": "Bahr el Gazel",
        "postcode": null,
        "country": "Chad",
        "country_code": "td"
      },
      "address": "Moussoro, Bahr el Gazel, Chad"
    },
    {
      "lat": 13.64757364001438,
      "lon": 16.50983039875728,
      "geoinfo": {
        "display_name": "Hillé Billah, Moussoro, Bahr el Gazel, Chad",
        "road": null,
        "house_number": null,
        "neighbourhood": null,
        "suburb": "Hillé Billah",
        "city_district": null,
        "city": "Moussoro",
        "state": "Bahr el Gazel",
        "postcode": null,
        "country": "Chad",
        "country_code": "td"
      },
      "address": "Hillé Billah, Moussoro, Bahr el Gazel, Chad"
    },
    {
      "lat": 13.648504625361634,
      "lon": 16.479585409038815,
      "geoinfo": {
        "display_name": "Torodona, Moussoro, Bahr el Gazel, Chad",
        "road": null,
        "house_number": null,
        "neighbourhood": null,
        "suburb": "Torodona",
        "city_district": null,
        "city": "Moussoro",
        "state": "Bahr el Gazel",
        "postcode": null,
        "country": "Chad",
        "country_code": "td"
      },
      "address": "Torodona, Moussoro, Bahr el Gazel, Chad"
    },
    {
      "lat": 13.641498736632956,
      "lon": 16.533108939856593,
      "geoinfo": {
        "display_name": "Moussoro, Bahr el Gazel, Chad",
        "road": null,
        "house_number": null,
        "neighbourhood": null,
        "suburb": null,
        "city_district": null,
        "city": "Moussoro",
        "state": "Bahr el Gazel",
        "postcode": null,
        "country": "Chad",
        "country_code": "td"
      },
      "address": "354, Moussoro, 71842 Bahr el Gazel, Chad"
    },
    {
      "lat": 13.636146072975516,
      "lon": 16.527782313654754,
      "geoinfo": {
        "display_name": "Elima, Moussoro, Bahr el Gazel, Chad",
        "road": null,
        "house_number": null,
        "neighbourhood": null,
        "suburb": null,
        "city_district": null,
        "city": "Moussoro",
        "state": "Bahr el Gazel",
        "postcode": null,
        "country": "Chad",
        "country_code": "td"
      },
      "address": "442, Elima, Moussoro, 78727 Bahr el Gazel, Chad"
    },
    {
      "lat": 13.651521124696538,
      "lon": 16.506497375054874,
      "geoinfo": {
        "display_name": "Hillé Billah, Moussoro, Bahr el Gazel, Chad",
        "road": null,
        "house_number": null,
        "neighbourhood": null,
        "suburb": "Hillé Billah",
        "city_district": null,
        "city": "Moussoro",
        "state": "Bahr el Gazel",
        "postcode": null,
        "country": "Chad",
        "country_code": "td"
      },
      "address": "762, Hillé Billah, Moussoro, 00661 Bahr el Gazel, Chad"
    }
  ],
  "updated_at": "2025-10-19T07:05:35.239047+00:00",
  "_kind": "geo_samples"
}