{
  "country_code": "TD",
  "country": "Chad",
  "city": "Moïssala",
  "geonameid": 2427697,
  "target_addresses": 3,
  "samples": [
    {
      "lat": 8.36206751183621,
      "lon": 17.798362254319017,
      "geoinfo": {
        "display_name": "Mouskandjan, Mandoul, Chad",
        "road": null,
        "house_number": null,
        "neighbourhood": null,
        "suburb": null,
        "city_district": null,
        "city": "Mouskandjan",
        "state": "Mandoul",
        "postcode": null,
        "country": "Chad",
        "country_code": "td"
      },
      "address": "Moïssala, Mandoul, Chad"
    },
    {
      "lat": 8.338764960059935,
      "lon": 17.766697152299113,
      "geoinfo": {
        "display_name": "Moïssala Poste, Moissala, Mandoul, Chad",
        "road": null,
        "house_number": null,
        "neighbourhood": "Moïssala Poste",
        "suburb": null,
        "city_district": null,
        "city": "Moissala",
        "state": "Mandoul",
        "postcode": null,
        "country": "Chad",
        "country_code": "td"
      },
      "address": "Moïssala Poste, Moïssala, Mandoul, Chad"
    },
    {
      "lat": 8.347612453196321,
      "lon": 17.7482291377974,
      "geoinfo": {
        "display_name": "Tétindaya, Nangaba, Dobo, Mandoul, Chad",
        "road": null,
        "house_number": null,
        "neighbourhood": "Tétindaya",
        "suburb": null,
        "city_district": null,
        "city": "Dobo",
        "state": "Mandoul",
        "postcode": null,
        "country": "Chad",
        "country_code": "td"
      },
      "address": "Tétindaya, Moïssala, Mandoul, Chad"
    },
    {
      "lat": 8.312953109577741,
      "lon": 17.737206818068934,
      "geoinfo": {
        "display_name": "Moïssala Poste, Ferrick 1, Sangoulou, Mandoul, Chad",
        "road": null,
        "house_number": null,
        "neighbourhood": "Moïssala Poste",
        "suburb": null,
        "city_district": null,
        "city": "Sangoulou",
        "state": "Mandoul",
        "postcode": null,
        "country": "Chad",
        "country_code": "td"
      },
      "address": "405, Moïssala Poste, Moïssala, 01597 Mandoul, Chad"
    },
    {
      "lat": 8.30683841745525,
      "lon": 17.777748526576246,
      "geoinfo": {
        "display_name": "Moissala road, Ndinankian, Maïkoubou, Mainodjo, Mandoul, Chad",
        "road": "Moissala road",
        "house_number": null,
        "neighbourhood": null,
        "suburb": null,
        "city_district": null,
        "city": "Mainodjo",
        "state": "Mandoul",
        "postcode": null,
        "country": "Chad",
        "country_code": "td"
      },
      "address": "864, Moissala road, Moïssala, 06854 Mandoul, Chad"
    },
    {
      "lat": 8.322545204586737,
      "lon": 17.780637841210837,
      "geoinfo": {
        "display_name": "Moissala road, Ndinankian, Maïkoubou, Mainodjo, Mandoul, Chad",
        "road": "Moissala road",
        "house_number": null,
        "neighbourhood": null,
        "suburb": null,
        "city_district": null,
        "city": "Mainodjo",
        "state": "Mandoul",
        "postcode": null,
        "country": "Chad",
        "country_code": "td"
      },
      "address": "461, Moissala road, Moïssala, 42615 Mandoul, Chad"
    }
  ],
  "updated_at": "2025-10-19T10:12:13.408643+00:00",
  "_kind": "geo_samples"
}