{
  "country_code": "TD",
  "country": "Chad",
  "city": "Umm Hājar",
  "geonameid": 2426370,
  "target_addresses": 7,
  "samples": [
    {
      "lat": 13.297888953155336,
      "lon": 19.67231571849753,
      "geoinfo": {
        "display_name": "Umm Hajar, Doungous, Umm Hajar, Batha, Chad",
        "road": null,
        "house_number": null,
        "neighbourhood": null,
        "suburb": null,
        "city_district": null,
        "city": "Umm Hajar",
        "state": "Batha",
        "postcode": null,
        "country": "Chad",
        "country_code": "td"
      },
      "address": "Umm Hājar, Batha, Chad"
    },
    {
      "lat": 13.27825245863623,
      "lon": 19.706005770371895,
      "geoinfo": {
        "display_name": "Mongo - Mangalme Regional Road, Umm Hajar, Chémité, Umm Hajar, Batha, Chad",
        "road": "Mongo - Mangalme Regional Road",
        "house_number": null,
        "neighbourhood": null,
        "suburb": null,
        "city_district": null,
        "city": "Umm Hajar",
        "state": "Batha",
        "postcode": null,
        "country": "Chad",
        "country_code": "td"
      },
      "address": "Mongo - Mangalme Regional Road, Umm Hājar, Batha, Chad"
    },
    {
      "lat": 13.3058571259598,
      "lon": 19.72689380934395,
      "geoinfo": {
        "display_name": "طريق أبشي-أتي-انجمينا Abéché - Ati - N'Djaména, Salma, Dalakina, Umm Hajar, Batha, Chad",
        "road": "طريق أبشي-أتي-انجمينا Abéché - Ati - N'Djaména",
        "house_number": null,
        "neighbourhood": null,
        "suburb": null,
        "city_district": null,
        "city": "Umm Hajar",
        "state": "Batha",
        "postcode": null,
        "country": "Chad",
        "country_code": "td"
      },
      "address": "طريق أبشي-أتي-انجمينا Abéché - Ati - N'Djaména, Umm Hājar, Batha, Chad"
    },
    {
      "lat": 13.252443225262429,
      "lon": 19.68860381283874,
      "geoinfo": {
        "display_name": "Mongo - Mangalme Regional Road, Umm Hajar, Chémité, Umm Hajar, Batha, Chad",
        "road": "Mongo - Mangalme Regional Road",
        "house_number": null,
        "neighbourhood": null,
        "suburb": null,
        "city_district": null,
        "city": "Umm Hajar",
        "state": "Batha",
        "postcode": null,
        "country": "Chad",
        "country_code": "td"
      },
      "address": "164, Mongo - Mangalme Regional Road, Umm Hajar, Chémité, Umm Hajar, 29707 Batha, Chad"
    },
    {
      "lat": 13.255099464068577,
      "lon": 19.70116052206089,
      "geoinfo": {
        "display_name": "Es Sit, Umm Hajar, Batha, Chad",
        "road": null,
        "house_number": null,
        "neighbourhood": null,
        "suburb": null,
        "city_district": null,
        "city": "Umm Hajar",
        "state": "Batha",
        "postcode": null,
        "country": "Chad",
        "country_code": "td"
      },
      "address": "017, Es Sit, Umm Hajar, 19491 Batha, Chad"
    },
    {
      "lat": 13.26484087667065,
      "lon": 19.722558077419308,
      "geoinfo": {
        "display_name": "Es Sit, Umm Hajar, Batha, Chad",
        "road": null,
        "house_number": null,
        "neighbourhood": null,
        "suburb": null,
        "city_district": null,
        "city": "Umm Hajar",
        "state": "Batha",
        "postcode": null,
        "country": "Chad",
        "country_code": "td"
      },
      "address": "994, Es Sit, Umm Hajar, 93030 Batha, Chad"
    },
    {
      "lat": 13.289099401645776,
      "lon": 19.661602562297052,
      "geoinfo": {
        "display_name": "Doungous, Umm Hajar, Batha, Chad",
        "road": null,
        "house_number": null,
        "neighbourhood": null,
        "suburb": null,
        "city_district": null,
        "city": "Umm Hajar",
        "state": "Batha",
        "postcode": null,
        "country": "Chad",
        "country_code": "td"
      },
      "address": "853, Doungous, Umm Hajar, 52860 Batha, Chad"
    },
    {
      "lat": 13.309452324900466,
      "lon": 19.658403516441098,
      "geoinfo": {
        "display_name": "Doungous, Umm Hajar, Batha, Chad",
        "road": null,
        "house_number": null,
        "neighbourhood": "Doungous",
        "suburb": null,
        "city_district": null,
        "city": "Umm Hajar",
        "state": "Batha",
        "postcode": null,
        "country": "Chad",
        "country_code": "td"
      },
      "address": "901, Doungous, Umm Hajar, 83176 Batha, Chad"
    }
  ],
  "updated_at": "2025-10-19T06:27:12.355075+00:00",
  "_kind": "geo_samples"
}