{
  "country_code": "YE",
  "country": "Yemen",
  "city": "Aden",
  "geonameid": 415189,
  "target_addresses": 5,
  "samples": [
    {
      "lat": 12.742797385151391,
      "lon": 45.02368183136513,
      "geoinfo": {
        "display_name": "Hai al Aidrus, Sira District, Aden City, Aden Governorate, Yemen",
        "road": null,
        "house_number": null,
        "neighbourhood": null,
        "suburb": "Hai al Aidrus",
        "city_district": null,
        "city": "Aden City",
        "state": "Aden Governorate",
        "postcode": null,
        "country": "Yemen",
        "country_code": "ye"
      },
      "address": "Hai al Aidrus, Aden, Aden Governorate, Yemen"
    },
    {
      "lat": 12.803931416069895,
      "lon": 45.048360159545105,
      "geoinfo": {
        "display_name": "Al Oroodh Square, Khawr Maksar, Khwar Maksar Dstrict, Aden City, Aden Governorate, Yemen",
        "road": null,
        "house_number": null,
        "neighbourhood": null,
        "suburb": "Khawr Maksar",
        "city_district": null,
        "city": "Aden City",
        "state": "Aden Governorate",
        "postcode": null,
        "country": "Yemen",
        "country_code": "ye"
      },
      "address": "Khawr Maksar, Aden, Aden Governorate, Yemen"
    },
    {
      "lat": 12.788967488217377,
      "lon": 45.01090153243852,
      "geoinfo": {
        "display_name": "الشارع الخلفي, Al Ma'ala, Al Ma`alla', Al Maalla District, Aden City, Aden Governorate, Yemen",
        "road": "الشارع الخلفي",
        "house_number": null,
        "neighbourhood": null,
        "suburb": "Al Ma`alla'",
        "city_district": null,
        "city": "Aden City",
        "state": "Aden Governorate",
        "postcode": null,
        "country": "Yemen",
        "country_code": "ye"
      },
      "address": "الشارع الخلفي, Aden, Aden Governorate, Yemen"
    },
    {
      "lat": 12.77299238585656,
      "lon": 44.99828868817678,
      "geoinfo": {
        "display_name": "التواهي, Hayy al Qulu`ah, At Tawahi District, Aden City, Aden Governorate, Yemen",
        "road": null,
        "house_number": null,
        "neighbourhood": null,
        "suburb": "Hayy al Qulu`ah",
        "city_district": null,
        "city": "Aden City",
        "state": "Aden Governorate",
        "postcode": null,
        "country": "Yemen",
        "country_code": "ye"
      },
      "address": "Hayy al Qulu`ah, Aden, Aden Governorate, Yemen"
    },
    {
      "lat": 12.802865634015772,
      "lon": 45.00438372309557,
      "geoinfo": {
        "display_name": "Maalla Jetty, Main Street, Al Ma'ala, Al Ma`alla', Al Maalla District, Aden City, Aden Governorate, Yemen",
        "road": "Main Street",
        "house_number": null,
        "neighbourhood": null,
        "suburb": "Al Ma`alla'",
        "city_district": null,
        "city": "Aden City",
        "state": "Aden Governorate",
        "postcode": null,
        "country": "Yemen",
        "country_code": "ye"
      },
      "address": "Main Street, Aden, Aden Governorate, Yemen"
    },
    {
      "lat": 12.77054562343112,
      "lon": 45.038922925418646,
      "geoinfo": {
        "display_name": "Crater, Sira District, Aden City, Aden Governorate, Yemen",
        "road": null,
        "house_number": null,
        "neighbourhood": null,
        "suburb": "Crater",
        "city_district": null,
        "city": "Aden City",
        "state": "Aden Governorate",
        "postcode": null,
        "country": "Yemen",
        "country_code": "ye"
      },
      "address": "720, Crater, Sira District, Aden City, 35574 Aden Governorate, Yemen"
    },
    {
      "lat": 12.797014218232489,
      "lon": 45.07608239955315,
      "geoinfo": {
        "display_name": "Sa'ada neighborhood, Khwar Maksar Dstrict, Aden City, Aden Governorate, Yemen",
        "road": null,
        "house_number": null,
        "neighbourhood": null,
        "suburb": "Sa'ada neighborhood",
        "city_district": null,
        "city": "Aden City",
        "state": "Aden Governorate",
        "postcode": null,
        "country": "Yemen",
        "country_code": "ye"
      },
      "address": "760, Sa'ada neighborhood, Khwar Maksar Dstrict, Aden City, 40205 Aden Governorate, Yemen"
    },
    {
      "lat": 12.766881764789707,
      "lon": 45.05962455911524,
      "geoinfo": {
        "display_name": "حي المعاشيق, Hai al Qati, Sira District, Aden City, Aden Governorate, Yemen",
        "road": null,
        "house_number": null,
        "neighbourhood": "حي المعاشيق",
        "suburb": "Hai al Qati",
        "city_district": null,
        "city": "Aden City",
        "state": "Aden Governorate",
        "postcode": null,
        "country": "Yemen",
        "country_code": "ye"
      },
      "address": "732, حي المعاشيق, Hai al Qati, Sira District, Aden City, 05745 Aden Governorate, Yemen"
    },
    {
      "lat": 12.792696036810831,
      "lon": 45.04184798557049,
      "geoinfo": {
        "display_name": "شارع العاقل, البادري, Al Alhalieh, Khwar Maksar Dstrict, Aden City, Aden Governorate, Yemen",
        "road": "شارع العاقل",
        "house_number": null,
        "neighbourhood": "البادري",
        "suburb": "Al Alhalieh",
        "city_district": null,
        "city": "Aden City",
        "state": "Aden Governorate",
        "postcode": null,
        "country": "Yemen",
        "country_code": "ye"
      },
      "address": "567, شارع العاقل, البادري, Al Alhalieh, Khwar Maksar Dstrict, Aden City, 22768 Aden Governorate, Yemen"
    },
    {
      "lat": 12.761057627527414,
      "lon": 45.040656117260276,
      "geoinfo": {
        "display_name": "حي المعاشيق, Hai al Qati, Sira District, Aden City, Aden Governorate, Yemen",
        "road": null,
        "house_number": null,
        "neighbourhood": "حي المعاشيق",
        "suburb": "Hai al Qati",
        "city_district": null,
        "city": "Aden City",
        "state": "Aden Governorate",
        "postcode": null,
        "country": "Yemen",
        "country_code": "ye"
      },
      "address": "714, حي المعاشيق, Hai al Qati, Sira District, Aden City, 02246 Aden Governorate, Yemen"
    }
  ],
  "updated_at": "2025-10-19T07:54:32.351391+00:00",
  "_kind": "geo_samples"
}