{
  "country_code": "YE",
  "country": "Yemen",
  "city": "Al Ḩazm",
  "geonameid": 79455,
  "target_addresses": 5,
  "samples": [
    {
      "lat": 16.17894250300517,
      "lon": 44.7835257304145,
      "geoinfo": {
        "display_name": "Al Batin, Hazm, Al Hazm district, Al Jawf Governorate, Yemen",
        "road": null,
        "house_number": null,
        "neighbourhood": null,
        "suburb": null,
        "city_district": null,
        "city": "Hazm",
        "state": "Al Jawf Governorate",
        "postcode": null,
        "country": "Yemen",
        "country_code": "ye"
      },
      "address": "Al Ḩazm, Al Jawf Governorate, Yemen"
    },
    {
      "lat": 16.163547113115257,
      "lon": 44.80665428210402,
      "geoinfo": {
        "display_name": "طريق رويك حزم الجوف, Abu Far, Hazm, Al Hazm district, Al Jawf Governorate, Yemen",
        "road": "طريق رويك حزم الجوف",
        "house_number": null,
        "neighbourhood": null,
        "suburb": null,
        "city_district": null,
        "city": "Hazm",
        "state": "Al Jawf Governorate",
        "postcode": null,
        "country": "Yemen",
        "country_code": "ye"
      },
      "address": "طريق رويك حزم الجوف, Al Ḩazm, Al Jawf Governorate, Yemen"
    },
    {
      "lat": 16.19883190050945,
      "lon": 44.79771726626071,
      "geoinfo": {
        "display_name": "Al Jawf AlBuq' Sa'dah Road, Al Hazm district, Al Jawf Governorate, Yemen",
        "road": "Al Jawf AlBuq' Sa'dah Road",
        "house_number": null,
        "neighbourhood": null,
        "suburb": null,
        "city_district": null,
        "city": null,
        "state": "Al Jawf Governorate",
        "postcode": null,
        "country": "Yemen",
        "country_code": "ye"
      },
      "address": "Al Jawf AlBuq' Sa'dah Road, Al Ḩazm, Al Jawf Governorate, Yemen"
    },
    {
      "lat": 16.133525078836723,
      "lon": 44.75258907839055,
      "geoinfo": {
        "display_name": "Al Jawf Road, Al Quhaqibah, Hazm, Al Hazm district, Al Jawf Governorate, Yemen",
        "road": "Al Jawf Road",
        "house_number": null,
        "neighbourhood": null,
        "suburb": null,
        "city_district": null,
        "city": "Hazm",
        "state": "Al Jawf Governorate",
        "postcode": null,
        "country": "Yemen",
        "country_code": "ye"
      },
      "address": "Al Jawf Road, Al Ḩazm, Al Jawf Governorate, Yemen"
    },
    {
      "lat": 16.169205164159933,
      "lon": 44.8007262802893,
      "geoinfo": {
        "display_name": "طريق رويك حزم الجوف, Abu Far, Hazm, Al Hazm district, Al Jawf Governorate, Yemen",
        "road": "طريق رويك حزم الجوف",
        "house_number": null,
        "neighbourhood": null,
        "suburb": null,
        "city_district": null,
        "city": "Hazm",
        "state": "Al Jawf Governorate",
        "postcode": null,
        "country": "Yemen",
        "country_code": "ye"
      },
      "address": "428, طريق رويك حزم الجوف, Abu Far, Hazm, Al Hazm district, 84404 Al Jawf Governorate, Yemen"
    },
    {
      "lat": 16.124595852626847,
      "lon": 44.76728633988549,
      "geoinfo": {
        "display_name": "Qawz adh Dhaybah, Al Hazm district, Al Jawf Governorate, Yemen",
        "road": null,
        "house_number": null,
        "neighbourhood": null,
        "suburb": null,
        "city_district": null,
        "city": null,
        "state": "Al Jawf Governorate",
        "postcode": null,
        "country": "Yemen",
        "country_code": "ye"
      },
      "address": "242, Qawz adh Dhaybah, Al Hazm district, 85186 Al Jawf Governorate, Yemen"
    },
    {
      "lat": 16.173510348774997,
      "lon": 44.770690671340354,
      "geoinfo": {
        "display_name": "Al Batin, Hazm, Al Hazm district, Al Jawf Governorate, Yemen",
        "road": null,
        "house_number": null,
        "neighbourhood": null,
        "suburb": null,
        "city_district": null,
        "city": "Hazm",
        "state": "Al Jawf Governorate",
        "postcode": null,
        "country": "Yemen",
        "country_code": "ye"
      },
      "address": "079, Al Batin, Hazm, Al Hazm district, 60273 Al Jawf Governorate, Yemen"
    },
    {
      "lat": 16.15961351875939,
      "lon": 44.77711905213272,
      "geoinfo": {
        "display_name": "Wasat as Suq, Hazm, Al Hazm district, Al Jawf Governorate, Yemen",
        "road": null,
        "house_number": null,
        "neighbourhood": null,
        "suburb": "Wasat as Suq",
        "city_district": null,
        "city": "Hazm",
        "state": "Al Jawf Governorate",
        "postcode": null,
        "country": "Yemen",
        "country_code": "ye"
      },
      "address": "185, Wasat as Suq, Hazm, Al Hazm district, 52767 Al Jawf Governorate, Yemen"
    },
    {
      "lat": 16.202647128878954,
      "lon": 44.7810458593162,
      "geoinfo": {
        "display_name": "Al Hazm district, Al Jawf Governorate, Yemen",
        "road": null,
        "house_number": null,
        "neighbourhood": null,
        "suburb": null,
        "city_district": null,
        "city": null,
        "state": "Al Jawf Governorate",
        "postcode": null,
        "country": "Yemen",
        "country_code": "ye"
      },
      "address": "408, Al Hazm district, 90970 Al Jawf Governorate, Yemen"
    }
  ],
  "updated_at": "2025-10-19T07:53:01.030843+00:00",
  "_kind": "geo_samples"
}