{
  "country_code": "YE",
  "country": "Yemen",
  "city": "Al Ḩudaydah",
  "geonameid": 79415,
  "target_addresses": 5,
  "samples": [
    {
      "lat": 14.768413506929573,
      "lon": 42.92918783878018,
      "geoinfo": {
        "display_name": "Al Kurnish, Al Hawak, Al Hudaydah Governorate, Yemen",
        "road": null,
        "house_number": null,
        "neighbourhood": null,
        "suburb": "Al Kurnish",
        "city_district": null,
        "city": null,
        "state": "Al Hudaydah Governorate",
        "postcode": null,
        "country": "Yemen",
        "country_code": "ye"
      },
      "address": "Al Kurnish, Al Ḩudaydah, Al Hudaydah Governorate, Yemen"
    },
    {
      "lat": 14.81394575733462,
      "lon": 42.94661069810701,
      "geoinfo": {
        "display_name": "Al Mughtaribin, Hodeidah, Al Hali District, Al Hudaydah Governorate, Yemen",
        "road": null,
        "house_number": null,
        "neighbourhood": null,
        "suburb": "Al Mughtaribin",
        "city_district": null,
        "city": "Hodeidah",
        "state": "Al Hudaydah Governorate",
        "postcode": null,
        "country": "Yemen",
        "country_code": "ye"
      },
      "address": "Al Mughtaribin, Al Ḩudaydah, Al Hudaydah Governorate, Yemen"
    },
    {
      "lat": 14.778664207763905,
      "lon": 42.97789968170144,
      "geoinfo": {
        "display_name": "Harat al Kulliyah, Hodeidah, Al Hawak, Al Hudaydah Governorate, Yemen",
        "road": null,
        "house_number": null,
        "neighbourhood": null,
        "suburb": "Harat al Kulliyah",
        "city_district": null,
        "city": "Hodeidah",
        "state": "Al Hudaydah Governorate",
        "postcode": null,
        "country": "Yemen",
        "country_code": "ye"
      },
      "address": "Harat al Kulliyah, Al Ḩudaydah, Al Hudaydah Governorate, Yemen"
    },
    {
      "lat": 14.777789049854682,
      "lon": 42.94402851486546,
      "geoinfo": {
        "display_name": "شارع الميناء, Shari` ad Durayhimi, Ar Rabsah, Al Hawak, Al Hudaydah Governorate, Yemen",
        "road": "شارع الميناء",
        "house_number": null,
        "neighbourhood": null,
        "suburb": "Shari` ad Durayhimi",
        "city_district": null,
        "city": "Ar Rabsah",
        "state": "Al Hudaydah Governorate",
        "postcode": null,
        "country": "Yemen",
        "country_code": "ye"
      },
      "address": "شارع الميناء, Al Ḩudaydah, Al Hudaydah Governorate, Yemen"
    },
    {
      "lat": 14.82281084864802,
      "lon": 42.95881504998403,
      "geoinfo": {
        "display_name": "Al Jutamiyah, Hodeidah, Al Hali District, Al Hudaydah Governorate, Yemen",
        "road": null,
        "house_number": null,
        "neighbourhood": null,
        "suburb": "Al Jutamiyah",
        "city_district": null,
        "city": "Hodeidah",
        "state": "Al Hudaydah Governorate",
        "postcode": null,
        "country": "Yemen",
        "country_code": "ye"
      },
      "address": "Al Jutamiyah, Al Ḩudaydah, Al Hudaydah Governorate, Yemen"
    },
    {
      "lat": 14.784053954602465,
      "lon": 42.92270839875327,
      "geoinfo": {
        "display_name": "As Sur, Hodeidah, Al Mina District, Al Hudaydah Governorate, Yemen",
        "road": null,
        "house_number": null,
        "neighbourhood": null,
        "suburb": "As Sur",
        "city_district": null,
        "city": "Hodeidah",
        "state": "Al Hudaydah Governorate",
        "postcode": null,
        "country": "Yemen",
        "country_code": "ye"
      },
      "address": "114, As Sur, Hodeidah, Al Mina District, 72265 Al Hudaydah Governorate, Yemen"
    },
    {
      "lat": 14.803514624721442,
      "lon": 42.96611426424574,
      "geoinfo": {
        "display_name": "40 Street, Zayid al Wusta, Hodeidah, Al Hali District, Al Hudaydah Governorate, Yemen",
        "road": "40 Street",
        "house_number": null,
        "neighbourhood": null,
        "suburb": "Zayid al Wusta",
        "city_district": null,
        "city": "Hodeidah",
        "state": "Al Hudaydah Governorate",
        "postcode": null,
        "country": "Yemen",
        "country_code": "ye"
      },
      "address": "40 Street, Zayid al Wusta, Hodeidah, Al Hali District, 85162 Al Hudaydah Governorate, Yemen"
    },
    {
      "lat": 14.810562302384865,
      "lon": 42.94121250768119,
      "geoinfo": {
        "display_name": "الحي التجاري, Harat al Qal`ah, Al Mina District, Al Hudaydah Governorate, Yemen",
        "road": null,
        "house_number": null,
        "neighbourhood": "الحي التجاري",
        "suburb": "Harat al Qal`ah",
        "city_district": null,
        "city": null,
        "state": "Al Hudaydah Governorate",
        "postcode": null,
        "country": "Yemen",
        "country_code": "ye"
      },
      "address": "616, الحي التجاري, Al Ḩudaydah, 77818 Al Hudaydah Governorate, Yemen"
    },
    {
      "lat": 14.80641823926757,
      "lon": 42.93942898801535,
      "geoinfo": {
        "display_name": "الحي التجاري, Suq al Hunud, Al Mina District, Al Hudaydah Governorate, Yemen",
        "road": null,
        "house_number": null,
        "neighbourhood": "الحي التجاري",
        "suburb": "Suq al Hunud",
        "city_district": null,
        "city": null,
        "state": "Al Hudaydah Governorate",
        "postcode": null,
        "country": "Yemen",
        "country_code": "ye"
      },
      "address": "898, الحي التجاري, Suq al Hunud, Al Mina District, 78150 Al Hudaydah Governorate, Yemen"
    },
    {
      "lat": 14.831375062879046,
      "lon": 42.933390616562214,
      "geoinfo": {
        "display_name": "الميناء, Al Bayda', Hodeidah, Al Hali District, Al Hudaydah Governorate, Yemen",
        "road": null,
        "house_number": null,
        "neighbourhood": null,
        "suburb": "Al Bayda'",
        "city_district": null,
        "city": "Hodeidah",
        "state": "Al Hudaydah Governorate",
        "postcode": null,
        "country": "Yemen",
        "country_code": "ye"
      },
      "address": "746, الميناء, Al Bayda', Hodeidah, Al Hali District, 93398 Al Hudaydah Governorate, Yemen"
    }
  ],
  "updated_at": "2025-10-19T07:52:44.498012+00:00",
  "_kind": "geo_samples"
}