{
  "country_code": "YE",
  "country": "Yemen",
  "city": "Bājil",
  "geonameid": 77408,
  "target_addresses": 5,
  "samples": [
    {
      "lat": 15.03867724355951,
      "lon": 43.2790154210659,
      "geoinfo": {
        "display_name": "طريق صنعاء الحديدة-الدائري, Bagil, Saddam, Al `Ubayd, Bajil District, Al Hudaydah Governorate, Yemen",
        "road": "طريق صنعاء الحديدة-الدائري",
        "house_number": null,
        "neighbourhood": null,
        "suburb": "Saddam",
        "city_district": null,
        "city": "Al `Ubayd",
        "state": "Al Hudaydah Governorate",
        "postcode": null,
        "country": "Yemen",
        "country_code": "ye"
      },
      "address": "طريق صنعاء الحديدة-الدائري, Bājil, Al Hudaydah Governorate, Yemen"
    },
    {
      "lat": 15.071757153546253,
      "lon": 43.303302079797106,
      "geoinfo": {
        "display_name": "خط صنعاء الحديدة, Bagil, Shari` `Ishrin, Bajil, Bajil District, Al Hudaydah Governorate, Yemen",
        "road": "خط صنعاء الحديدة",
        "house_number": null,
        "neighbourhood": null,
        "suburb": "Shari` `Ishrin",
        "city_district": null,
        "city": "Bajil",
        "state": "Al Hudaydah Governorate",
        "postcode": null,
        "country": "Yemen",
        "country_code": "ye"
      },
      "address": "خط صنعاء الحديدة, Bājil, Al Hudaydah Governorate, Yemen"
    },
    {
      "lat": 15.047687588738476,
      "lon": 43.24312702031776,
      "geoinfo": {
        "display_name": "Madinat al `Ummal, Dayr al Kubayh, Bajil District, Al Hudaydah Governorate, Yemen",
        "road": null,
        "house_number": null,
        "neighbourhood": null,
        "suburb": null,
        "city_district": null,
        "city": "Dayr al Kubayh",
        "state": "Al Hudaydah Governorate",
        "postcode": null,
        "country": "Yemen",
        "country_code": "ye"
      },
      "address": "Bājil, Al Hudaydah Governorate, Yemen"
    },
    {
      "lat": 15.039113291056436,
      "lon": 43.30362890422288,
      "geoinfo": {
        "display_name": "Al Markazi, Ad Darb, Bajil District, Al Hudaydah Governorate, Yemen",
        "road": null,
        "house_number": null,
        "neighbourhood": null,
        "suburb": "Al Markazi",
        "city_district": null,
        "city": "Ad Darb",
        "state": "Al Hudaydah Governorate",
        "postcode": null,
        "country": "Yemen",
        "country_code": "ye"
      },
      "address": "Al Markazi, Bājil, Al Hudaydah Governorate, Yemen"
    },
    {
      "lat": 15.080361917286416,
      "lon": 43.263100325359446,
      "geoinfo": {
        "display_name": "جديدة, R3003, Mahall az Zinaqah, Dayr al Bulaydim, Bajil District, Al Hudaydah Governorate, Yemen",
        "road": "R3003",
        "house_number": null,
        "neighbourhood": null,
        "suburb": null,
        "city_district": null,
        "city": "Dayr al Bulaydim",
        "state": "Al Hudaydah Governorate",
        "postcode": null,
        "country": "Yemen",
        "country_code": "ye"
      },
      "address": "R3003, Bājil, Al Hudaydah Governorate, Yemen"
    },
    {
      "lat": 15.04153284476552,
      "lon": 43.321237044282995,
      "geoinfo": {
        "display_name": "Mahall Muhammad Mahyub, Ad Diman, Bajil District, Al Hudaydah Governorate, Yemen",
        "road": null,
        "house_number": null,
        "neighbourhood": null,
        "suburb": null,
        "city_district": null,
        "city": "Ad Diman",
        "state": "Al Hudaydah Governorate",
        "postcode": null,
        "country": "Yemen",
        "country_code": "ye"
      },
      "address": "236, Bājil, 58142 Al Hudaydah Governorate, Yemen"
    },
    {
      "lat": 15.05776345643884,
      "lon": 43.33236407147608,
      "geoinfo": {
        "display_name": "Gharif, Bajil District, Al Hudaydah Governorate, Yemen",
        "road": null,
        "house_number": null,
        "neighbourhood": null,
        "suburb": null,
        "city_district": null,
        "city": null,
        "state": "Al Hudaydah Governorate",
        "postcode": null,
        "country": "Yemen",
        "country_code": "ye"
      },
      "address": "862, Gharif, Bajil District, 16498 Al Hudaydah Governorate, Yemen"
    },
    {
      "lat": 15.050003182454054,
      "lon": 43.31707141364547,
      "geoinfo": {
        "display_name": "Mahall Muhammad Mahyub, Ad Diman, Bajil District, Al Hudaydah Governorate, Yemen",
        "road": null,
        "house_number": null,
        "neighbourhood": null,
        "suburb": null,
        "city_district": null,
        "city": "Ad Diman",
        "state": "Al Hudaydah Governorate",
        "postcode": null,
        "country": "Yemen",
        "country_code": "ye"
      },
      "address": "911, Bājil, 93772 Al Hudaydah Governorate, Yemen"
    },
    {
      "lat": 15.051542517571622,
      "lon": 43.292420018146636,
      "geoinfo": {
        "display_name": "طريق صنعاء الحديدة-الدائري, Bagil, Saddam, Al `Ubayd, Bajil District, Al Hudaydah Governorate, Yemen",
        "road": "طريق صنعاء الحديدة-الدائري",
        "house_number": null,
        "neighbourhood": null,
        "suburb": "Saddam",
        "city_district": null,
        "city": "Al `Ubayd",
        "state": "Al Hudaydah Governorate",
        "postcode": null,
        "country": "Yemen",
        "country_code": "ye"
      },
      "address": "142, طريق صنعاء الحديدة-الدائري, Bājil, 54432 Al Hudaydah Governorate, Yemen"
    },
    {
      "lat": 15.096393239850851,
      "lon": 43.26294196601356,
      "geoinfo": {
        "display_name": "Al Fark, Bani Samin, Nawbat al Balkam, Bajil District, Al Hudaydah Governorate, Yemen",
        "road": null,
        "house_number": null,
        "neighbourhood": null,
        "suburb": null,
        "city_district": null,
        "city": "Nawbat al Balkam",
        "state": "Al Hudaydah Governorate",
        "postcode": null,
        "country": "Yemen",
        "country_code": "ye"
      },
      "address": "875, Al Fark, Bani Samin, Nawbat al Balkam, Bajil District, 28821 Al Hudaydah Governorate, Yemen"
    }
  ],
  "updated_at": "2025-10-19T07:32:35.720787+00:00",
  "_kind": "geo_samples"
}