{
  "country_code": "YE",
  "country": "Yemen",
  "city": "Dhamār",
  "geonameid": 76184,
  "target_addresses": 5,
  "samples": [
    {
      "lat": 14.555084528565585,
      "lon": 44.43340790461114,
      "geoinfo": {
        "display_name": "Al Madinah as Sakaniyah, Dhamar, Dhamar City District, Dhamar Governorate, Yemen",
        "road": null,
        "house_number": null,
        "neighbourhood": null,
        "suburb": "Al Madinah as Sakaniyah",
        "city_district": null,
        "city": "Dhamar",
        "state": "Dhamar Governorate",
        "postcode": null,
        "country": "Yemen",
        "country_code": "ye"
      },
      "address": "Al Madinah as Sakaniyah, Dhamār, Dhamar Governorate, Yemen"
    },
    {
      "lat": 14.515237591310079,
      "lon": 44.39718251880949,
      "geoinfo": {
        "display_name": "ذمار, As Sinima, Anss District, Dhamar Governorate, Yemen",
        "road": null,
        "house_number": null,
        "neighbourhood": null,
        "suburb": null,
        "city_district": null,
        "city": "As Sinima",
        "state": "Dhamar Governorate",
        "postcode": null,
        "country": "Yemen",
        "country_code": "ye"
      },
      "address": "Dhamār, Dhamar Governorate, Yemen"
    },
    {
      "lat": 14.56297301970481,
      "lon": 44.43682781340417,
      "geoinfo": {
        "display_name": "ذمار, Az Zubaydi, Hisn Zayd, Dhamar City District, Dhamar Governorate, Yemen",
        "road": null,
        "house_number": null,
        "neighbourhood": null,
        "suburb": "Az Zubaydi",
        "city_district": null,
        "city": "Hisn Zayd",
        "state": "Dhamar Governorate",
        "postcode": null,
        "country": "Yemen",
        "country_code": "ye"
      },
      "address": "Az Zubaydi, Dhamār, Dhamar Governorate, Yemen"
    },
    {
      "lat": 14.54323386780746,
      "lon": 44.43704440810533,
      "geoinfo": {
        "display_name": "Dhamar Bypass Road, ذمار, Sayh, Dhamar, Dhamar City District, Dhamar Governorate, Yemen",
        "road": "Dhamar Bypass Road",
        "house_number": null,
        "neighbourhood": null,
        "suburb": "Sayh",
        "city_district": null,
        "city": "Dhamar",
        "state": "Dhamar Governorate",
        "postcode": null,
        "country": "Yemen",
        "country_code": "ye"
      },
      "address": "Dhamar Bypass Road, Dhamār, Dhamar Governorate, Yemen"
    },
    {
      "lat": 14.55476877297946,
      "lon": 44.39790320205086,
      "geoinfo": {
        "display_name": "ذمار, Suq ar Rubu`, Dhamar, Dhamar City District, Dhamar Governorate, Yemen",
        "road": null,
        "house_number": null,
        "neighbourhood": null,
        "suburb": "Suq ar Rubu`",
        "city_district": null,
        "city": "Dhamar",
        "state": "Dhamar Governorate",
        "postcode": null,
        "country": "Yemen",
        "country_code": "ye"
      },
      "address": "Suq ar Rubu`, Dhamār, Dhamar Governorate, Yemen"
    },
    {
      "lat": 14.565766834451605,
      "lon": 44.381564479837756,
      "geoinfo": {
        "display_name": "ذمار, Al Jamarik, Dhamar, Dhamar City District, Dhamar Governorate, Yemen",
        "road": null,
        "house_number": null,
        "neighbourhood": null,
        "suburb": "Al Jamarik",
        "city_district": null,
        "city": "Dhamar",
        "state": "Dhamar Governorate",
        "postcode": null,
        "country": "Yemen",
        "country_code": "ye"
      },
      "address": "623, Al Jamarik, Dhamār, 31125 Dhamar Governorate, Yemen"
    },
    {
      "lat": 14.56281591328713,
      "lon": 44.42894431831281,
      "geoinfo": {
        "display_name": "ذمار, Az Zubaydi, Hisn Zayd, Dhamar City District, Dhamar Governorate, Yemen",
        "road": null,
        "house_number": null,
        "neighbourhood": null,
        "suburb": "Az Zubaydi",
        "city_district": null,
        "city": "Hisn Zayd",
        "state": "Dhamar Governorate",
        "postcode": null,
        "country": "Yemen",
        "country_code": "ye"
      },
      "address": "768, Az Zubaydi, Dhamār, 22506 Dhamar Governorate, Yemen"
    },
    {
      "lat": 14.503530231264174,
      "lon": 44.42061476109743,
      "geoinfo": {
        "display_name": "ذمار, Al Jurn, Anss District, Dhamar Governorate, Yemen",
        "road": null,
        "house_number": null,
        "neighbourhood": null,
        "suburb": null,
        "city_district": null,
        "city": "Al Jurn",
        "state": "Dhamar Governorate",
        "postcode": null,
        "country": "Yemen",
        "country_code": "ye"
      },
      "address": "497, ذمار, Al Jurn, Anss District, 00027 Dhamar Governorate, Yemen"
    },
    {
      "lat": 14.567333284781574,
      "lon": 44.41672124874513,
      "geoinfo": {
        "display_name": "Al Madinah as Sakaniyah, Dhamar, Dhamar City District, Dhamar Governorate, Yemen",
        "road": null,
        "house_number": null,
        "neighbourhood": null,
        "suburb": "Al Madinah as Sakaniyah",
        "city_district": null,
        "city": "Dhamar",
        "state": "Dhamar Governorate",
        "postcode": null,
        "country": "Yemen",
        "country_code": "ye"
      },
      "address": "722, Al Madinah as Sakaniyah, Dhamar, Dhamar City District, 45989 Dhamar Governorate, Yemen"
    },
    {
      "lat": 14.558577392494279,
      "lon": 44.39771811142666,
      "geoinfo": {
        "display_name": "ذمار, Sijn al Islahiyah, Dhamar, Dhamar City District, Dhamar Governorate, Yemen",
        "road": null,
        "house_number": null,
        "neighbourhood": null,
        "suburb": "Sijn al Islahiyah",
        "city_district": null,
        "city": "Dhamar",
        "state": "Dhamar Governorate",
        "postcode": null,
        "country": "Yemen",
        "country_code": "ye"
      },
      "address": "224, ذمار, Sijn al Islahiyah, Dhamar, Dhamar City District, 01456 Dhamar Governorate, Yemen"
    }
  ],
  "updated_at": "2025-10-19T06:29:21.563351+00:00",
  "_kind": "geo_samples"
}