{
  "country_code": "YE",
  "country": "Yemen",
  "city": "Ibb",
  "geonameid": 74477,
  "target_addresses": 5,
  "samples": [
    {
      "lat": 13.990102338532653,
      "lon": 44.16163168383017,
      "geoinfo": {
        "display_name": "اب, Thawab Asfal, Sall, Al Dhihar District, Ibb Governorate, Yemen",
        "road": null,
        "house_number": null,
        "neighbourhood": null,
        "suburb": null,
        "city_district": null,
        "city": "Sall",
        "state": "Ibb Governorate",
        "postcode": null,
        "country": "Yemen",
        "country_code": "ye"
      },
      "address": "Ibb, Ibb Governorate, Yemen"
    },
    {
      "lat": 13.959659088817087,
      "lon": 44.18015825691496,
      "geoinfo": {
        "display_name": "اب, Hirathah, Ad Dimnah, Al Mashannah District, Ibb Governorate, Yemen",
        "road": null,
        "house_number": null,
        "neighbourhood": null,
        "suburb": "Hirathah",
        "city_district": null,
        "city": "Ad Dimnah",
        "state": "Ibb Governorate",
        "postcode": null,
        "country": "Yemen",
        "country_code": "ye"
      },
      "address": "Hirathah, Ibb, Ibb Governorate, Yemen"
    },
    {
      "lat": 13.92680417941783,
      "lon": 44.178170065089645,
      "geoinfo": {
        "display_name": "اب, As Sa'ilah, Dar az Zuhr, Jiblah District, Ibb Governorate, Yemen",
        "road": null,
        "house_number": null,
        "neighbourhood": null,
        "suburb": "As Sa'ilah",
        "city_district": null,
        "city": "Dar az Zuhr",
        "state": "Ibb Governorate",
        "postcode": null,
        "country": "Yemen",
        "country_code": "ye"
      },
      "address": "As Sa'ilah, Ibb, Ibb Governorate, Yemen"
    },
    {
      "lat": 13.971303253094211,
      "lon": 44.151905735354006,
      "geoinfo": {
        "display_name": "شارع السبل, اب, Mu`id, Madr, Al Dhihar District, Ibb Governorate, Yemen",
        "road": "شارع السبل",
        "house_number": null,
        "neighbourhood": null,
        "suburb": null,
        "city_district": null,
        "city": "Madr",
        "state": "Ibb Governorate",
        "postcode": null,
        "country": "Yemen",
        "country_code": "ye"
      },
      "address": "شارع السبل, Ibb, Ibb Governorate, Yemen"
    },
    {
      "lat": 13.977990088119903,
      "lon": 44.18511736667975,
      "geoinfo": {
        "display_name": "TeleYemen connection company, 04406844, شارع تعز, اب, Jarrafah as Sufla, Ibb, Al Mashannah District, Ibb Governorate, Yemen",
        "road": "شارع تعز",
        "house_number": "04406844",
        "neighbourhood": null,
        "suburb": "Jarrafah as Sufla",
        "city_district": null,
        "city": "Ibb",
        "state": "Ibb Governorate",
        "postcode": null,
        "country": "Yemen",
        "country_code": "ye"
      },
      "address": "04406844 شارع تعز, Ibb, Ibb Governorate, Yemen"
    },
    {
      "lat": 13.996094592251135,
      "lon": 44.182397885627864,
      "geoinfo": {
        "display_name": "Ar Radhah, Qamalah, Ibb District, Ibb Governorate, Yemen",
        "road": null,
        "house_number": null,
        "neighbourhood": null,
        "suburb": null,
        "city_district": null,
        "city": "Qamalah",
        "state": "Ibb Governorate",
        "postcode": null,
        "country": "Yemen",
        "country_code": "ye"
      },
      "address": "685, Ar Radhah, Qamalah, Ibb District, 04687 Ibb Governorate, Yemen"
    },
    {
      "lat": 13.98187609915895,
      "lon": 44.21426029976331,
      "geoinfo": {
        "display_name": "Najd al Asabih, Al Qal`ah, Ibb District, Ibb Governorate, Yemen",
        "road": null,
        "house_number": null,
        "neighbourhood": null,
        "suburb": null,
        "city_district": null,
        "city": "Al Qal`ah",
        "state": "Ibb Governorate",
        "postcode": null,
        "country": "Yemen",
        "country_code": "ye"
      },
      "address": "372, Ibb, 18437 Ibb Governorate, Yemen"
    },
    {
      "lat": 13.95845065244864,
      "lon": 44.20865795547594,
      "geoinfo": {
        "display_name": "اب, As Sahri, Ar Ribat, Ibb District, Ibb Governorate, Yemen",
        "road": null,
        "house_number": null,
        "neighbourhood": null,
        "suburb": null,
        "city_district": null,
        "city": "Ar Ribat",
        "state": "Ibb Governorate",
        "postcode": null,
        "country": "Yemen",
        "country_code": "ye"
      },
      "address": "453, Ibb, 55525 Ibb Governorate, Yemen"
    },
    {
      "lat": 13.986152378370798,
      "lon": 44.15000070575074,
      "geoinfo": {
        "display_name": "Waykhan, Ibb, Al Dhihar District, Ibb Governorate, Yemen",
        "road": null,
        "house_number": null,
        "neighbourhood": null,
        "suburb": null,
        "city_district": null,
        "city": "Ibb",
        "state": "Ibb Governorate",
        "postcode": null,
        "country": "Yemen",
        "country_code": "ye"
      },
      "address": "596, Waykhan, Ibb, Al Dhihar District, 54875 Ibb Governorate, Yemen"
    },
    {
      "lat": 13.970174610092641,
      "lon": 44.189414166144154,
      "geoinfo": {
        "display_name": "اب, Ar Ruzmah, Ad Dimnah, Al Mashannah District, Ibb Governorate, Yemen",
        "road": null,
        "house_number": null,
        "neighbourhood": null,
        "suburb": null,
        "city_district": null,
        "city": "Ad Dimnah",
        "state": "Ibb Governorate",
        "postcode": null,
        "country": "Yemen",
        "country_code": "ye"
      },
      "address": "095, Ibb, 35429 Ibb Governorate, Yemen"
    }
  ],
  "updated_at": "2025-10-19T11:35:47.117237+00:00",
  "_kind": "geo_samples"
}