{
  "country_code": "YE",
  "country": "Yemen",
  "city": "Laḩij",
  "geonameid": 73560,
  "target_addresses": 14,
  "samples": [
    {
      "lat": 13.050521517040568,
      "lon": 44.845833525531184,
      "geoinfo": {
        "display_name": "Nawbat al Ikbar, Ash Shuzayf, Tuban District, Lahij Governorate, Yemen",
        "road": null,
        "house_number": null,
        "neighbourhood": null,
        "suburb": null,
        "city_district": null,
        "city": "Ash Shuzayf",
        "state": "Lahij Governorate",
        "postcode": null,
        "country": "Yemen",
        "country_code": "ye"
      },
      "address": "Laḩij, Lahij Governorate, Yemen"
    },
    {
      "lat": 13.087648054402292,
      "lon": 44.864395230823504,
      "geoinfo": {
        "display_name": "N1, Barabir, Al Khudad, Tuban District, Lahij Governorate, Yemen",
        "road": "N1",
        "house_number": null,
        "neighbourhood": null,
        "suburb": null,
        "city_district": null,
        "city": "Al Khudad",
        "state": "Lahij Governorate",
        "postcode": null,
        "country": "Yemen",
        "country_code": "ye"
      },
      "address": "N1, Laḩij, Lahij Governorate, Yemen"
    },
    {
      "lat": 13.086818119408143,
      "lon": 44.90147311971399,
      "geoinfo": {
        "display_name": "Tha`lab, Tuban District, Lahij Governorate, Yemen",
        "road": null,
        "house_number": null,
        "neighbourhood": null,
        "suburb": null,
        "city_district": null,
        "city": "Tha`lab",
        "state": "Lahij Governorate",
        "postcode": null,
        "country": "Yemen",
        "country_code": "ye"
      },
      "address": "227, Laḩij, 91049 Lahij Governorate, Yemen"
    },
    {
      "lat": 13.052281667191073,
      "lon": 44.9128399920716,
      "geoinfo": {
        "display_name": "Tahrur, Tuban District, Lahij Governorate, Yemen",
        "road": null,
        "house_number": null,
        "neighbourhood": null,
        "suburb": null,
        "city_district": null,
        "city": "Tahrur",
        "state": "Lahij Governorate",
        "postcode": null,
        "country": "Yemen",
        "country_code": "ye"
      },
      "address": "182, Laḩij, 06333 Lahij Governorate, Yemen"
    },
    {
      "lat": 13.020225150119595,
      "lon": 44.866364871909695,
      "geoinfo": {
        "display_name": "Haydarah, Tuban District, Lahij Governorate, Yemen",
        "road": null,
        "house_number": null,
        "neighbourhood": null,
        "suburb": null,
        "city_district": null,
        "city": null,
        "state": "Lahij Governorate",
        "postcode": null,
        "country": "Yemen",
        "country_code": "ye"
      },
      "address": "371, Laḩij, 42526 Lahij Governorate, Yemen"
    },
    {
      "lat": 13.092076684119558,
      "lon": 44.85389985661035,
      "geoinfo": {
        "display_name": "Al Kudam, Tuban District, Lahij Governorate, Yemen",
        "road": null,
        "house_number": null,
        "neighbourhood": null,
        "suburb": null,
        "city_district": null,
        "city": "Al Kudam",
        "state": "Lahij Governorate",
        "postcode": null,
        "country": "Yemen",
        "country_code": "ye"
      },
      "address": "740, Al Kudam, Tuban District, 57640 Lahij Governorate, Yemen"
    },
    {
      "lat": 13.062141938680055,
      "lon": 44.91096135769865,
      "geoinfo": {
        "display_name": "Bayt al Humaydi, Al Hamra', Tuban District, Lahij Governorate, Yemen",
        "road": null,
        "house_number": null,
        "neighbourhood": null,
        "suburb": null,
        "city_district": null,
        "city": "Al Hamra'",
        "state": "Lahij Governorate",
        "postcode": null,
        "country": "Yemen",
        "country_code": "ye"
      },
      "address": "452, Bayt al Humaydi, Al Hamra', Tuban District, 20852 Lahij Governorate, Yemen"
    },
    {
      "lat": 13.047823907927057,
      "lon": 44.84668737545477,
      "geoinfo": {
        "display_name": "Al Wahdah as Sihhiyah ash Shazif, N1, Ad Dubbah, Lahij, Al Hawtah District, Lahij Governorate, Yemen",
        "road": "N1",
        "house_number": null,
        "neighbourhood": null,
        "suburb": null,
        "city_district": null,
        "city": "Lahij",
        "state": "Lahij Governorate",
        "postcode": null,
        "country": "Yemen",
        "country_code": "ye"
      },
      "address": "N1, Laḩij, 81159 Lahij Governorate, Yemen"
    },
    {
      "lat": 13.06088260466325,
      "lon": 44.883366040214014,
      "geoinfo": {
        "display_name": "Lahij, Al Hawtah District, Lahij Governorate, Yemen",
        "road": null,
        "house_number": null,
        "neighbourhood": null,
        "suburb": null,
        "city_district": null,
        "city": "Lahij",
        "state": "Lahij Governorate",
        "postcode": null,
        "country": "Yemen",
        "country_code": "ye"
      },
      "address": "413, Lahij, Al Hawtah District, 67291 Lahij Governorate, Yemen"
    },
    {
      "lat": 13.055317852557206,
      "lon": 44.87346979339286,
      "geoinfo": {
        "display_name": "Nawbat `ayad, Al Jawl, Al Hawtah District, Lahij Governorate, Yemen",
        "road": null,
        "house_number": null,
        "neighbourhood": null,
        "suburb": null,
        "city_district": null,
        "city": "Al Jawl",
        "state": "Lahij Governorate",
        "postcode": null,
        "country": "Yemen",
        "country_code": "ye"
      },
      "address": "457, Laḩij, 75209 Lahij Governorate, Yemen"
    },
    {
      "lat": 13.06457173371331,
      "lon": 44.91479543028871,
      "geoinfo": {
        "display_name": "Bayt al Humaydi, Tha`lab, Tuban District, Lahij Governorate, Yemen",
        "road": null,
        "house_number": null,
        "neighbourhood": null,
        "suburb": null,
        "city_district": null,
        "city": "Tha`lab",
        "state": "Lahij Governorate",
        "postcode": null,
        "country": "Yemen",
        "country_code": "ye"
      },
      "address": "731, Laḩij, 38463 Lahij Governorate, Yemen"
    },
    {
      "lat": 13.030007876543264,
      "lon": 44.86933825454238,
      "geoinfo": {
        "display_name": "Nawbat `ayad, Al Jawl, Tuban District, Lahij Governorate, Yemen",
        "road": null,
        "house_number": null,
        "neighbourhood": null,
        "suburb": null,
        "city_district": null,
        "city": "Al Jawl",
        "state": "Lahij Governorate",
        "postcode": null,
        "country": "Yemen",
        "country_code": "ye"
      },
      "address": "906, Laḩij, 45995 Lahij Governorate, Yemen"
    },
    {
      "lat": 13.022761091643469,
      "lon": 44.886652711919226,
      "geoinfo": {
        "display_name": "`Ambarah, Tuban District, Lahij Governorate, Yemen",
        "road": null,
        "house_number": null,
        "neighbourhood": null,
        "suburb": null,
        "city_district": null,
        "city": "`Ambarah",
        "state": "Lahij Governorate",
        "postcode": null,
        "country": "Yemen",
        "country_code": "ye"
      },
      "address": "815, Laḩij, 86933 Lahij Governorate, Yemen"
    },
    {
      "lat": 13.050813993034577,
      "lon": 44.84085268061589,
      "geoinfo": {
        "display_name": "Nawbat al Ikbar, Ash Shuzayf, Tuban District, Lahij Governorate, Yemen",
        "road": null,
        "house_number": null,
        "neighbourhood": null,
        "suburb": null,
        "city_district": null,
        "city": "Ash Shuzayf",
        "state": "Lahij Governorate",
        "postcode": null,
        "country": "Yemen",
        "country_code": "ye"
      },
      "address": "576, Nawbat al Ikbar, Ash Shuzayf, Tuban District, 73479 Lahij Governorate, Yemen"
    }
  ],
  "updated_at": "2025-10-19T06:37:22.550460+00:00",
  "_kind": "geo_samples"
}