{
  "country_code": "YE",
  "country": "Yemen",
  "city": "Mukalla",
  "geonameid": 78754,
  "target_addresses": 5,
  "samples": [
    {
      "lat": 14.535287685902329,
      "lon": 49.121320304838086,
      "geoinfo": {
        "display_name": "Mukalla, Hayy Ba `Abbud, Mukalla, Mukalla City District, Hadramaut Governorate, Yemen",
        "road": null,
        "house_number": null,
        "neighbourhood": null,
        "suburb": "Hayy Ba `Abbud",
        "city_district": null,
        "city": "Mukalla",
        "state": "Hadramaut Governorate",
        "postcode": null,
        "country": "Yemen",
        "country_code": "ye"
      },
      "address": "Hayy Ba `Abbud, Mukalla, Hadramaut Governorate, Yemen"
    },
    {
      "lat": 14.573485152460162,
      "lon": 49.13020720361205,
      "geoinfo": {
        "display_name": "Hayy ad Dis, Mukalla, Mukalla City District, Hadramaut Governorate, Yemen",
        "road": null,
        "house_number": null,
        "neighbourhood": null,
        "suburb": "Hayy ad Dis",
        "city_district": null,
        "city": "Mukalla",
        "state": "Hadramaut Governorate",
        "postcode": null,
        "country": "Yemen",
        "country_code": "ye"
      },
      "address": "Hayy ad Dis, Mukalla, Hadramaut Governorate, Yemen"
    },
    {
      "lat": 14.56671523795616,
      "lon": 49.15561024486025,
      "geoinfo": {
        "display_name": "Mukalla, Mukalla City District, Hadramaut Governorate, Yemen",
        "road": null,
        "house_number": null,
        "neighbourhood": null,
        "suburb": null,
        "city_district": null,
        "city": "Mukalla",
        "state": "Hadramaut Governorate",
        "postcode": null,
        "country": "Yemen",
        "country_code": "ye"
      },
      "address": "Mukalla, Hadramaut Governorate, Yemen"
    },
    {
      "lat": 14.546418234920678,
      "lon": 49.08542693525921,
      "geoinfo": {
        "display_name": "Mukalla, Hayy Wahdah Sami, Mukalla, Mukalla City District, Hadramaut Governorate, Yemen",
        "road": null,
        "house_number": null,
        "neighbourhood": null,
        "suburb": "Hayy Wahdah Sami",
        "city_district": null,
        "city": "Mukalla",
        "state": "Hadramaut Governorate",
        "postcode": null,
        "country": "Yemen",
        "country_code": "ye"
      },
      "address": "Hayy Wahdah Sami, Mukalla, Hadramaut Governorate, Yemen"
    },
    {
      "lat": 14.532167476798174,
      "lon": 49.13653887449101,
      "geoinfo": {
        "display_name": "سوق النساء, شارع السلام, Mukalla, Hayy as Sayyadin, Mukalla, Mukalla City District, Hadramaut Governorate, Yemen",
        "road": "شارع السلام",
        "house_number": null,
        "neighbourhood": null,
        "suburb": "Hayy as Sayyadin",
        "city_district": null,
        "city": "Mukalla",
        "state": "Hadramaut Governorate",
        "postcode": null,
        "country": "Yemen",
        "country_code": "ye"
      },
      "address": "شارع السلام, Mukalla, Hadramaut Governorate, Yemen"
    },
    {
      "lat": 14.551614237329009,
      "lon": 49.1098039299681,
      "geoinfo": {
        "display_name": "Mukalla, Hayy Wahdah Sami, Mukalla, Mukalla City District, Hadramaut Governorate, Yemen",
        "road": null,
        "house_number": null,
        "neighbourhood": null,
        "suburb": "Hayy Wahdah Sami",
        "city_district": null,
        "city": "Mukalla",
        "state": "Hadramaut Governorate",
        "postcode": null,
        "country": "Yemen",
        "country_code": "ye"
      },
      "address": "159, Mukalla, Hayy Wahdah Sami, Mukalla, Mukalla City District, 21842 Hadramaut Governorate, Yemen"
    },
    {
      "lat": 14.506144224753509,
      "lon": 49.14304275669557,
      "geoinfo": {
        "display_name": "Hayy Khalaf, Mukalla, Mukalla City District, Hadramaut Governorate, Yemen",
        "road": null,
        "house_number": null,
        "neighbourhood": null,
        "suburb": "Hayy Khalaf",
        "city_district": null,
        "city": "Mukalla",
        "state": "Hadramaut Governorate",
        "postcode": null,
        "country": "Yemen",
        "country_code": "ye"
      },
      "address": "676, Hayy Khalaf, Mukalla, Mukalla City District, 08607 Hadramaut Governorate, Yemen"
    },
    {
      "lat": 14.506558823150778,
      "lon": 49.114650148828446,
      "geoinfo": {
        "display_name": "Al Mina' al Qadim, Mukalla, Mukalla City District, Hadramaut Governorate, Yemen",
        "road": null,
        "house_number": null,
        "neighbourhood": null,
        "suburb": "Al Mina' al Qadim",
        "city_district": null,
        "city": "Mukalla",
        "state": "Hadramaut Governorate",
        "postcode": null,
        "country": "Yemen",
        "country_code": "ye"
      },
      "address": "516, Al Mina' al Qadim, Mukalla, Mukalla City District, 44846 Hadramaut Governorate, Yemen"
    },
    {
      "lat": 14.520762453770937,
      "lon": 49.1339039817091,
      "geoinfo": {
        "display_name": "شارع السلام, Mukalla, Hayy ash Shahid, Mukalla, Mukalla City District, Hadramaut Governorate, Yemen",
        "road": "شارع السلام",
        "house_number": null,
        "neighbourhood": null,
        "suburb": "Hayy ash Shahid",
        "city_district": null,
        "city": "Mukalla",
        "state": "Hadramaut Governorate",
        "postcode": null,
        "country": "Yemen",
        "country_code": "ye"
      },
      "address": "090, شارع السلام, Mukalla, Hayy ash Shahid, Mukalla, Mukalla City District, 18692 Hadramaut Governorate, Yemen"
    },
    {
      "lat": 14.556542671800118,
      "lon": 49.08820289419789,
      "geoinfo": {
        "display_name": "Hayy Wahdah Sami, Mukalla, Mukalla City District, Hadramaut Governorate, Yemen",
        "road": null,
        "house_number": null,
        "neighbourhood": null,
        "suburb": "Hayy Wahdah Sami",
        "city_district": null,
        "city": "Mukalla",
        "state": "Hadramaut Governorate",
        "postcode": null,
        "country": "Yemen",
        "country_code": "ye"
      },
      "address": "165, Hayy Wahdah Sami, Mukalla, Mukalla City District, 41063 Hadramaut Governorate, Yemen"
    }
  ],
  "updated_at": "2025-10-19T06:29:42.037472+00:00",
  "_kind": "geo_samples"
}