{
  "country_code": "YE",
  "country": "Yemen",
  "city": "Sayyān",
  "geonameid": 70979,
  "target_addresses": 5,
  "samples": [
    {
      "lat": 15.19900728636636,
      "lon": 44.34625840871983,
      "geoinfo": {
        "display_name": "Shay`an, Sanhan wa Bani Bahlool District, Sana'a Governorate, Yemen",
        "road": null,
        "house_number": null,
        "neighbourhood": null,
        "suburb": null,
        "city_district": null,
        "city": "Shay`an",
        "state": "Sana'a Governorate",
        "postcode": null,
        "country": "Yemen",
        "country_code": "ye"
      },
      "address": "Sayyān, Sana'a Governorate, Yemen"
    },
    {
      "lat": 15.164749803255006,
      "lon": 44.329401811555336,
      "geoinfo": {
        "display_name": "خط سنحان, As Sirrayn, Sanhan wa Bani Bahlool District, Sana'a Governorate, Yemen",
        "road": "خط سنحان",
        "house_number": null,
        "neighbourhood": null,
        "suburb": null,
        "city_district": null,
        "city": "As Sirrayn",
        "state": "Sana'a Governorate",
        "postcode": null,
        "country": "Yemen",
        "country_code": "ye"
      },
      "address": "خط سنحان, Sayyān, Sana'a Governorate, Yemen"
    },
    {
      "lat": 15.158835555844828,
      "lon": 44.284164082260816,
      "geoinfo": {
        "display_name": "Aljam, Sanhan wa Bani Bahlool District, Sana'a Governorate, Yemen",
        "road": null,
        "house_number": null,
        "neighbourhood": null,
        "suburb": null,
        "city_district": null,
        "city": "Aljam",
        "state": "Sana'a Governorate",
        "postcode": null,
        "country": "Yemen",
        "country_code": "ye"
      },
      "address": "178, Sayyān, 19785 Sana'a Governorate, Yemen"
    },
    {
      "lat": 15.207646378197511,
      "lon": 44.31594089297647,
      "geoinfo": {
        "display_name": "Bayt al Hamdani, Sanhan wa Bani Bahlool District, Sana'a Governorate, Yemen",
        "road": null,
        "house_number": null,
        "neighbourhood": null,
        "suburb": null,
        "city_district": null,
        "city": "Bayt al Hamdani",
        "state": "Sana'a Governorate",
        "postcode": null,
        "country": "Yemen",
        "country_code": "ye"
      },
      "address": "978, Bayt al Hamdani, Sanhan wa Bani Bahlool District, 34843 Sana'a Governorate, Yemen"
    },
    {
      "lat": 15.193222412902125,
      "lon": 44.358175180366864,
      "geoinfo": {
        "display_name": "Shay`an, Sanhan wa Bani Bahlool District, Sana'a Governorate, Yemen",
        "road": null,
        "house_number": null,
        "neighbourhood": null,
        "suburb": null,
        "city_district": null,
        "city": "Shay`an",
        "state": "Sana'a Governorate",
        "postcode": null,
        "country": "Yemen",
        "country_code": "ye"
      },
      "address": "607, Sayyān, 65379 Sana'a Governorate, Yemen"
    },
    {
      "lat": 15.200089745258074,
      "lon": 44.29875883804766,
      "geoinfo": {
        "display_name": "الركب, خط سنحان, As Sirrayn, Sanhan wa Bani Bahlool District, Sana'a Governorate, Yemen",
        "road": "خط سنحان",
        "house_number": null,
        "neighbourhood": null,
        "suburb": null,
        "city_district": null,
        "city": "As Sirrayn",
        "state": "Sana'a Governorate",
        "postcode": null,
        "country": "Yemen",
        "country_code": "ye"
      },
      "address": "372, خط سنحان, Sayyān, 45757 Sana'a Governorate, Yemen"
    },
    {
      "lat": 15.13012837569423,
      "lon": 44.33020757243652,
      "geoinfo": {
        "display_name": "Al Jahshi, Sanhan wa Bani Bahlool District, Sana'a Governorate, Yemen",
        "road": null,
        "house_number": null,
        "neighbourhood": null,
        "suburb": null,
        "city_district": null,
        "city": "Al Jahshi",
        "state": "Sana'a Governorate",
        "postcode": null,
        "country": "Yemen",
        "country_code": "ye"
      },
      "address": "196, Al Jahshi, Sanhan wa Bani Bahlool District, 27703 Sana'a Governorate, Yemen"
    }
  ],
  "updated_at": "2025-10-19T07:54:15.615391+00:00",
  "_kind": "geo_samples"
}