{
  "country_code": "YE",
  "country": "Yemen",
  "city": "Saḩar",
  "geonameid": 71273,
  "target_addresses": 5,
  "samples": [
    {
      "lat": 15.289509022515029,
      "lon": 44.28638490944217,
      "geoinfo": {
        "display_name": "Al Jawza', Bayt al Jaki, Sanhan wa Bani Bahlool District, Sana'a Governorate, Yemen",
        "road": null,
        "house_number": null,
        "neighbourhood": null,
        "suburb": null,
        "city_district": null,
        "city": "Bayt al Jaki",
        "state": "Sana'a Governorate",
        "postcode": null,
        "country": "Yemen",
        "country_code": "ye"
      },
      "address": "Saḩar, Sana'a Governorate, Yemen"
    },
    {
      "lat": 15.328131813644825,
      "lon": 44.3472266741998,
      "geoinfo": {
        "display_name": "Ad Dar, Al Hijlah, Sanhan wa Bani Bahlool District, Sana'a Governorate, Yemen",
        "road": null,
        "house_number": null,
        "neighbourhood": null,
        "suburb": null,
        "city_district": null,
        "city": "Al Hijlah",
        "state": "Sana'a Governorate",
        "postcode": null,
        "country": "Yemen",
        "country_code": "ye"
      },
      "address": "568, Ad Dar, Al Hijlah, Sanhan wa Bani Bahlool District, 29071 Sana'a Governorate, Yemen"
    },
    {
      "lat": 15.280933849959325,
      "lon": 44.30546792055208,
      "geoinfo": {
        "display_name": "`Iman, Sanhan wa Bani Bahlool District, Sana'a Governorate, Yemen",
        "road": null,
        "house_number": null,
        "neighbourhood": null,
        "suburb": null,
        "city_district": null,
        "city": "`Iman",
        "state": "Sana'a Governorate",
        "postcode": null,
        "country": "Yemen",
        "country_code": "ye"
      },
      "address": "456, Saḩar, 26908 Sana'a Governorate, Yemen"
    },
    {
      "lat": 15.336872162966175,
      "lon": 44.337388321697766,
      "geoinfo": {
        "display_name": "`Ozlat Wadi al Ajbar, Al Hadirah, Sanhan wa Bani Bahlool District, Sana'a Governorate, Yemen",
        "road": null,
        "house_number": null,
        "neighbourhood": null,
        "suburb": null,
        "city_district": null,
        "city": "Al Hadirah",
        "state": "Sana'a Governorate",
        "postcode": null,
        "country": "Yemen",
        "country_code": "ye"
      },
      "address": "433, Saḩar, 14269 Sana'a Governorate, Yemen"
    },
    {
      "lat": 15.32417904077601,
      "lon": 44.282914304156435,
      "geoinfo": {
        "display_name": "Waraqah, Sana'a City, Sanhan wa Bani Bahlool District, Sana'a Governorate, Yemen",
        "road": null,
        "house_number": null,
        "neighbourhood": null,
        "suburb": null,
        "city_district": null,
        "city": "Sana'a City",
        "state": "Sana'a Governorate",
        "postcode": null,
        "country": "Yemen",
        "country_code": "ye"
      },
      "address": "728, Saḩar, 26711 Sana'a Governorate, Yemen"
    },
    {
      "lat": 15.35829375862763,
      "lon": 44.29809096619141,
      "geoinfo": {
        "display_name": "Al `Abr al `Ala, Al Lakamah al Gharbiyah, Bani Hoshaish District, Sana'a Governorate, Yemen",
        "road": null,
        "house_number": null,
        "neighbourhood": null,
        "suburb": null,
        "city_district": null,
        "city": "Al Lakamah al Gharbiyah",
        "state": "Sana'a Governorate",
        "postcode": null,
        "country": "Yemen",
        "country_code": "ye"
      },
      "address": "671, Saḩar, 03843 Sana'a Governorate, Yemen"
    }
  ],
  "updated_at": "2025-10-19T05:43:44.308154+00:00",
  "_kind": "geo_samples"
}