{
  "country_code": "YE",
  "country": "Yemen",
  "city": "Taiz",
  "geonameid": 70225,
  "target_addresses": 5,
  "samples": [
    {
      "lat": 13.564978217012635,
      "lon": 44.04020723528403,
      "geoinfo": {
        "display_name": "Al Arjam, Rudajah, Salh District, Yemen",
        "road": null,
        "house_number": null,
        "neighbourhood": null,
        "suburb": "Al Arjam",
        "city_district": null,
        "city": "Rudajah",
        "state": null,
        "postcode": null,
        "country": "Yemen",
        "country_code": "ye"
      },
      "address": "Al Arjam, Taiz, Yemen"
    },
    {
      "lat": 13.61766463943854,
      "lon": 44.0258204923153,
      "geoinfo": {
        "display_name": "Wadi al `Arsh, At Ta'iziyah District, Yemen",
        "road": null,
        "house_number": null,
        "neighbourhood": null,
        "suburb": null,
        "city_district": null,
        "city": null,
        "state": null,
        "postcode": null,
        "country": "Yemen",
        "country_code": "ye"
      },
      "address": "Taiz, Yemen"
    },
    {
      "lat": 13.609278303777982,
      "lon": 44.00656670737202,
      "geoinfo": {
        "display_name": "Al Wa`sh, Ash Shi`bah, At Ta'iziyah District, Yemen",
        "road": null,
        "house_number": null,
        "neighbourhood": null,
        "suburb": "Al Wa`sh",
        "city_district": null,
        "city": "Ash Shi`bah",
        "state": null,
        "postcode": null,
        "country": "Yemen",
        "country_code": "ye"
      },
      "address": "Al Wa`sh, Taiz, Yemen"
    },
    {
      "lat": 13.55797927806806,
      "lon": 44.0374689858681,
      "geoinfo": {
        "display_name": "Al Jurz, Salh District, Yemen",
        "road": null,
        "house_number": null,
        "neighbourhood": null,
        "suburb": "Al Jurz",
        "city_district": null,
        "city": null,
        "state": null,
        "postcode": null,
        "country": "Yemen",
        "country_code": "ye"
      },
      "address": "Al Jurz, Taiz, Yemen"
    },
    {
      "lat": 13.560806736059794,
      "lon": 44.00460057684846,
      "geoinfo": {
        "display_name": "طريق جبل صبر, Ash Shi`b, Asfal al Marzuh, Sabir Al Mawadim District, Ta'izz Governorate, Yemen",
        "road": "طريق جبل صبر",
        "house_number": null,
        "neighbourhood": null,
        "suburb": null,
        "city_district": null,
        "city": "Asfal al Marzuh",
        "state": "Ta'izz Governorate",
        "postcode": null,
        "country": "Yemen",
        "country_code": "ye"
      },
      "address": "طريق جبل صبر, Taiz, Ta'izz Governorate, Yemen"
    },
    {
      "lat": 13.61430194726595,
      "lon": 44.0144185221761,
      "geoinfo": {
        "display_name": "Ar Ru'as, Al Hawjalah, At Ta'iziyah District, Yemen",
        "road": null,
        "house_number": null,
        "neighbourhood": null,
        "suburb": null,
        "city_district": null,
        "city": "Al Hawjalah",
        "state": null,
        "postcode": null,
        "country": "Yemen",
        "country_code": "ye"
      },
      "address": "410, Ar Ru'as, Al Hawjalah, 99420 At Ta'iziyah District, Yemen"
    },
    {
      "lat": 13.614312720814262,
      "lon": 44.02851927552921,
      "geoinfo": {
        "display_name": "Al Harrir, At Ta'iziyah District, Yemen",
        "road": null,
        "house_number": null,
        "neighbourhood": null,
        "suburb": null,
        "city_district": null,
        "city": null,
        "state": null,
        "postcode": null,
        "country": "Yemen",
        "country_code": "ye"
      },
      "address": "804, Al Harrir, 54727 At Ta'iziyah District, Yemen"
    },
    {
      "lat": 13.561642382462159,
      "lon": 43.997521693446544,
      "geoinfo": {
        "display_name": "Al Hijar, Al Mahajir, Mashra'a Wa Hadnan District, Ta'izz Governorate, Yemen",
        "road": null,
        "house_number": null,
        "neighbourhood": null,
        "suburb": null,
        "city_district": null,
        "city": "Al Mahajir",
        "state": "Ta'izz Governorate",
        "postcode": null,
        "country": "Yemen",
        "country_code": "ye"
      },
      "address": "889, Taiz, 29055 Ta'izz Governorate, Yemen"
    },
    {
      "lat": 13.555314209384735,
      "lon": 44.01029642751174,
      "geoinfo": {
        "display_name": "طريق جبل صبر, Ash Shi`b, Asfal al Marzuh, Sabir Al Mawadim District, Ta'izz Governorate, Yemen",
        "road": "طريق جبل صبر",
        "house_number": null,
        "neighbourhood": null,
        "suburb": null,
        "city_district": null,
        "city": "Asfal al Marzuh",
        "state": "Ta'izz Governorate",
        "postcode": null,
        "country": "Yemen",
        "country_code": "ye"
      },
      "address": "252, طريق جبل صبر, Taiz, 44653 Ta'izz Governorate, Yemen"
    },
    {
      "lat": 13.60404794211087,
      "lon": 43.98330902746992,
      "geoinfo": {
        "display_name": "Al Kahl, At Ta'iziyah District, Yemen",
        "road": null,
        "house_number": null,
        "neighbourhood": null,
        "suburb": null,
        "city_district": null,
        "city": "Al Kahl",
        "state": null,
        "postcode": null,
        "country": "Yemen",
        "country_code": "ye"
      },
      "address": "454, Al Kahl, 80397 At Ta'iziyah District, Yemen"
    }
  ],
  "updated_at": "2025-10-19T07:52:24.282894+00:00",
  "_kind": "geo_samples"
}