{
  "country_code": "YE",
  "country": "Yemen",
  "city": "Ḩajjah",
  "geonameid": 75337,
  "target_addresses": 5,
  "samples": [
    {
      "lat": 15.717537616133093,
      "lon": 43.61647693878771,
      "geoinfo": {
        "display_name": "At Tunbah, Al Qinan, Hajjah City District, Hajjah Governorate, Yemen",
        "road": null,
        "house_number": null,
        "neighbourhood": null,
        "suburb": null,
        "city_district": null,
        "city": "Al Qinan",
        "state": "Hajjah Governorate",
        "postcode": null,
        "country": "Yemen",
        "country_code": "ye"
      },
      "address": "Ḩajjah, Hajjah Governorate, Yemen"
    },
    {
      "lat": 15.687457353510409,
      "lon": 43.614540819993145,
      "geoinfo": {
        "display_name": "Nu`man, Hajja, Hajjah City District, Hajjah Governorate, Yemen",
        "road": null,
        "house_number": null,
        "neighbourhood": null,
        "suburb": "Nu`man",
        "city_district": null,
        "city": "Hajja",
        "state": "Hajjah Governorate",
        "postcode": null,
        "country": "Yemen",
        "country_code": "ye"
      },
      "address": "Nu`man, Ḩajjah, Hajjah Governorate, Yemen"
    },
    {
      "lat": 15.700164196439982,
      "lon": 43.58576797308031,
      "geoinfo": {
        "display_name": "الغرابي, Hajja, Hajjah City District, Hajjah Governorate, Yemen",
        "road": null,
        "house_number": null,
        "neighbourhood": null,
        "suburb": "الغرابي",
        "city_district": null,
        "city": "Hajja",
        "state": "Hajjah Governorate",
        "postcode": null,
        "country": "Yemen",
        "country_code": "ye"
      },
      "address": "الغرابي, Ḩajjah, Hajjah Governorate, Yemen"
    },
    {
      "lat": 15.691591667960903,
      "lon": 43.6077398783784,
      "geoinfo": {
        "display_name": "الشارع العام, Al Mu`ayniyah, Hajja, Hajjah City District, Hajjah Governorate, Yemen",
        "road": "الشارع العام",
        "house_number": null,
        "neighbourhood": null,
        "suburb": "Al Mu`ayniyah",
        "city_district": null,
        "city": "Hajja",
        "state": "Hajjah Governorate",
        "postcode": null,
        "country": "Yemen",
        "country_code": "ye"
      },
      "address": "الشارع العام, Ḩajjah, Hajjah Governorate, Yemen"
    },
    {
      "lat": 15.663206627048408,
      "lon": 43.6168319749856,
      "geoinfo": {
        "display_name": "`Abr al Kawr, Hajja, Hajjah City District, Hajjah Governorate, Yemen",
        "road": null,
        "house_number": null,
        "neighbourhood": null,
        "suburb": "`Abr al Kawr",
        "city_district": null,
        "city": "Hajja",
        "state": "Hajjah Governorate",
        "postcode": null,
        "country": "Yemen",
        "country_code": "ye"
      },
      "address": "`Abr al Kawr, Ḩajjah, Hajjah Governorate, Yemen"
    },
    {
      "lat": 15.693904937596614,
      "lon": 43.57718119658625,
      "geoinfo": {
        "display_name": "الغرابي, Hajja, Hajjah City District, Hajjah Governorate, Yemen",
        "road": null,
        "house_number": null,
        "neighbourhood": null,
        "suburb": "الغرابي",
        "city_district": null,
        "city": "Hajja",
        "state": "Hajjah Governorate",
        "postcode": null,
        "country": "Yemen",
        "country_code": "ye"
      },
      "address": "173, الغرابي, Ḩajjah, 20873 Hajjah Governorate, Yemen"
    },
    {
      "lat": 15.695980639546459,
      "lon": 43.63698151436516,
      "geoinfo": {
        "display_name": "Salamah, Sharas, Sharas District, Hajjah Governorate, Yemen",
        "road": null,
        "house_number": null,
        "neighbourhood": null,
        "suburb": null,
        "city_district": null,
        "city": "Sharas",
        "state": "Hajjah Governorate",
        "postcode": null,
        "country": "Yemen",
        "country_code": "ye"
      },
      "address": "289, Ḩajjah, 05291 Hajjah Governorate, Yemen"
    },
    {
      "lat": 15.679484232929587,
      "lon": 43.6030251879807,
      "geoinfo": {
        "display_name": "`Ozlat Hamalan, Jabal Ibrahim, Hajja, Hajjah City District, Hajjah Governorate, Yemen",
        "road": null,
        "house_number": null,
        "neighbourhood": null,
        "suburb": null,
        "city_district": null,
        "city": "Hajja",
        "state": "Hajjah Governorate",
        "postcode": null,
        "country": "Yemen",
        "country_code": "ye"
      },
      "address": "975, Ḩajjah, 19049 Hajjah Governorate, Yemen"
    },
    {
      "lat": 15.695755985952108,
      "lon": 43.65042215837933,
      "geoinfo": {
        "display_name": "Bayt Abu Salim, Sharas District, Hajjah Governorate, Yemen",
        "road": null,
        "house_number": null,
        "neighbourhood": null,
        "suburb": null,
        "city_district": null,
        "city": null,
        "state": "Hajjah Governorate",
        "postcode": null,
        "country": "Yemen",
        "country_code": "ye"
      },
      "address": "681, Ḩajjah, 33282 Hajjah Governorate, Yemen"
    },
    {
      "lat": 15.708323684870608,
      "lon": 43.568461855006376,
      "geoinfo": {
        "display_name": "Al `Irjan, Mabyan, Mabyan District, Hajjah Governorate, Yemen",
        "road": null,
        "house_number": null,
        "neighbourhood": null,
        "suburb": null,
        "city_district": null,
        "city": "Mabyan",
        "state": "Hajjah Governorate",
        "postcode": null,
        "country": "Yemen",
        "country_code": "ye"
      },
      "address": "683, Ḩajjah, 82088 Hajjah Governorate, Yemen"
    }
  ],
  "updated_at": "2025-10-19T11:36:19.185078+00:00",
  "_kind": "geo_samples"
}