{
  "country_code": "SG",
  "country": "Singapore",
  "city": "Hong Kah",
  "geonameid": 1880650,
  "target_addresses": 2,
  "samples": [
    {
      "lat": 1.3626819987053316,
      "lon": 103.69107415001699,
      "geoinfo": {
        "display_name": "Jalan Bahar, Western Water Catchment, Southwest, Singapore, 649735, Singapore",
        "road": "Jalan Bahar",
        "house_number": null,
        "neighbourhood": null,
        "suburb": "Western Water Catchment",
        "city_district": "Southwest",
        "city": "Singapore",
        "state": null,
        "postcode": "649735",
        "country": "Singapore",
        "country_code": "sg"
      },
      "address": "Jalan Bahar, Western Water Catchment, Southwest, Singapore, 649735, Singapore"
    },
    {
      "lat": 1.368250526338695,
      "lon": 103.70301809707607,
      "geoinfo": {
        "display_name": "Christian Cemetery Path 2, Western Water Catchment, Southwest, Singapore, 649734, Singapore",
        "road": "Christian Cemetery Path 2",
        "house_number": null,
        "neighbourhood": null,
        "suburb": "Western Water Catchment",
        "city_district": "Southwest",
        "city": "Singapore",
        "state": null,
        "postcode": "649734",
        "country": "Singapore",
        "country_code": "sg"
      },
      "address": "Christian Cemetery Path 2, Western Water Catchment, Southwest, Singapore, 649734, Singapore"
    },
    {
      "lat": 1.3648842823548144,
      "lon": 103.75940712999515,
      "geoinfo": {
        "display_name": "HQ ADOC, 54, Hillview Link, Hillview, Bukit Batok, Southwest, Singapore, 667988, Singapore",
        "road": "Hillview Link",
        "house_number": "54",
        "neighbourhood": null,
        "suburb": "Hillview",
        "city_district": "Southwest",
        "city": "Singapore",
        "state": null,
        "postcode": "667988",
        "country": "Singapore",
        "country_code": "sg"
      },
      "address": "HQ ADOC, 54, Hillview Link, Hillview, Bukit Batok, Southwest, Singapore, 667988, Singapore"
    },
    {
      "lat": 1.3348399843586654,
      "lon": 103.70746517636216,
      "geoinfo": {
        "display_name": "Jurong Park Connector, Jurong West, Southwest, Singapore, 618809, Singapore",
        "road": "Jurong Park Connector",
        "house_number": null,
        "neighbourhood": null,
        "suburb": "Jurong West",
        "city_district": "Southwest",
        "city": "Singapore",
        "state": null,
        "postcode": "618809",
        "country": "Singapore",
        "country_code": "sg"
      },
      "address": "666, Jurong Park Connector, Jurong West, Southwest, Singapore, 618809, Singapore"
    },
    {
      "lat": 1.3801322225039048,
      "lon": 103.70655671140078,
      "geoinfo": {
        "display_name": "Old Lim Chu Kang Road, Western Water Catchment, Southwest, Singapore, 698910, Singapore",
        "road": "Old Lim Chu Kang Road",
        "house_number": null,
        "neighbourhood": null,
        "suburb": "Western Water Catchment",
        "city_district": "Southwest",
        "city": "Singapore",
        "state": null,
        "postcode": "698910",
        "country": "Singapore",
        "country_code": "sg"
      },
      "address": "235, Old Lim Chu Kang Road, Western Water Catchment, Southwest, Singapore, 698910, Singapore"
    }
  ],
  "updated_at": "2025-10-19T03:21:09.874095+00:00",
  "_kind": "geo_samples"
}