{
  "country_code": "SG",
  "country": "Singapore",
  "city": "Novena",
  "geonameid": 7281987,
  "target_addresses": 2,
  "samples": [
    {
      "lat": 1.3165193528558512,
      "lon": 103.83843586291482,
      "geoinfo": {
        "display_name": "Morimasa Gardens, 11, Gilstead Road, Novena, Singapore Central, Central, Singapore, 309304, Singapore",
        "road": "Gilstead Road",
        "house_number": "11",
        "neighbourhood": "Singapore Central",
        "suburb": "Novena",
        "city_district": "Central",
        "city": "Singapore",
        "state": null,
        "postcode": "309304",
        "country": "Singapore",
        "country_code": "sg"
      },
      "address": "11 Gilstead Road, Novena, Singapore"
    },
    {
      "lat": 1.3182557799416943,
      "lon": 103.83161301629661,
      "geoinfo": {
        "display_name": "335, Bukit Timah Road, Stevens Garden, Tanglin, Central, Singapore, 309434, Singapore",
        "road": "Bukit Timah Road",
        "house_number": "335",
        "neighbourhood": "Stevens Garden",
        "suburb": "Tanglin",
        "city_district": "Central",
        "city": "Singapore",
        "state": null,
        "postcode": "309434",
        "country": "Singapore",
        "country_code": "sg"
      },
      "address": "335 Bukit Timah Road, Novena, Singapore"
    },
    {
      "lat": 1.292435286272505,
      "lon": 103.82510586420129,
      "geoinfo": {
        "display_name": "Jervois Jade, 21, Jervois Close, Tanglin, Central, Singapore, 159016, Singapore",
        "road": "Jervois Close",
        "house_number": "21",
        "neighbourhood": null,
        "suburb": "Tanglin",
        "city_district": "Central",
        "city": "Singapore",
        "state": null,
        "postcode": "159016",
        "country": "Singapore",
        "country_code": "sg"
      },
      "address": "Jervois Jade, 21, Jervois Close, Tanglin, Central, Singapore, 159016, Singapore"
    },
    {
      "lat": 1.2870079389707825,
      "lon": 103.84016503381129,
      "geoinfo": {
        "display_name": "CES Centre, 171, Chin Swee Road, Outram, Chinatown, Central, Singapore, 169877, Singapore",
        "road": "Chin Swee Road",
        "house_number": "171",
        "neighbourhood": null,
        "suburb": "Outram",
        "city_district": "Central",
        "city": "Singapore",
        "state": null,
        "postcode": "169877",
        "country": "Singapore",
        "country_code": "sg"
      },
      "address": "CES Centre, 171, Chin Swee Road, Outram, Chinatown, Central, Singapore, 169877, Singapore"
    }
  ],
  "updated_at": "2025-10-19T09:50:18.867004+00:00",
  "_kind": "geo_samples"
}