{
  "country_code": "SG",
  "country": "Singapore",
  "city": "Paya Lebar",
  "geonameid": 1880398,
  "target_addresses": 2,
  "samples": [
    {
      "lat": 1.3594822426115607,
      "lon": 103.90323647815025,
      "geoinfo": {
        "display_name": "Kallang-Paya Lebar Expressway, Hougang, Singapur East, Northeast, Singapore, 539356, Singapore",
        "road": "Kallang-Paya Lebar Expressway",
        "house_number": null,
        "neighbourhood": "Singapur East",
        "suburb": "Hougang",
        "city_district": "Northeast",
        "city": "Singapore",
        "state": null,
        "postcode": "539356",
        "country": "Singapore",
        "country_code": "sg"
      },
      "address": "Kallang-Paya Lebar Expressway, Paya Lebar, Singapore"
    },
    {
      "lat": 1.3430948674241174,
      "lon": 103.92177482947923,
      "geoinfo": {
        "display_name": "Aqua Adventure, Bedok North Road, Singapur East, Bedok, Northeast, Singapore, 479276, Singapore",
        "road": "Bedok North Road",
        "house_number": null,
        "neighbourhood": "Singapur East",
        "suburb": "Bedok",
        "city_district": "Northeast",
        "city": "Singapore",
        "state": null,
        "postcode": "479276",
        "country": "Singapore",
        "country_code": "sg"
      },
      "address": "Bedok North Road, Paya Lebar, Singapore"
    },
    {
      "lat": 1.3765294396795962,
      "lon": 103.88530354221592,
      "geoinfo": {
        "display_name": "690, Hougang Street 51, Hougang, Singapur East, Central, Singapore, 538720, Singapore",
        "road": "Hougang Street 51",
        "house_number": "690",
        "neighbourhood": "Singapur East",
        "suburb": "Hougang",
        "city_district": "Central",
        "city": "Singapore",
        "state": null,
        "postcode": "538720",
        "country": "Singapore",
        "country_code": "sg"
      },
      "address": "690, Hougang Street 51, Hougang, Singapur East, Central, Singapore, 538720, Singapore"
    },
    {
      "lat": 1.386432222194191,
      "lon": 103.86143835012506,
      "geoinfo": {
        "display_name": "6, Begonia Lane, Serangoon, Singapur East, Central, Singapore, 805822, Singapore",
        "road": "Begonia Lane",
        "house_number": "6",
        "neighbourhood": "Singapur East",
        "suburb": "Serangoon",
        "city_district": "Central",
        "city": "Singapore",
        "state": null,
        "postcode": "805822",
        "country": "Singapore",
        "country_code": "sg"
      },
      "address": "6, Begonia Lane, Serangoon, Singapur East, Central, Singapore, 805822, Singapore"
    }
  ],
  "updated_at": "2025-10-19T06:34:16.614073+00:00",
  "_kind": "geo_samples"
}