{
  "country_code": "SG",
  "country": "Singapore",
  "city": "Sengkang New Town",
  "geonameid": 7289760,
  "target_addresses": 2,
  "samples": [
    {
      "lat": 1.3905647142968975,
      "lon": 103.89861551899843,
      "geoinfo": {
        "display_name": "238, Compassvale Walk, Sengkang, Singapur East, Northeast, Singapore, 540238, Singapore",
        "road": "Compassvale Walk",
        "house_number": "238",
        "neighbourhood": "Singapur East",
        "suburb": "Sengkang",
        "city_district": "Northeast",
        "city": "Singapore",
        "state": null,
        "postcode": "540238",
        "country": "Singapore",
        "country_code": "sg"
      },
      "address": "238, Compassvale Walk, Sengkang, Singapur East, Northeast, Singapore, 540238, Singapore"
    },
    {
      "lat": 1.421118998227404,
      "lon": 103.91368917598557,
      "geoinfo": {
        "display_name": "Punggol Promenade Punggol Point Walk, Punggol Point, Singapur East, Punggol, Northeast, Singapore, 822443, Singapore",
        "road": "Punggol Promenade Punggol Point Walk",
        "house_number": null,
        "neighbourhood": "Singapur East",
        "suburb": "Punggol",
        "city_district": "Northeast",
        "city": "Singapore",
        "state": null,
        "postcode": "822443",
        "country": "Singapore",
        "country_code": "sg"
      },
      "address": "Punggol Promenade Punggol Point Walk, Punggol Point, Singapur East, Punggol, Northeast, Singapore, 822443, Singapore"
    },
    {
      "lat": 1.4226105160030618,
      "lon": 103.92461640426514,
      "geoinfo": {
        "display_name": "Outward Bound Singapore Camp 1, Ketam Trail, North-Eastern Islands, Southeast, Singapore, 822445, Singapore",
        "road": "Ketam Trail",
        "house_number": null,
        "neighbourhood": null,
        "suburb": "North-Eastern Islands",
        "city_district": "Southeast",
        "city": "Singapore",
        "state": null,
        "postcode": "822445",
        "country": "Singapore",
        "country_code": "sg"
      },
      "address": "Outward Bound Singapore Camp 1, Ketam Trail, North-Eastern Islands, Southeast, Singapore, 822445, Singapore"
    },
    {
      "lat": 1.4206703514927534,
      "lon": 103.86271165846857,
      "geoinfo": {
        "display_name": "Seletar West Link, Yishun, Central, Singapore, 797523, Singapore",
        "road": "Seletar West Link",
        "house_number": null,
        "neighbourhood": null,
        "suburb": "Yishun",
        "city_district": "Central",
        "city": "Singapore",
        "state": null,
        "postcode": "797523",
        "country": "Singapore",
        "country_code": "sg"
      },
      "address": "577, Seletar West Link, Yishun, Central, Singapore, 797523, Singapore"
    },
    {
      "lat": 1.3953789307655946,
      "lon": 103.84986202573816,
      "geoinfo": {
        "display_name": "Tampines Expressway, Ang Mo Kio, Central, Singapore, 560555, Singapore",
        "road": "Tampines Expressway",
        "house_number": null,
        "neighbourhood": null,
        "suburb": "Ang Mo Kio",
        "city_district": "Central",
        "city": "Singapore",
        "state": null,
        "postcode": "560555",
        "country": "Singapore",
        "country_code": "sg"
      },
      "address": "270, Tampines Expressway, Ang Mo Kio, Central, Singapore, 560555, Singapore"
    }
  ],
  "updated_at": "2025-10-19T03:21:43.066649+00:00",
  "_kind": "geo_samples"
}