{
  "country_code": "GM",
  "country": "Gambia",
  "city": "Bakau",
  "geonameid": 2413920,
  "target_addresses": 19,
  "samples": [
    {
      "lat": 13.442858848473893,
      "lon": -16.656052658228802,
      "geoinfo": {
        "display_name": "New Jeshwang, Ebo Town, New Jeshwang and Ebo Town, Serrekunda, Kanifing Municipal Council, The Gambia",
        "road": null,
        "house_number": null,
        "neighbourhood": "New Jeshwang",
        "suburb": "Ebo Town",
        "city_district": null,
        "city": "Serrekunda",
        "state": "Kanifing Municipal Council",
        "postcode": null,
        "country": "The Gambia",
        "country_code": "gm"
      },
      "address": "New Jeshwang, Bakau, Kanifing Municipal Council, Gambia"
    },
    {
      "lat": 13.507333998892284,
      "lon": -16.658775933542984,
      "geoinfo": {
        "display_name": "Bakau, Bakau New Town and Fajara, Serrekunda, Kanifing Municipal Council, The Gambia",
        "road": null,
        "house_number": null,
        "neighbourhood": null,
        "suburb": "Bakau",
        "city_district": null,
        "city": "Serrekunda",
        "state": "Kanifing Municipal Council",
        "postcode": null,
        "country": "The Gambia",
        "country_code": "gm"
      },
      "address": "Bakau, Bakau, Kanifing Municipal Council, Gambia"
    },
    {
      "lat": 13.507932040820299,
      "lon": -16.706705680184065,
      "geoinfo": {
        "display_name": "Kanifing, Kanifing Municipal Council, The Gambia",
        "road": null,
        "house_number": null,
        "neighbourhood": null,
        "suburb": null,
        "city_district": null,
        "city": "Kanifing",
        "state": "Kanifing Municipal Council",
        "postcode": null,
        "country": "The Gambia",
        "country_code": "gm"
      },
      "address": "Bakau, Kanifing Municipal Council, Gambia"
    },
    {
      "lat": 13.490736080076276,
      "lon": -16.708395684631085,
      "geoinfo": {
        "display_name": "Fajara, Bakau New Town and Fajara, Serrekunda, Kanifing Municipal Council, The Gambia",
        "road": null,
        "house_number": null,
        "neighbourhood": null,
        "suburb": "Fajara",
        "city_district": null,
        "city": "Serrekunda",
        "state": "Kanifing Municipal Council",
        "postcode": null,
        "country": "The Gambia",
        "country_code": "gm"
      },
      "address": "Fajara, Bakau, Kanifing Municipal Council, Gambia"
    },
    {
      "lat": 13.467563616189208,
      "lon": -16.68644845079652,
      "geoinfo": {
        "display_name": "Bakau Newtown, Fajara, Bakau New Town and Fajara, Serrekunda, Kanifing Municipal Council, The Gambia",
        "road": null,
        "house_number": null,
        "neighbourhood": "Bakau Newtown",
        "suburb": "Fajara",
        "city_district": null,
        "city": "Serrekunda",
        "state": "Kanifing Municipal Council",
        "postcode": null,
        "country": "The Gambia",
        "country_code": "gm"
      },
      "address": "Bakau Newtown, Bakau, 41784 Kanifing Municipal Council, Gambia"
    },
    {
      "lat": 13.443858377877643,
      "lon": -16.686706428056866,
      "geoinfo": {
        "display_name": "Dippa Kunda, Serrekunda, Kanifing Municipal Council, The Gambia",
        "road": null,
        "house_number": null,
        "neighbourhood": null,
        "suburb": null,
        "city_district": null,
        "city": "Serrekunda",
        "state": "Kanifing Municipal Council",
        "postcode": null,
        "country": "The Gambia",
        "country_code": "gm"
      },
      "address": "Bakau, 83097 Kanifing Municipal Council, Gambia"
    },
    {
      "lat": 13.448298429266018,
      "lon": -16.687650720744227,
      "geoinfo": {
        "display_name": "Manjai Kunda, Serrekunda, Kanifing Municipal Council, The Gambia",
        "road": null,
        "house_number": null,
        "neighbourhood": null,
        "suburb": "Manjai Kunda",
        "city_district": null,
        "city": "Serrekunda",
        "state": "Kanifing Municipal Council",
        "postcode": null,
        "country": "The Gambia",
        "country_code": "gm"
      },
      "address": "Manjai Kunda, Serrekunda, 35431 Kanifing Municipal Council, The Gambia"
    },
    {
      "lat": 13.500716645000587,
      "lon": -16.704090451406117,
      "geoinfo": {
        "display_name": "Fajara, Bakau New Town and Fajara, Serrekunda, Kanifing Municipal Council, The Gambia",
        "road": null,
        "house_number": null,
        "neighbourhood": null,
        "suburb": "Fajara",
        "city_district": null,
        "city": "Serrekunda",
        "state": "Kanifing Municipal Council",
        "postcode": null,
        "country": "The Gambia",
        "country_code": "gm"
      },
      "address": "450, Fajara, Bakau New Town and Fajara, Serrekunda, 39751 Kanifing Municipal Council, The Gambia"
    },
    {
      "lat": 13.485218016773505,
      "lon": -16.69986318532046,
      "geoinfo": {
        "display_name": "Bakau Newtown, Bakau, Bakau New Town and Fajara, Serrekunda, Kanifing Municipal Council, The Gambia",
        "road": null,
        "house_number": null,
        "neighbourhood": "Bakau Newtown",
        "suburb": "Bakau",
        "city_district": null,
        "city": "Serrekunda",
        "state": "Kanifing Municipal Council",
        "postcode": null,
        "country": "The Gambia",
        "country_code": "gm"
      },
      "address": "067, Bakau Newtown, Bakau, Bakau New Town and Fajara, Serrekunda, 82743 Kanifing Municipal Council, The Gambia"
    },
    {
      "lat": 13.501547824932752,
      "lon": -16.68763378596795,
      "geoinfo": {
        "display_name": "Bakau, Bakau New Town and Fajara, Serrekunda, Kanifing Municipal Council, The Gambia",
        "road": null,
        "house_number": null,
        "neighbourhood": null,
        "suburb": "Bakau",
        "city_district": null,
        "city": "Serrekunda",
        "state": "Kanifing Municipal Council",
        "postcode": null,
        "country": "The Gambia",
        "country_code": "gm"
      },
      "address": "726, Bakau, Bakau New Town and Fajara, Serrekunda, 01452 Kanifing Municipal Council, The Gambia"
    },
    {
      "lat": 13.44154281580725,
      "lon": -16.706191045515162,
      "geoinfo": {
        "display_name": "Kololi Road, Bakoteh, Serrekunda, Brikama, Kanifing Municipal Council, The Gambia",
        "road": "Kololi Road",
        "house_number": null,
        "neighbourhood": null,
        "suburb": null,
        "city_district": null,
        "city": "Serrekunda",
        "state": "Kanifing Municipal Council",
        "postcode": null,
        "country": "The Gambia",
        "country_code": "gm"
      },
      "address": "798, Kololi Road, Bakoteh, Serrekunda, Brikama, 85195 Kanifing Municipal Council, The Gambia"
    },
    {
      "lat": 13.474209591290363,
      "lon": -16.707285407498624,
      "geoinfo": {
        "display_name": "Kotu beach, Bakau New Town and Fajara, Serrekunda, Kanifing Municipal Council, The Gambia",
        "road": null,
        "house_number": null,
        "neighbourhood": "Kotu beach",
        "suburb": null,
        "city_district": null,
        "city": "Serrekunda",
        "state": "Kanifing Municipal Council",
        "postcode": null,
        "country": "The Gambia",
        "country_code": "gm"
      },
      "address": "838, Kotu beach, Bakau New Town and Fajara, Serrekunda, 42892 Kanifing Municipal Council, The Gambia"
    },
    {
      "lat": 13.45111941732601,
      "lon": -16.64748573035283,
      "geoinfo": {
        "display_name": "Old Jeshwang, Serrekunda, Kanifing Municipal Council, The Gambia",
        "road": null,
        "house_number": null,
        "neighbourhood": "Old Jeshwang",
        "suburb": null,
        "city_district": null,
        "city": "Serrekunda",
        "state": "Kanifing Municipal Council",
        "postcode": null,
        "country": "The Gambia",
        "country_code": "gm"
      },
      "address": "574, Old Jeshwang, Serrekunda, 28876 Kanifing Municipal Council, The Gambia"
    },
    {
      "lat": 13.491756059775355,
      "lon": -16.704040882816436,
      "geoinfo": {
        "display_name": "Fajara, Bakau New Town and Fajara, Serrekunda, Kanifing Municipal Council, The Gambia",
        "road": null,
        "house_number": null,
        "neighbourhood": null,
        "suburb": "Fajara",
        "city_district": null,
        "city": "Serrekunda",
        "state": "Kanifing Municipal Council",
        "postcode": null,
        "country": "The Gambia",
        "country_code": "gm"
      },
      "address": "203, Fajara, Bakau New Town and Fajara, Serrekunda, 60166 Kanifing Municipal Council, The Gambia"
    },
    {
      "lat": 13.497043602542083,
      "lon": -16.644680271202045,
      "geoinfo": {
        "display_name": "Bakau, Bakau New Town and Fajara, Serrekunda, Kanifing Municipal Council, The Gambia",
        "road": null,
        "house_number": null,
        "neighbourhood": null,
        "suburb": "Bakau",
        "city_district": null,
        "city": "Serrekunda",
        "state": "Kanifing Municipal Council",
        "postcode": null,
        "country": "The Gambia",
        "country_code": "gm"
      },
      "address": "982, Bakau, Bakau New Town and Fajara, Serrekunda, 66550 Kanifing Municipal Council, The Gambia"
    },
    {
      "lat": 13.456002008837691,
      "lon": -16.693821759502256,
      "geoinfo": {
        "display_name": "Bertil Harding Highway, Manjai Kunda, Serrekunda, Kanifing Municipal Council, The Gambia",
        "road": "Bertil Harding Highway",
        "house_number": null,
        "neighbourhood": null,
        "suburb": null,
        "city_district": null,
        "city": "Serrekunda",
        "state": "Kanifing Municipal Council",
        "postcode": null,
        "country": "The Gambia",
        "country_code": "gm"
      },
      "address": "436, Bertil Harding Highway, Manjai Kunda, Serrekunda, 54019 Kanifing Municipal Council, The Gambia"
    },
    {
      "lat": 13.499216969642356,
      "lon": -16.684967337786215,
      "geoinfo": {
        "display_name": "Bakau, Bakau New Town and Fajara, Serrekunda, Kanifing Municipal Council, The Gambia",
        "road": null,
        "house_number": null,
        "neighbourhood": null,
        "suburb": "Bakau",
        "city_district": null,
        "city": "Serrekunda",
        "state": "Kanifing Municipal Council",
        "postcode": null,
        "country": "The Gambia",
        "country_code": "gm"
      },
      "address": "997, Bakau, Bakau New Town and Fajara, Serrekunda, 22170 Kanifing Municipal Council, The Gambia"
    },
    {
      "lat": 13.465748958361809,
      "lon": -16.6494917053944,
      "geoinfo": {
        "display_name": "Banjul - Serrekunda Highway, Old Jeshwang, Kanifing, Kanifing Municipal Council, The Gambia",
        "road": "Banjul - Serrekunda Highway",
        "house_number": null,
        "neighbourhood": "Old Jeshwang",
        "suburb": null,
        "city_district": null,
        "city": "Kanifing",
        "state": "Kanifing Municipal Council",
        "postcode": null,
        "country": "The Gambia",
        "country_code": "gm"
      },
      "address": "002, Banjul - Serrekunda Highway, Old Jeshwang, Kanifing, 96994 Kanifing Municipal Council, The Gambia"
    },
    {
      "lat": 13.45018216105074,
      "lon": -16.705849970263948,
      "geoinfo": {
        "display_name": "Kololi, Serrekunda, Kanifing Municipal Council, The Gambia",
        "road": null,
        "house_number": null,
        "neighbourhood": null,
        "suburb": null,
        "city_district": null,
        "city": "Serrekunda",
        "state": "Kanifing Municipal Council",
        "postcode": null,
        "country": "The Gambia",
        "country_code": "gm"
      },
      "address": "186, Kololi, Serrekunda, 39071 Kanifing Municipal Council, The Gambia"
    }
  ],
  "updated_at": "2025-10-19T04:36:36.336492+00:00",
  "_kind": "geo_samples"
}