{
  "country_code": "GM",
  "country": "Gambia",
  "city": "Bununka Kunda",
  "geonameid": 2413709,
  "target_addresses": 4,
  "samples": [
    {
      "lat": 13.413033587813297,
      "lon": -16.64644938786264,
      "geoinfo": {
        "display_name": "Abuko, Kombo North/Saint Mary, Brikama, West Coast Division, The Gambia",
        "road": null,
        "house_number": null,
        "neighbourhood": null,
        "suburb": null,
        "city_district": null,
        "city": "Abuko",
        "state": "West Coast Division",
        "postcode": null,
        "country": "The Gambia",
        "country_code": "gm"
      },
      "address": "338, Abuko, Kombo North/Saint Mary, Brikama, 95634 West Coast Division, The Gambia"
    },
    {
      "lat": 13.40418682307046,
      "lon": -16.657220067980525,
      "geoinfo": {
        "display_name": "Abuko, Kombo North/Saint Mary, Brikama, West Coast Division, The Gambia",
        "road": null,
        "house_number": null,
        "neighbourhood": null,
        "suburb": null,
        "city_district": null,
        "city": "Abuko",
        "state": "West Coast Division",
        "postcode": null,
        "country": "The Gambia",
        "country_code": "gm"
      },
      "address": "775, Abuko, Kombo North/Saint Mary, Brikama, 14494 West Coast Division, The Gambia"
    },
    {
      "lat": 13.456530900482488,
      "lon": -16.671772528611175,
      "geoinfo": {
        "display_name": "Kanifing Housing Estate, Old Jeshwang, Kanifing, Kanifing Municipal Council, The Gambia",
        "road": null,
        "house_number": null,
        "neighbourhood": "Kanifing Housing Estate",
        "suburb": null,
        "city_district": null,
        "city": "Kanifing",
        "state": "Kanifing Municipal Council",
        "postcode": null,
        "country": "The Gambia",
        "country_code": "gm"
      },
      "address": "442, Kanifing Housing Estate, Old Jeshwang, Kanifing, 80428 Kanifing Municipal Council, The Gambia"
    },
    {
      "lat": 13.433353195179748,
      "lon": -16.682490282601158,
      "geoinfo": {
        "display_name": "Serekunda and London Corner, Serrekunda, Kanifing Municipal Council, The Gambia",
        "road": null,
        "house_number": null,
        "neighbourhood": null,
        "suburb": null,
        "city_district": null,
        "city": "Serrekunda",
        "state": "Kanifing Municipal Council",
        "postcode": null,
        "country": "The Gambia",
        "country_code": "gm"
      },
      "address": "091, Serekunda and London Corner, Serrekunda, 76164 Kanifing Municipal Council, The Gambia"
    }
  ],
  "updated_at": "2025-10-19T04:32:22.606157+00:00",
  "_kind": "geo_samples"
}