{
  "country_code": "GM",
  "country": "Gambia",
  "city": "Dippa Kunda",
  "geonameid": 2413565,
  "target_addresses": 4,
  "samples": [
    {
      "lat": 13.451380180772302,
      "lon": -16.6903197604987,
      "geoinfo": {
        "display_name": "Manjai Kunda, Serrekunda, Kanifing Municipal Council, The Gambia",
        "road": null,
        "house_number": null,
        "neighbourhood": null,
        "suburb": "Manjai Kunda",
        "city_district": null,
        "city": "Serrekunda",
        "state": "Kanifing Municipal Council",
        "postcode": null,
        "country": "The Gambia",
        "country_code": "gm"
      },
      "address": "Manjai Kunda, Dippa Kunda, Kanifing Municipal Council, Gambia"
    },
    {
      "lat": 13.446013518720942,
      "lon": -16.681750258281568,
      "geoinfo": {
        "display_name": "Dippa Kunda, Serrekunda, Kanifing Municipal Council, The Gambia",
        "road": null,
        "house_number": null,
        "neighbourhood": null,
        "suburb": null,
        "city_district": null,
        "city": "Serrekunda",
        "state": "Kanifing Municipal Council",
        "postcode": null,
        "country": "The Gambia",
        "country_code": "gm"
      },
      "address": "Dippa Kunda, Kanifing Municipal Council, Gambia"
    },
    {
      "lat": 13.42506180639642,
      "lon": -16.66629768146852,
      "geoinfo": {
        "display_name": "Tallinding, Talinding South, Serrekunda, Kanifing Municipal Council, The Gambia",
        "road": null,
        "house_number": null,
        "neighbourhood": null,
        "suburb": "Tallinding",
        "city_district": null,
        "city": "Serrekunda",
        "state": "Kanifing Municipal Council",
        "postcode": null,
        "country": "The Gambia",
        "country_code": "gm"
      },
      "address": "Tallinding, Dippa Kunda, Kanifing Municipal Council, Gambia"
    },
    {
      "lat": 13.454341594090023,
      "lon": -16.687375753529004,
      "geoinfo": {
        "display_name": "Latrikunda Yiringanya, Serrekunda, Kanifing Municipal Council, The Gambia",
        "road": null,
        "house_number": null,
        "neighbourhood": null,
        "suburb": null,
        "city_district": null,
        "city": "Serrekunda",
        "state": "Kanifing Municipal Council",
        "postcode": null,
        "country": "The Gambia",
        "country_code": "gm"
      },
      "address": "529, Latrikunda Yiringanya, Serrekunda, 54330 Kanifing Municipal Council, The Gambia"
    },
    {
      "lat": 13.42599584997827,
      "lon": -16.693199536049768,
      "geoinfo": {
        "display_name": "Sukuta, Kombo North/Saint Mary, Brikama, West Coast Division, The Gambia",
        "road": null,
        "house_number": null,
        "neighbourhood": null,
        "suburb": null,
        "city_district": null,
        "city": "Sukuta",
        "state": "West Coast Division",
        "postcode": null,
        "country": "The Gambia",
        "country_code": "gm"
      },
      "address": "135, Sukuta, Kombo North/Saint Mary, Brikama, 54908 West Coast Division, The Gambia"
    },
    {
      "lat": 13.420121505013597,
      "lon": -16.649407798844482,
      "geoinfo": {
        "display_name": "Faji Kunda, Abuko, Kombo North/Saint Mary, Brikama, West Coast Division, The Gambia",
        "road": null,
        "house_number": null,
        "neighbourhood": null,
        "suburb": null,
        "city_district": null,
        "city": "Abuko",
        "state": "West Coast Division",
        "postcode": null,
        "country": "The Gambia",
        "country_code": "gm"
      },
      "address": "805, Faji Kunda, Abuko, Kombo North/Saint Mary, Brikama, 90403 West Coast Division, The Gambia"
    },
    {
      "lat": 13.449795017779337,
      "lon": -16.688988231135223,
      "geoinfo": {
        "display_name": "Manjai Kunda, Serrekunda, Kanifing Municipal Council, The Gambia",
        "road": null,
        "house_number": null,
        "neighbourhood": null,
        "suburb": "Manjai Kunda",
        "city_district": null,
        "city": "Serrekunda",
        "state": "Kanifing Municipal Council",
        "postcode": null,
        "country": "The Gambia",
        "country_code": "gm"
      },
      "address": "592, Manjai Kunda, Serrekunda, 87898 Kanifing Municipal Council, The Gambia"
    }
  ],
  "updated_at": "2025-10-19T04:34:48.117978+00:00",
  "_kind": "geo_samples"
}