{
  "country_code": "GM",
  "country": "Gambia",
  "city": "Kanifing",
  "geonameid": 2413106,
  "target_addresses": 4,
  "samples": [
    {
      "lat": 13.470477810668838,
      "lon": -16.654679576324643,
      "geoinfo": {
        "display_name": "Old Cape Road, Garden, Old Bakau and Cape Point, Serrekunda, Kanifing Municipal Council, The Gambia",
        "road": "Old Cape Road",
        "house_number": null,
        "neighbourhood": null,
        "suburb": null,
        "city_district": null,
        "city": "Serrekunda",
        "state": "Kanifing Municipal Council",
        "postcode": null,
        "country": "The Gambia",
        "country_code": "gm"
      },
      "address": "Old Cape Road, Kanifing, Kanifing Municipal Council, Gambia"
    },
    {
      "lat": 13.486453253050216,
      "lon": -16.664348447338906,
      "geoinfo": {
        "display_name": "Ocean Bay Resort, Kofi Annan Street, Garden, Old Bakau and Cape Point, Serrekunda, Kanifing Municipal Council, The Gambia",
        "road": "Kofi Annan Street",
        "house_number": null,
        "neighbourhood": null,
        "suburb": null,
        "city_district": null,
        "city": "Serrekunda",
        "state": "Kanifing Municipal Council",
        "postcode": null,
        "country": "The Gambia",
        "country_code": "gm"
      },
      "address": "Kofi Annan Street, Kanifing, Kanifing Municipal Council, Gambia"
    },
    {
      "lat": 13.480454746382716,
      "lon": -16.655118781066008,
      "geoinfo": {
        "display_name": "Garden, Old Bakau and Cape Point, Serrekunda, Kanifing Municipal Council, The Gambia",
        "road": null,
        "house_number": null,
        "neighbourhood": null,
        "suburb": null,
        "city_district": null,
        "city": "Serrekunda",
        "state": "Kanifing Municipal Council",
        "postcode": null,
        "country": "The Gambia",
        "country_code": "gm"
      },
      "address": "Kanifing, Kanifing Municipal Council, Gambia"
    },
    {
      "lat": 13.4637349650771,
      "lon": -16.651709297000213,
      "geoinfo": {
        "display_name": "Banjul - Serrekunda Highway, Old Jeshwang, Old Bakau and Cape Point, Kanifing, Kanifing Municipal Council, The Gambia",
        "road": "Banjul - Serrekunda Highway",
        "house_number": null,
        "neighbourhood": "Old Jeshwang",
        "suburb": null,
        "city_district": null,
        "city": "Kanifing",
        "state": "Kanifing Municipal Council",
        "postcode": null,
        "country": "The Gambia",
        "country_code": "gm"
      },
      "address": "Banjul - Serrekunda Highway, Kanifing, Kanifing Municipal Council, Gambia"
    },
    {
      "lat": 13.416263872911841,
      "lon": -16.665090537158143,
      "geoinfo": {
        "display_name": "Faji Kunda, Abuko, Kombo North/Saint Mary, Brikama, West Coast Division, The Gambia",
        "road": null,
        "house_number": null,
        "neighbourhood": null,
        "suburb": null,
        "city_district": null,
        "city": "Abuko",
        "state": "West Coast Division",
        "postcode": null,
        "country": "The Gambia",
        "country_code": "gm"
      },
      "address": "530, Faji Kunda, Abuko, Kombo North/Saint Mary, Brikama, 40121 West Coast Division, The Gambia"
    },
    {
      "lat": 13.471029792455761,
      "lon": -16.659297707938787,
      "geoinfo": {
        "display_name": "Old Cape Road, Garden, Old Bakau and Cape Point, Serrekunda, Kanifing Municipal Council, The Gambia",
        "road": "Old Cape Road",
        "house_number": null,
        "neighbourhood": null,
        "suburb": null,
        "city_district": null,
        "city": "Serrekunda",
        "state": "Kanifing Municipal Council",
        "postcode": null,
        "country": "The Gambia",
        "country_code": "gm"
      },
      "address": "132, Old Cape Road, Garden, Old Bakau and Cape Point, Serrekunda, 61811 Kanifing Municipal Council, The Gambia"
    },
    {
      "lat": 13.43611320565827,
      "lon": -16.674521140760508,
      "geoinfo": {
        "display_name": "Ebo Town, New Jeshwang and Ebo Town, Serrekunda, Kanifing Municipal Council, The Gambia",
        "road": null,
        "house_number": null,
        "neighbourhood": null,
        "suburb": "Ebo Town",
        "city_district": null,
        "city": "Serrekunda",
        "state": "Kanifing Municipal Council",
        "postcode": null,
        "country": "The Gambia",
        "country_code": "gm"
      },
      "address": "589, Ebo Town, New Jeshwang and Ebo Town, Serrekunda, 21689 Kanifing Municipal Council, The Gambia"
    },
    {
      "lat": 13.435183571218582,
      "lon": -16.697671237860867,
      "geoinfo": {
        "display_name": "Bakoteh, Sukuta, Kombo North/Saint Mary, Brikama, Kanifing Municipal Council, The Gambia",
        "road": null,
        "house_number": null,
        "neighbourhood": null,
        "suburb": null,
        "city_district": null,
        "city": "Sukuta",
        "state": "Kanifing Municipal Council",
        "postcode": null,
        "country": "The Gambia",
        "country_code": "gm"
      },
      "address": "635, Kanifing, 15652 Kanifing Municipal Council, Gambia"
    }
  ],
  "updated_at": "2025-10-19T04:27:35.034932+00:00",
  "_kind": "geo_samples"
}