{
  "country_code": "GM",
  "country": "Gambia",
  "city": "Kotu",
  "geonameid": 2412833,
  "target_addresses": 4,
  "samples": [
    {
      "lat": 13.451032603354149,
      "lon": -16.685804207464667,
      "geoinfo": {
        "display_name": "Latrikunda Yiringanya, Serrekunda, Kanifing Municipal Council, The Gambia",
        "road": null,
        "house_number": null,
        "neighbourhood": null,
        "suburb": null,
        "city_district": null,
        "city": "Serrekunda",
        "state": "Kanifing Municipal Council",
        "postcode": null,
        "country": "The Gambia",
        "country_code": "gm"
      },
      "address": "Kotu, Kanifing Municipal Council, Gambia"
    },
    {
      "lat": 13.432216241514535,
      "lon": -16.69511992047342,
      "geoinfo": {
        "display_name": "Bakoteh, Sukuta, Kombo North/Saint Mary, Brikama, West Coast Division, The Gambia",
        "road": null,
        "house_number": null,
        "neighbourhood": null,
        "suburb": null,
        "city_district": null,
        "city": "Sukuta",
        "state": "West Coast Division",
        "postcode": null,
        "country": "The Gambia",
        "country_code": "gm"
      },
      "address": "Kotu, West Coast Division, Gambia"
    },
    {
      "lat": 13.461474975894218,
      "lon": -16.722540238337647,
      "geoinfo": {
        "display_name": "Kotu beach, Bakau New Town and Fajara, Serrekunda, Kanifing Municipal Council, The Gambia",
        "road": null,
        "house_number": null,
        "neighbourhood": "Kotu beach",
        "suburb": null,
        "city_district": null,
        "city": "Serrekunda",
        "state": "Kanifing Municipal Council",
        "postcode": null,
        "country": "The Gambia",
        "country_code": "gm"
      },
      "address": "Kotu beach, Kotu, Kanifing Municipal Council, Gambia"
    },
    {
      "lat": 13.44181928692072,
      "lon": -16.71328204037798,
      "geoinfo": {
        "display_name": "Kololi, Kombo North/Saint Mary, Brikama, West Coast Division, The Gambia",
        "road": null,
        "house_number": null,
        "neighbourhood": null,
        "suburb": "Kololi",
        "city_district": null,
        "city": null,
        "state": "West Coast Division",
        "postcode": null,
        "country": "The Gambia",
        "country_code": "gm"
      },
      "address": "221, Kololi, Kombo North/Saint Mary, Brikama, 77711 West Coast Division, The Gambia"
    },
    {
      "lat": 13.495005924057367,
      "lon": -16.70700939629193,
      "geoinfo": {
        "display_name": "Fajara, Bakau New Town and Fajara, Serrekunda, Kanifing Municipal Council, The Gambia",
        "road": null,
        "house_number": null,
        "neighbourhood": null,
        "suburb": "Fajara",
        "city_district": null,
        "city": "Serrekunda",
        "state": "Kanifing Municipal Council",
        "postcode": null,
        "country": "The Gambia",
        "country_code": "gm"
      },
      "address": "949, Fajara, Bakau New Town and Fajara, Serrekunda, 64723 Kanifing Municipal Council, The Gambia"
    },
    {
      "lat": 13.43488400748727,
      "lon": -16.71018009983316,
      "geoinfo": {
        "display_name": "Kerr Serign, Sukuta, Kombo North/Saint Mary, Brikama, West Coast Division, The Gambia",
        "road": null,
        "house_number": null,
        "neighbourhood": null,
        "suburb": "Kerr Serign",
        "city_district": null,
        "city": "Sukuta",
        "state": "West Coast Division",
        "postcode": null,
        "country": "The Gambia",
        "country_code": "gm"
      },
      "address": "101, Kerr Serign, Sukuta, Kombo North/Saint Mary, Brikama, 38862 West Coast Division, The Gambia"
    },
    {
      "lat": 13.48124803972256,
      "lon": -16.682158178953173,
      "geoinfo": {
        "display_name": "Bakau Newtown, Bakau, Bakau New Town and Fajara, Serrekunda, Kanifing Municipal Council, The Gambia",
        "road": null,
        "house_number": null,
        "neighbourhood": "Bakau Newtown",
        "suburb": "Bakau",
        "city_district": null,
        "city": "Serrekunda",
        "state": "Kanifing Municipal Council",
        "postcode": null,
        "country": "The Gambia",
        "country_code": "gm"
      },
      "address": "617, Bakau Newtown, Bakau, Bakau New Town and Fajara, Serrekunda, 77202 Kanifing Municipal Council, The Gambia"
    }
  ],
  "updated_at": "2025-10-19T02:29:43.017353+00:00",
  "_kind": "geo_samples"
}