{
  "country_code": "GM",
  "country": "Gambia",
  "city": "Sanchaba",
  "geonameid": 2412186,
  "target_addresses": 4,
  "samples": [
    {
      "lat": 13.439790975451631,
      "lon": -16.748095526264482,
      "geoinfo": {
        "display_name": "Bijilo, Sukuta, Kombo North/Saint Mary, Brikama, West Coast Division, The Gambia",
        "road": null,
        "house_number": null,
        "neighbourhood": null,
        "suburb": "Bijilo",
        "city_district": null,
        "city": "Sukuta",
        "state": "West Coast Division",
        "postcode": null,
        "country": "The Gambia",
        "country_code": "gm"
      },
      "address": "Bijilo, Sanchaba, West Coast Division, Gambia"
    },
    {
      "lat": 13.39487152223706,
      "lon": -16.73360764273914,
      "geoinfo": {
        "display_name": "Brusubi Phase 1, Sukuta, Kombo North/Saint Mary, Brikama, West Coast Division, The Gambia",
        "road": null,
        "house_number": null,
        "neighbourhood": null,
        "suburb": "Brusubi Phase 1",
        "city_district": null,
        "city": "Sukuta",
        "state": "West Coast Division",
        "postcode": null,
        "country": "The Gambia",
        "country_code": "gm"
      },
      "address": "Brusubi Phase 1, Sanchaba, West Coast Division, Gambia"
    },
    {
      "lat": 13.396895128538079,
      "lon": -16.713243881921592,
      "geoinfo": {
        "display_name": "Brusubi Phase 2, Sukuta, Kombo North/Saint Mary, Brikama, West Coast Division, The Gambia",
        "road": null,
        "house_number": null,
        "neighbourhood": null,
        "suburb": "Brusubi Phase 2",
        "city_district": null,
        "city": "Sukuta",
        "state": "West Coast Division",
        "postcode": null,
        "country": "The Gambia",
        "country_code": "gm"
      },
      "address": "Brusubi Phase 2, Sanchaba, West Coast Division, Gambia"
    },
    {
      "lat": 13.436051824799339,
      "lon": -16.729542055808245,
      "geoinfo": {
        "display_name": "Akuto Park Trail, Bijilo, Sukuta, Kombo North/Saint Mary, Brikama, West Coast Division, The Gambia",
        "road": "Akuto Park Trail",
        "house_number": null,
        "neighbourhood": null,
        "suburb": "Bijilo",
        "city_district": null,
        "city": "Sukuta",
        "state": "West Coast Division",
        "postcode": null,
        "country": "The Gambia",
        "country_code": "gm"
      },
      "address": "Akuto Park Trail, Sanchaba, West Coast Division, Gambia"
    },
    {
      "lat": 13.433594945426373,
      "lon": -16.685677516202297,
      "geoinfo": {
        "display_name": "Serekunda and London Corner, Serrekunda, Kanifing Municipal Council, The Gambia",
        "road": null,
        "house_number": null,
        "neighbourhood": null,
        "suburb": null,
        "city_district": null,
        "city": "Serrekunda",
        "state": "Kanifing Municipal Council",
        "postcode": null,
        "country": "The Gambia",
        "country_code": "gm"
      },
      "address": "847, Serekunda and London Corner, Serrekunda, 18352 Kanifing Municipal Council, The Gambia"
    },
    {
      "lat": 13.397657657968198,
      "lon": -16.67287622591064,
      "geoinfo": {
        "display_name": "Wellingara, Kombo North/Saint Mary, Brikama, West Coast Division, The Gambia",
        "road": null,
        "house_number": null,
        "neighbourhood": null,
        "suburb": null,
        "city_district": null,
        "city": "Wellingara",
        "state": "West Coast Division",
        "postcode": null,
        "country": "The Gambia",
        "country_code": "gm"
      },
      "address": "031, Wellingara, Kombo North/Saint Mary, Brikama, 92207 West Coast Division, The Gambia"
    },
    {
      "lat": 13.42841086989511,
      "lon": -16.702475189182792,
      "geoinfo": {
        "display_name": "Bakoteh, Sukuta, Kombo North/Saint Mary, Brikama, West Coast Division, The Gambia",
        "road": null,
        "house_number": null,
        "neighbourhood": null,
        "suburb": null,
        "city_district": null,
        "city": "Sukuta",
        "state": "West Coast Division",
        "postcode": null,
        "country": "The Gambia",
        "country_code": "gm"
      },
      "address": "259, Bakoteh, Sukuta, Kombo North/Saint Mary, Brikama, 69407 West Coast Division, The Gambia"
    },
    {
      "lat": 13.400891149351345,
      "lon": -16.74795839724253,
      "geoinfo": {
        "display_name": "Brufut Heights, Kombo North/Saint Mary, Brikama, West Coast Division, The Gambia",
        "road": null,
        "house_number": null,
        "neighbourhood": null,
        "suburb": "Brufut Heights",
        "city_district": null,
        "city": null,
        "state": "West Coast Division",
        "postcode": null,
        "country": "The Gambia",
        "country_code": "gm"
      },
      "address": "731, Brufut Heights, Kombo North/Saint Mary, Brikama, 53161 West Coast Division, The Gambia"
    }
  ],
  "updated_at": "2025-10-19T04:27:06.976735+00:00",
  "_kind": "geo_samples"
}