{
  "country_code": "GM",
  "country": "Gambia",
  "city": "Serekunda",
  "geonameid": 2411989,
  "target_addresses": 4,
  "samples": [
    {
      "lat": 13.426581612198408,
      "lon": -16.676159119605806,
      "geoinfo": {
        "display_name": "Bundung Six Junction, Serrekunda, Kanifing Municipal Council, The Gambia",
        "road": null,
        "house_number": null,
        "neighbourhood": null,
        "suburb": null,
        "city_district": null,
        "city": "Serrekunda",
        "state": "Kanifing Municipal Council",
        "postcode": null,
        "country": "The Gambia",
        "country_code": "gm"
      },
      "address": "Serekunda, Kanifing Municipal Council, Gambia"
    },
    {
      "lat": 13.44081935012215,
      "lon": -16.66454019631675,
      "geoinfo": {
        "display_name": "New Jeshwang, Ebo Town, New Jeshwang and Ebo Town, Serrekunda, Kanifing Municipal Council, The Gambia",
        "road": null,
        "house_number": null,
        "neighbourhood": "New Jeshwang",
        "suburb": "Ebo Town",
        "city_district": null,
        "city": "Serrekunda",
        "state": "Kanifing Municipal Council",
        "postcode": null,
        "country": "The Gambia",
        "country_code": "gm"
      },
      "address": "New Jeshwang, Serekunda, Kanifing Municipal Council, Gambia"
    },
    {
      "lat": 13.470131034454553,
      "lon": -16.67331531892028,
      "geoinfo": {
        "display_name": "Saitmatty Road, Bakau Women's Garden, Bakau New Town and Fajara, Serrekunda, Kanifing Municipal Council, The Gambia",
        "road": "Saitmatty Road",
        "house_number": null,
        "neighbourhood": null,
        "suburb": null,
        "city_district": null,
        "city": "Serrekunda",
        "state": "Kanifing Municipal Council",
        "postcode": null,
        "country": "The Gambia",
        "country_code": "gm"
      },
      "address": "Saitmatty Road, Serekunda, Kanifing Municipal Council, Gambia"
    },
    {
      "lat": 13.465226207935505,
      "lon": -16.68994414418739,
      "geoinfo": {
        "display_name": "Fajara, Bakau New Town and Fajara, Serrekunda, Kanifing Municipal Council, The Gambia",
        "road": null,
        "house_number": null,
        "neighbourhood": null,
        "suburb": "Fajara",
        "city_district": null,
        "city": "Serrekunda",
        "state": "Kanifing Municipal Council",
        "postcode": null,
        "country": "The Gambia",
        "country_code": "gm"
      },
      "address": "Fajara, Serekunda, Kanifing Municipal Council, Gambia"
    },
    {
      "lat": 13.424750023662112,
      "lon": -16.683095024522046,
      "geoinfo": {
        "display_name": "Bundung Borehole, Serrekunda, Kanifing Municipal Council, The Gambia",
        "road": null,
        "house_number": null,
        "neighbourhood": null,
        "suburb": null,
        "city_district": null,
        "city": "Serrekunda",
        "state": "Kanifing Municipal Council",
        "postcode": null,
        "country": "The Gambia",
        "country_code": "gm"
      },
      "address": "060, Bundung Borehole, Serrekunda, 03205 Kanifing Municipal Council, The Gambia"
    },
    {
      "lat": 13.434523360520872,
      "lon": -16.710088930562957,
      "geoinfo": {
        "display_name": "Kerr Serign, Sukuta, Kombo North/Saint Mary, Brikama, West Coast Division, The Gambia",
        "road": null,
        "house_number": null,
        "neighbourhood": null,
        "suburb": "Kerr Serign",
        "city_district": null,
        "city": "Sukuta",
        "state": "West Coast Division",
        "postcode": null,
        "country": "The Gambia",
        "country_code": "gm"
      },
      "address": "672, Kerr Serign, Sukuta, Kombo North/Saint Mary, Brikama, 93550 West Coast Division, The Gambia"
    },
    {
      "lat": 13.46306596012243,
      "lon": -16.661743630045777,
      "geoinfo": {
        "display_name": "Old Jeshwang, Serrekunda, Kanifing Municipal Council, The Gambia",
        "road": null,
        "house_number": null,
        "neighbourhood": "Old Jeshwang",
        "suburb": null,
        "city_district": null,
        "city": "Serrekunda",
        "state": "Kanifing Municipal Council",
        "postcode": null,
        "country": "The Gambia",
        "country_code": "gm"
      },
      "address": "032, Old Jeshwang, Serrekunda, 46609 Kanifing Municipal Council, The Gambia"
    },
    {
      "lat": 13.429651261655877,
      "lon": -16.648560273138035,
      "geoinfo": {
        "display_name": "Ebo Town, New Jeshwang and Ebo Town, Serrekunda, Kanifing Municipal Council, The Gambia",
        "road": null,
        "house_number": null,
        "neighbourhood": null,
        "suburb": "Ebo Town",
        "city_district": null,
        "city": "Serrekunda",
        "state": "Kanifing Municipal Council",
        "postcode": null,
        "country": "The Gambia",
        "country_code": "gm"
      },
      "address": "483, Ebo Town, New Jeshwang and Ebo Town, Serrekunda, 70543 Kanifing Municipal Council, The Gambia"
    }
  ],
  "updated_at": "2025-10-19T04:31:35.060993+00:00",
  "_kind": "geo_samples"
}