{
  "country_code": "GM",
  "country": "Gambia",
  "city": "Soma",
  "geonameid": 2411905,
  "target_addresses": 4,
  "samples": [
    {
      "lat": 13.459624165050526,
      "lon": -15.552694470636357,
      "geoinfo": {
        "display_name": "Pakalinding, Jarra West, Mansakonko, Lower River Division, The Gambia",
        "road": null,
        "house_number": null,
        "neighbourhood": null,
        "suburb": null,
        "city_district": null,
        "city": "Pakalinding",
        "state": "Lower River Division",
        "postcode": null,
        "country": "The Gambia",
        "country_code": "gm"
      },
      "address": "Soma, Lower River Division, Gambia"
    },
    {
      "lat": 13.46363108719645,
      "lon": -15.531357485041498,
      "geoinfo": {
        "display_name": "Arezki staff apartment, Soma Mansakonko Road, Soma, Jarra West, Mansakonko, Lower River Division, The Gambia",
        "road": "Soma Mansakonko Road",
        "house_number": null,
        "neighbourhood": null,
        "suburb": null,
        "city_district": null,
        "city": "Soma",
        "state": "Lower River Division",
        "postcode": null,
        "country": "The Gambia",
        "country_code": "gm"
      },
      "address": "Soma Mansakonko Road, Soma, Lower River Division, Gambia"
    },
    {
      "lat": 13.44350620738096,
      "lon": -15.503520437680368,
      "geoinfo": {
        "display_name": "South Bank Road, Soma, Jarra West, Mansakonko, Lower River Division, The Gambia",
        "road": "South Bank Road",
        "house_number": null,
        "neighbourhood": null,
        "suburb": null,
        "city_district": null,
        "city": "Soma",
        "state": "Lower River Division",
        "postcode": null,
        "country": "The Gambia",
        "country_code": "gm"
      },
      "address": "South Bank Road, Soma, Lower River Division, Gambia"
    },
    {
      "lat": 13.420482892421584,
      "lon": -15.576088520262122,
      "geoinfo": {
        "display_name": "South Bank Road, Laibe Kunda, Yoro Jula, Jarra West, Mansakonko, Lower River Division, The Gambia",
        "road": "South Bank Road",
        "house_number": null,
        "neighbourhood": null,
        "suburb": null,
        "city_district": null,
        "city": "Yoro Jula",
        "state": "Lower River Division",
        "postcode": null,
        "country": "The Gambia",
        "country_code": "gm"
      },
      "address": "274, South Bank Road, Laibe Kunda, Yoro Jula, Jarra West, Mansakonko, 38164 Lower River Division, The Gambia"
    },
    {
      "lat": 13.39240145315802,
      "lon": -15.544097506458495,
      "geoinfo": {
        "display_name": "Fonkoi Kunda, Jarra West, Mansakonko, Lower River Division, The Gambia",
        "road": null,
        "house_number": null,
        "neighbourhood": null,
        "suburb": null,
        "city_district": null,
        "city": "Fonkoi Kunda",
        "state": "Lower River Division",
        "postcode": null,
        "country": "The Gambia",
        "country_code": "gm"
      },
      "address": "533, Fonkoi Kunda, Jarra West, Mansakonko, 46297 Lower River Division, The Gambia"
    },
    {
      "lat": 13.39051047302341,
      "lon": -15.53336561207922,
      "geoinfo": {
        "display_name": "Biranoya, Sumbundu, Jarra West, Mansakonko, Lower River Division, The Gambia",
        "road": null,
        "house_number": null,
        "neighbourhood": null,
        "suburb": null,
        "city_district": null,
        "city": "Sumbundu",
        "state": "Lower River Division",
        "postcode": null,
        "country": "The Gambia",
        "country_code": "gm"
      },
      "address": "355, Soma, 53847 Lower River Division, Gambia"
    },
    {
      "lat": 13.445733202725275,
      "lon": -15.569594917995996,
      "geoinfo": {
        "display_name": "Si Kunda, Jarra West, Mansakonko, Lower River Division, The Gambia",
        "road": null,
        "house_number": null,
        "neighbourhood": null,
        "suburb": null,
        "city_district": null,
        "city": "Si Kunda",
        "state": "Lower River Division",
        "postcode": null,
        "country": "The Gambia",
        "country_code": "gm"
      },
      "address": "615, Si Kunda, Jarra West, Mansakonko, 59825 Lower River Division, The Gambia"
    }
  ],
  "updated_at": "2025-10-19T04:34:09.770412+00:00",
  "_kind": "geo_samples"
}