{
  "country_code": "MS",
  "country": "Montserrat",
  "city": "Brades",
  "geonameid": 7266440,
  "target_addresses": 150,
  "samples": [
    {
      "lat": 16.829993834661813,
      "lon": -62.19499282485093,
      "geoinfo": {
        "display_name": "Little Bay, Saint Peter, MSR1210, Montserrat",
        "road": null,
        "house_number": null,
        "neighbourhood": null,
        "suburb": null,
        "city_district": null,
        "city": "Little Bay",
        "state": null,
        "postcode": "MSR1210",
        "country": "Montserrat",
        "country_code": "ms"
      },
      "address": "Brades, Montserrat"
    },
    {
      "lat": 16.79408972124365,
      "lon": -62.182409307054556,
      "geoinfo": {
        "display_name": "Ocean View Drive, Look Out, Gerald's, Look Out, Saint Peter, MSR1210, Montserrat",
        "road": "Ocean View Drive",
        "house_number": null,
        "neighbourhood": null,
        "suburb": "Gerald's",
        "city_district": null,
        "city": "Look Out",
        "state": null,
        "postcode": "MSR1210",
        "country": "Montserrat",
        "country_code": "ms"
      },
      "address": "Ocean View Drive, Brades, Montserrat"
    },
    {
      "lat": 16.777323167549916,
      "lon": -62.18455604807365,
      "geoinfo": {
        "display_name": "Upper Dick Hill Road, Judy Piece, Gerald's, Saint Johns, Saint Peter, MSR1110, Montserrat",
        "road": "Upper Dick Hill Road",
        "house_number": null,
        "neighbourhood": null,
        "suburb": "Gerald's",
        "city_district": null,
        "city": "Saint Johns",
        "state": null,
        "postcode": "MSR1110",
        "country": "Montserrat",
        "country_code": "ms"
      },
      "address": "Upper Dick Hill Road, Brades, Montserrat"
    },
    {
      "lat": 16.78556058634097,
      "lon": -62.190796077316456,
      "geoinfo": {
        "display_name": "Hospital Road, Judy Piece, Gerald's, Saint Johns, Saint Peter, MSR1210, Montserrat",
        "road": "Hospital Road",
        "house_number": null,
        "neighbourhood": null,
        "suburb": "Gerald's",
        "city_district": null,
        "city": "Saint Johns",
        "state": null,
        "postcode": "MSR1210",
        "country": "Montserrat",
        "country_code": "ms"
      },
      "address": "Hospital Road, Brades, Montserrat"
    },
    {
      "lat": 16.771610241792555,
      "lon": -62.199386319949056,
      "geoinfo": {
        "display_name": "Dry Waterfall Trail, Fogatry, Baker Hill, Saint Peter, MSR1110, Montserrat",
        "road": "Dry Waterfall Trail",
        "house_number": null,
        "neighbourhood": null,
        "suburb": null,
        "city_district": null,
        "city": "Baker Hill",
        "state": null,
        "postcode": "MSR1110",
        "country": "Montserrat",
        "country_code": "ms"
      },
      "address": "Dry Waterfall Trail, Brades, Montserrat"
    },
    {
      "lat": 16.798693945939352,
      "lon": -62.20228025086405,
      "geoinfo": {
        "display_name": "Robert W. Griffith Drive, Geralds, Carr's Bay, Little Bay, Saint Peter, MSR1210, Montserrat",
        "road": "Robert W. Griffith Drive",
        "house_number": null,
        "neighbourhood": null,
        "suburb": null,
        "city_district": null,
        "city": "Little Bay",
        "state": null,
        "postcode": "MSR1210",
        "country": "Montserrat",
        "country_code": "ms"
      },
      "address": "Robert W. Griffith Drive, Brades, Montserrat"
    },
    {
      "lat": 16.784229936701806,
      "lon": -62.21231250263629,
      "geoinfo": {
        "display_name": "Nixons Road, Fogatry, Cudjoe Head, Saint Peter, MSR1310, Montserrat",
        "road": "Nixons Road",
        "house_number": null,
        "neighbourhood": null,
        "suburb": null,
        "city_district": null,
        "city": "Cudjoe Head",
        "state": null,
        "postcode": "MSR1310",
        "country": "Montserrat",
        "country_code": "ms"
      },
      "address": "Nixons Road, Brades, Montserrat"
    },
    {
      "lat": 16.773139589673924,
      "lon": -62.21350614905176,
      "geoinfo": {
        "display_name": "Cheap End Road, Virgin Islands, Fogatry, St. Peter's, Saint Peter, MSR1310, Montserrat",
        "road": "Cheap End Road",
        "house_number": null,
        "neighbourhood": "Virgin Islands",
        "suburb": null,
        "city_district": null,
        "city": "St. Peter's",
        "state": null,
        "postcode": "MSR1310",
        "country": "Montserrat",
        "country_code": "ms"
      },
      "address": "Cheap End Road, Brades, Montserrat"
    },
    {
      "lat": 16.802502733236288,
      "lon": -62.177418282226384,
      "geoinfo": {
        "display_name": "Marguerita Beach, Marguerita Drive, Look Out, Gerald's, Look Out, Saint Peter, MSR1210, Montserrat",
        "road": "Marguerita Drive",
        "house_number": null,
        "neighbourhood": null,
        "suburb": "Gerald's",
        "city_district": null,
        "city": "Look Out",
        "state": null,
        "postcode": "MSR1210",
        "country": "Montserrat",
        "country_code": "ms"
      },
      "address": "Marguerita Drive, Brades, Montserrat"
    },
    {
      "lat": 16.807288985151803,
      "lon": -62.195314037011755,
      "geoinfo": {
        "display_name": "Dowdy Pond Road, Gerald's, Brades, Saint Peter, MSR1210, Montserrat",
        "road": "Dowdy Pond Road",
        "house_number": null,
        "neighbourhood": null,
        "suburb": "Gerald's",
        "city_district": null,
        "city": "Brades",
        "state": null,
        "postcode": "MSR1210",
        "country": "Montserrat",
        "country_code": "ms"
      },
      "address": "Dowdy Pond Road, Brades, Montserrat"
    },
    {
      "lat": 16.796292925074578,
      "lon": -62.20718318149161,
      "geoinfo": {
        "display_name": "Sweeneys Road, Davy Hill North, Carr's Bay, Davy Hill, Saint Peter, MSR1210, Montserrat",
        "road": "Sweeneys Road",
        "house_number": null,
        "neighbourhood": null,
        "suburb": null,
        "city_district": null,
        "city": "Davy Hill",
        "state": null,
        "postcode": "MSR1210",
        "country": "Montserrat",
        "country_code": "ms"
      },
      "address": "Sweeneys Road, Brades, Montserrat"
    },
    {
      "lat": 16.77547603230602,
      "lon": -62.20377609576815,
      "geoinfo": {
        "display_name": "Baker Hill Road, Fogatry, Baker Hill, Saint Peter, MSR1110, Montserrat",
        "road": "Baker Hill Road",
        "house_number": null,
        "neighbourhood": null,
        "suburb": null,
        "city_district": null,
        "city": "Baker Hill",
        "state": null,
        "postcode": "MSR1110",
        "country": "Montserrat",
        "country_code": "ms"
      },
      "address": "Baker Hill Road, Brades, Montserrat"
    },
    {
      "lat": 16.778605973913333,
      "lon": -62.18238372778881,
      "geoinfo": {
        "display_name": "Blakes Estate Road, Look Out, Saint Peter, MSR1110, Montserrat",
        "road": "Blakes Estate Road",
        "house_number": null,
        "neighbourhood": null,
        "suburb": null,
        "city_district": null,
        "city": "Look Out",
        "state": null,
        "postcode": "MSR1110",
        "country": "Montserrat",
        "country_code": "ms"
      },
      "address": "Blakes Estate Road, Brades, Montserrat"
    },
    {
      "lat": 16.766549808028792,
      "lon": -62.2087137409262,
      "geoinfo": {
        "display_name": "Oriole Trail, Fogatry, Woodlands, Saint Peter, MSR1110, Montserrat",
        "road": "Oriole Trail",
        "house_number": null,
        "neighbourhood": null,
        "suburb": null,
        "city_district": null,
        "city": "Woodlands",
        "state": null,
        "postcode": "MSR1110",
        "country": "Montserrat",
        "country_code": "ms"
      },
      "address": "Oriole Trail, Brades, Montserrat"
    },
    {
      "lat": 16.765815984434912,
      "lon": -62.220578513978055,
      "geoinfo": {
        "display_name": "Virgin Islands, Woodlands, Saint Peter, MSR1310, Montserrat",
        "road": null,
        "house_number": null,
        "neighbourhood": "Virgin Islands",
        "suburb": null,
        "city_district": null,
        "city": "Woodlands",
        "state": null,
        "postcode": "MSR1310",
        "country": "Montserrat",
        "country_code": "ms"
      },
      "address": "Virgin Islands, Brades, Montserrat"
    },
    {
      "lat": 16.779379797785857,
      "lon": -62.190182111967125,
      "geoinfo": {
        "display_name": "Dick Hill Road, Judy Piece, Saint Johns, Saint Peter, MSR1110, Montserrat",
        "road": "Dick Hill Road",
        "house_number": null,
        "neighbourhood": null,
        "suburb": null,
        "city_district": null,
        "city": "Saint Johns",
        "state": null,
        "postcode": "MSR1110",
        "country": "Montserrat",
        "country_code": "ms"
      },
      "address": "Dick Hill Road, Brades, Montserrat"
    },
    {
      "lat": 16.790361616629525,
      "lon": -62.1811181322234,
      "geoinfo": {
        "display_name": "Ocean Drive, Look Out, Saint Peter, MSR1210, Montserrat",
        "road": "Ocean Drive",
        "house_number": null,
        "neighbourhood": null,
        "suburb": null,
        "city_district": null,
        "city": "Look Out",
        "state": null,
        "postcode": "MSR1210",
        "country": "Montserrat",
        "country_code": "ms"
      },
      "address": "Ocean Drive, Brades, Montserrat"
    },
    {
      "lat": 16.799831042454123,
      "lon": -62.20624410700221,
      "geoinfo": {
        "display_name": "Goodlife Restaurant & Night club, Little Bay Beach Road, Geralds, Carr's Bay, Little Bay, Saint Peter, MSR1210, Montserrat",
        "road": "Little Bay Beach Road",
        "house_number": null,
        "neighbourhood": null,
        "suburb": null,
        "city_district": null,
        "city": "Little Bay",
        "state": null,
        "postcode": "MSR1210",
        "country": "Montserrat",
        "country_code": "ms"
      },
      "address": "Little Bay Beach Road, Brades, Montserrat"
    },
    {
      "lat": 16.782137772990286,
      "lon": -62.1843561599555,
      "geoinfo": {
        "display_name": "Blakes Estate Stadium, Stadium Road, Gerald's, Look Out, Saint Peter, MSR1110, Montserrat",
        "road": "Stadium Road",
        "house_number": null,
        "neighbourhood": null,
        "suburb": "Gerald's",
        "city_district": null,
        "city": "Look Out",
        "state": null,
        "postcode": "MSR1110",
        "country": "Montserrat",
        "country_code": "ms"
      },
      "address": "Stadium Road, Brades, Montserrat"
    },
    {
      "lat": 16.802610287805376,
      "lon": -62.21170092103843,
      "geoinfo": {
        "display_name": "Little Bay Road, Geralds, Carr's Bay, Little Bay, Saint Peter, MSR1210, Montserrat",
        "road": "Little Bay Road",
        "house_number": null,
        "neighbourhood": null,
        "suburb": null,
        "city_district": null,
        "city": "Little Bay",
        "state": null,
        "postcode": "MSR1210",
        "country": "Montserrat",
        "country_code": "ms"
      },
      "address": "Little Bay Road, Brades, Montserrat"
    },
    {
      "lat": 16.764316881825625,
      "lon": -62.215904122392644,
      "geoinfo": {
        "display_name": "Cedar Park Loop, Virgin Islands, Woodlands, Saint Peter, MSR1310, Montserrat",
        "road": "Cedar Park Loop",
        "house_number": null,
        "neighbourhood": "Virgin Islands",
        "suburb": null,
        "city_district": null,
        "city": "Woodlands",
        "state": null,
        "postcode": "MSR1310",
        "country": "Montserrat",
        "country_code": "ms"
      },
      "address": "Cedar Park Loop, Brades, Montserrat"
    },
    {
      "lat": 16.761453727586755,
      "lon": -62.21969998782307,
      "geoinfo": {
        "display_name": "Woodlands Road, Runaway Ghaut, Woodlands, Saint Peter, MSR1310, Montserrat",
        "road": "Woodlands Road",
        "house_number": null,
        "neighbourhood": "Runaway Ghaut",
        "suburb": null,
        "city_district": null,
        "city": "Woodlands",
        "state": null,
        "postcode": "MSR1310",
        "country": "Montserrat",
        "country_code": "ms"
      },
      "address": "Woodlands Road, Brades, Montserrat"
    },
    {
      "lat": 16.8075534730654,
      "lon": -62.20384902964394,
      "geoinfo": {
        "display_name": "Rendezvous Beach Trail, Geralds, Gerald's, Little Bay, Saint Peter, MSR1210, Montserrat",
        "road": "Rendezvous Beach Trail",
        "house_number": null,
        "neighbourhood": null,
        "suburb": "Gerald's",
        "city_district": null,
        "city": "Little Bay",
        "state": null,
        "postcode": "MSR1210",
        "country": "Montserrat",
        "country_code": "ms"
      },
      "address": "Rendezvous Beach Trail, Brades, Montserrat"
    },
    {
      "lat": 16.78447155001058,
      "lon": -62.20097754124709,
      "geoinfo": {
        "display_name": "Barzeys Road, Gerald's, Barzeys, Saint Peter, MSR1110, Montserrat",
        "road": "Barzeys Road",
        "house_number": null,
        "neighbourhood": null,
        "suburb": "Gerald's",
        "city_district": null,
        "city": "Barzeys",
        "state": null,
        "postcode": "MSR1110",
        "country": "Montserrat",
        "country_code": "ms"
      },
      "address": "Barzeys Road, Brades, Montserrat"
    },
    {
      "lat": 16.771289554359498,
      "lon": -62.19564017326909,
      "geoinfo": {
        "display_name": "Mongo Hill Road, Saint Johns, Saint Peter, MSR1110, Montserrat",
        "road": "Mongo Hill Road",
        "house_number": null,
        "neighbourhood": null,
        "suburb": null,
        "city_district": null,
        "city": "Saint Johns",
        "state": null,
        "postcode": "MSR1110",
        "country": "Montserrat",
        "country_code": "ms"
      },
      "address": "Mongo Hill Road, Brades, Montserrat"
    },
    {
      "lat": 16.79617873406279,
      "lon": -62.210098028811636,
      "geoinfo": {
        "display_name": "Brades Road, Carr's Bay, Brades, Saint Peter, MSR1210, Montserrat",
        "road": "Brades Road",
        "house_number": null,
        "neighbourhood": null,
        "suburb": null,
        "city_district": null,
        "city": "Brades",
        "state": null,
        "postcode": "MSR1210",
        "country": "Montserrat",
        "country_code": "ms"
      },
      "address": "Brades Road, Brades, Montserrat"
    },
    {
      "lat": 16.778144908223105,
      "lon": -62.1951380244255,
      "geoinfo": {
        "display_name": "Saint Johns Road, Barzeys, Saint Peter, MSR1110, Montserrat",
        "road": "Saint Johns Road",
        "house_number": null,
        "neighbourhood": null,
        "suburb": null,
        "city_district": null,
        "city": "Barzeys",
        "state": null,
        "postcode": "MSR1110",
        "country": "Montserrat",
        "country_code": "ms"
      },
      "address": "Saint Johns Road, Brades, Montserrat"
    },
    {
      "lat": 16.771902184899094,
      "lon": -62.22397306672909,
      "geoinfo": {
        "display_name": "Palm Loop, Virgin Islands, St. Peter's, Saint Peter, MSR1310, Montserrat",
        "road": "Palm Loop",
        "house_number": null,
        "neighbourhood": "Virgin Islands",
        "suburb": null,
        "city_district": null,
        "city": "St. Peter's",
        "state": null,
        "postcode": "MSR1310",
        "country": "Montserrat",
        "country_code": "ms"
      },
      "address": "Palm Loop, Brades, Montserrat"
    },
    {
      "lat": 16.772261250209638,
      "lon": -62.216100166946134,
      "geoinfo": {
        "display_name": "Cheap End Drive, Virgin Islands, Fogatry, St. Peter's, Saint Peter, MSR1310, Montserrat",
        "road": "Cheap End Drive",
        "house_number": null,
        "neighbourhood": "Virgin Islands",
        "suburb": null,
        "city_district": null,
        "city": "St. Peter's",
        "state": null,
        "postcode": "MSR1310",
        "country": "Montserrat",
        "country_code": "ms"
      },
      "address": "Cheap End Drive, Brades, Montserrat"
    },
    {
      "lat": 16.816332454246176,
      "lon": -62.195174267627586,
      "geoinfo": {
        "display_name": "Rendezvous Nature Trail, Brades, Saint Peter, MSR1210, Montserrat",
        "road": "Rendezvous Nature Trail",
        "house_number": null,
        "neighbourhood": null,
        "suburb": null,
        "city_district": null,
        "city": "Brades",
        "state": null,
        "postcode": "MSR1210",
        "country": "Montserrat",
        "country_code": "ms"
      },
      "address": "Rendezvous Nature Trail, Brades, Montserrat"
    },
    {
      "lat": 16.796284278629624,
      "lon": -62.184807170457226,
      "geoinfo": {
        "display_name": "Sea View Avenue, Look Out, Gerald's, Look Out, Saint Peter, MSR1210, Montserrat",
        "road": "Sea View Avenue",
        "house_number": null,
        "neighbourhood": null,
        "suburb": "Gerald's",
        "city_district": null,
        "city": "Look Out",
        "state": null,
        "postcode": "MSR1210",
        "country": "Montserrat",
        "country_code": "ms"
      },
      "address": "Sea View Avenue, Brades, Montserrat"
    },
    {
      "lat": 16.779704536508362,
      "lon": -62.20628664794127,
      "geoinfo": {
        "display_name": "Baker Hill Drive, Fogatry, Cudjoe Head, Saint Peter, MSR1110, Montserrat",
        "road": "Baker Hill Drive",
        "house_number": null,
        "neighbourhood": null,
        "suburb": null,
        "city_district": null,
        "city": "Cudjoe Head",
        "state": null,
        "postcode": "MSR1110",
        "country": "Montserrat",
        "country_code": "ms"
      },
      "address": "Baker Hill Drive, Brades, Montserrat"
    },
    {
      "lat": 16.80046021443781,
      "lon": -62.18798188912096,
      "geoinfo": {
        "display_name": "Gerald's, Look Out, Saint Peter, MSR1210, Montserrat",
        "road": null,
        "house_number": null,
        "neighbourhood": null,
        "suburb": "Gerald's",
        "city_district": null,
        "city": "Look Out",
        "state": null,
        "postcode": "MSR1210",
        "country": "Montserrat",
        "country_code": "ms"
      },
      "address": "Gerald's, Brades, Montserrat"
    },
    {
      "lat": 16.79320413256415,
      "lon": -62.190325599263765,
      "geoinfo": {
        "display_name": "John A. Osborne Airport, Geralds Road, Geralds, Gerald's, Saint Johns, Saint Peter, MSR1210, Montserrat",
        "road": "Geralds Road",
        "house_number": null,
        "neighbourhood": null,
        "suburb": "Gerald's",
        "city_district": null,
        "city": "Saint Johns",
        "state": null,
        "postcode": "MSR1210",
        "country": "Montserrat",
        "country_code": "ms"
      },
      "address": "Geralds Road, Brades, Montserrat"
    },
    {
      "lat": 16.788891291424747,
      "lon": -62.18806709827935,
      "geoinfo": {
        "display_name": "Look Out Circle, Look Out, Gerald's, Look Out, Saint Peter, MSR1210, Montserrat",
        "road": "Look Out Circle",
        "house_number": null,
        "neighbourhood": null,
        "suburb": "Gerald's",
        "city_district": null,
        "city": "Look Out",
        "state": null,
        "postcode": "MSR1210",
        "country": "Montserrat",
        "country_code": "ms"
      },
      "address": "Look Out Circle, Brades, Montserrat"
    },
    {
      "lat": 16.767892017947183,
      "lon": -62.20415252712302,
      "geoinfo": {
        "display_name": "Petroglyphs Trail, Brades, Saint Peter, MSR1110, Montserrat",
        "road": "Petroglyphs Trail",
        "house_number": null,
        "neighbourhood": null,
        "suburb": null,
        "city_district": null,
        "city": "Brades",
        "state": null,
        "postcode": "MSR1110",
        "country": "Montserrat",
        "country_code": "ms"
      },
      "address": "Petroglyphs Trail, Brades, Montserrat"
    },
    {
      "lat": 16.766616382390637,
      "lon": -62.22610506667874,
      "geoinfo": {
        "display_name": "Palm Place, Virgin Islands, Woodlands, Saint Peter, MSR1310, Montserrat",
        "road": "Palm Place",
        "house_number": null,
        "neighbourhood": "Virgin Islands",
        "suburb": null,
        "city_district": null,
        "city": "Woodlands",
        "state": null,
        "postcode": "MSR1310",
        "country": "Montserrat",
        "country_code": "ms"
      },
      "address": "Palm Place, Brades, Montserrat"
    },
    {
      "lat": 16.81402764166154,
      "lon": -62.187192934370806,
      "geoinfo": {
        "display_name": "Rendezvous Road, Brades, Saint Peter, MSR1210, Montserrat",
        "road": "Rendezvous Road",
        "house_number": null,
        "neighbourhood": null,
        "suburb": null,
        "city_district": null,
        "city": "Brades",
        "state": null,
        "postcode": "MSR1210",
        "country": "Montserrat",
        "country_code": "ms"
      },
      "address": "Rendezvous Road, Brades, Montserrat"
    },
    {
      "lat": 16.768702699157526,
      "lon": -62.21567995079935,
      "geoinfo": {
        "display_name": "Mahogany Lane, Virgin Islands, Fogatry, St. Peter's, Saint Peter, MSR1310, Montserrat",
        "road": "Mahogany Lane",
        "house_number": null,
        "neighbourhood": "Virgin Islands",
        "suburb": null,
        "city_district": null,
        "city": "St. Peter's",
        "state": null,
        "postcode": "MSR1310",
        "country": "Montserrat",
        "country_code": "ms"
      },
      "address": "Mahogany Lane, Brades, Montserrat"
    },
    {
      "lat": 16.782294471718174,
      "lon": -62.20249091907233,
      "geoinfo": {
        "display_name": "Manjack Road, Gerald's, Baker Hill, Saint Peter, MSR1110, Montserrat",
        "road": "Manjack Road",
        "house_number": null,
        "neighbourhood": null,
        "suburb": "Gerald's",
        "city_district": null,
        "city": "Baker Hill",
        "state": null,
        "postcode": "MSR1110",
        "country": "Montserrat",
        "country_code": "ms"
      },
      "address": "Manjack Road, Brades, Montserrat"
    },
    {
      "lat": 16.761912195554867,
      "lon": -62.222842103998296,
      "geoinfo": {
        "display_name": "Woodlands Beach Road, Runaway Ghaut, Woodlands, Saint Peter, MSR1310, Montserrat",
        "road": "Woodlands Beach Road",
        "house_number": null,
        "neighbourhood": "Runaway Ghaut",
        "suburb": null,
        "city_district": null,
        "city": "Woodlands",
        "state": null,
        "postcode": "MSR1310",
        "country": "Montserrat",
        "country_code": "ms"
      },
      "address": "Woodlands Beach Road, Brades, Montserrat"
    },
    {
      "lat": 16.775758106669073,
      "lon": -62.198157208245384,
      "geoinfo": {
        "display_name": "Underwood Road, Baker Hill, Saint Peter, MSR1110, Montserrat",
        "road": "Underwood Road",
        "house_number": null,
        "neighbourhood": null,
        "suburb": null,
        "city_district": null,
        "city": "Baker Hill",
        "state": null,
        "postcode": "MSR1110",
        "country": "Montserrat",
        "country_code": "ms"
      },
      "address": "Underwood Road, Brades, Montserrat"
    }
  ],
  "updated_at": "2025-10-19T05:51:45.214968+00:00",
  "_kind": "geo_samples"
}