{
  "country_code": "NE",
  "country": "Niger",
  "city": "Diffa",
  "geonameid": 2445704,
  "target_addresses": 3,
  "samples": [
    {
      "lat": 13.340639892909834,
      "lon": 12.640324134680457,
      "geoinfo": {
        "display_name": "Boulongouri, Boulangouri, Diffa, Diffa Region, Niger",
        "road": null,
        "house_number": null,
        "neighbourhood": null,
        "suburb": null,
        "city_district": null,
        "city": "Boulangouri",
        "state": "Diffa Region",
        "postcode": null,
        "country": "Niger",
        "country_code": "ne"
      },
      "address": "Diffa, Diffa Region, Niger"
    },
    {
      "lat": 13.312375523779627,
      "lon": 12.596012000847187,
      "geoinfo": {
        "display_name": "Adjimeri, Adjimiri, Diffa, Diffa Region, Niger",
        "road": null,
        "house_number": null,
        "neighbourhood": "Adjimeri",
        "suburb": null,
        "city_district": null,
        "city": "Adjimiri",
        "state": "Diffa Region",
        "postcode": null,
        "country": "Niger",
        "country_code": "ne"
      },
      "address": "Adjimeri, Diffa, Diffa Region, Niger"
    },
    {
      "lat": 13.355887947005916,
      "lon": 12.595676706636029,
      "geoinfo": {
        "display_name": "Chateau, Dagargo Peulh, Argoumari, Diffa, Diffa Region, Niger",
        "road": null,
        "house_number": null,
        "neighbourhood": "Chateau",
        "suburb": null,
        "city_district": null,
        "city": "Argoumari",
        "state": "Diffa Region",
        "postcode": null,
        "country": "Niger",
        "country_code": "ne"
      },
      "address": "Chateau, Diffa, Diffa Region, Niger"
    },
    {
      "lat": 13.348813453015373,
      "lon": 12.585248675290144,
      "geoinfo": {
        "display_name": "Ari Djinguidi, Diffa, Diffa Region, Niger",
        "road": null,
        "house_number": null,
        "neighbourhood": null,
        "suburb": null,
        "city_district": null,
        "city": "Ari Djinguidi",
        "state": "Diffa Region",
        "postcode": null,
        "country": "Niger",
        "country_code": "ne"
      },
      "address": "465, Ari Djinguidi, Diffa, 66423 Diffa Region, Niger"
    },
    {
      "lat": 13.322323276611659,
      "lon": 12.577991577172892,
      "geoinfo": {
        "display_name": "Madou Fadjimiri, Dyala-Koleyri, Diffa, Diffa Region, Niger",
        "road": null,
        "house_number": null,
        "neighbourhood": null,
        "suburb": null,
        "city_district": null,
        "city": "Dyala-Koleyri",
        "state": "Diffa Region",
        "postcode": null,
        "country": "Niger",
        "country_code": "ne"
      },
      "address": "281, Diffa, 20677 Diffa Region, Niger"
    },
    {
      "lat": 13.356602606857546,
      "lon": 12.619615045134339,
      "geoinfo": {
        "display_name": "Matari, Diffa, Diffa Region, Niger",
        "road": null,
        "house_number": null,
        "neighbourhood": null,
        "suburb": null,
        "city_district": null,
        "city": "Matari",
        "state": "Diffa Region",
        "postcode": null,
        "country": "Niger",
        "country_code": "ne"
      },
      "address": "253, Matari, Diffa, 53521 Diffa Region, Niger"
    }
  ],
  "updated_at": "2025-10-19T04:39:49.846662+00:00",
  "_kind": "geo_samples"
}