{
  "country_code": "NE",
  "country": "Niger",
  "city": "Gaya",
  "geonameid": 2444489,
  "target_addresses": 3,
  "samples": [
    {
      "lat": 11.88902490093972,
      "lon": 3.428066986220409,
      "geoinfo": {
        "display_name": "AÃ©roport de Gaya, Gaya, Dosso Region, Niger",
        "road": null,
        "house_number": null,
        "neighbourhood": null,
        "suburb": null,
        "city_district": null,
        "city": "Gaya",
        "state": "Dosso Region",
        "postcode": null,
        "country": "Niger",
        "country_code": "ne"
      },
      "address": "Gaya, Dosso Region, Niger"
    },
    {
      "lat": 11.885490503308395,
      "lon": 3.484814162640372,
      "geoinfo": {
        "display_name": "Plateau II, Gaya, Dosso Region, Niger",
        "road": null,
        "house_number": null,
        "neighbourhood": null,
        "suburb": "Plateau II",
        "city_district": null,
        "city": "Gaya",
        "state": "Dosso Region",
        "postcode": null,
        "country": "Niger",
        "country_code": "ne"
      },
      "address": "Plateau II, Gaya, Dosso Region, Niger"
    },
    {
      "lat": 11.863684916992534,
      "lon": 3.439305575300128,
      "geoinfo": {
        "display_name": "Zongo, Gaya, Dosso Region, Niger",
        "road": null,
        "house_number": null,
        "neighbourhood": null,
        "suburb": "Zongo",
        "city_district": null,
        "city": "Gaya",
        "state": "Dosso Region",
        "postcode": null,
        "country": "Niger",
        "country_code": "ne"
      },
      "address": "Zongo, Gaya, Dosso Region, Niger"
    },
    {
      "lat": 11.90541752162433,
      "lon": 3.4621865091435677,
      "geoinfo": {
        "display_name": "Commune Urbaine de Gaya, Gaya, Dosso Region, Niger",
        "road": null,
        "house_number": null,
        "neighbourhood": null,
        "suburb": null,
        "city_district": null,
        "city": "Gaya",
        "state": "Dosso Region",
        "postcode": null,
        "country": "Niger",
        "country_code": "ne"
      },
      "address": "361, Commune Urbaine de Gaya, Gaya, 74656 Dosso Region, Niger"
    },
    {
      "lat": 11.903631625033382,
      "lon": 3.4781636533103804,
      "geoinfo": {
        "display_name": "Commune Urbaine de Gaya, Gaya, Dosso Region, Niger",
        "road": null,
        "house_number": null,
        "neighbourhood": null,
        "suburb": null,
        "city_district": null,
        "city": "Gaya",
        "state": "Dosso Region",
        "postcode": null,
        "country": "Niger",
        "country_code": "ne"
      },
      "address": "986, Commune Urbaine de Gaya, Gaya, 68830 Dosso Region, Niger"
    },
    {
      "lat": 11.922815837164544,
      "lon": 3.4615277588238293,
      "geoinfo": {
        "display_name": "Plateau II, Gaya, Dosso Region, Niger",
        "road": null,
        "house_number": null,
        "neighbourhood": null,
        "suburb": "Plateau II",
        "city_district": null,
        "city": "Gaya",
        "state": "Dosso Region",
        "postcode": null,
        "country": "Niger",
        "country_code": "ne"
      },
      "address": "368, Plateau II, Gaya, 85804 Dosso Region, Niger"
    }
  ],
  "updated_at": "2025-10-19T06:20:52.025153+00:00",
  "_kind": "geo_samples"
}