{
  "country_code": "NE",
  "country": "Niger",
  "city": "Illéla",
  "geonameid": 2443304,
  "target_addresses": 3,
  "samples": [
    {
      "lat": 14.425867495594435,
      "lon": 5.229949226385509,
      "geoinfo": {
        "display_name": "Illela, Illéla, Tahoua Region, Niger",
        "road": null,
        "house_number": null,
        "neighbourhood": null,
        "suburb": null,
        "city_district": null,
        "city": "Illela",
        "state": "Tahoua Region",
        "postcode": null,
        "country": "Niger",
        "country_code": "ne"
      },
      "address": "Illéla, Tahoua Region, Niger"
    },
    {
      "lat": 14.479220794387313,
      "lon": 5.2525050054831866,
      "geoinfo": {
        "display_name": "I-n-Gina, Illéla, Tahoua Region, Niger",
        "road": null,
        "house_number": null,
        "neighbourhood": null,
        "suburb": null,
        "city_district": null,
        "city": "I-n-Gina",
        "state": "Tahoua Region",
        "postcode": null,
        "country": "Niger",
        "country_code": "ne"
      },
      "address": "075, Illéla, 49080 Tahoua Region, Niger"
    },
    {
      "lat": 14.443391898204807,
      "lon": 5.257673643867293,
      "geoinfo": {
        "display_name": "Tounga Mouhamadou, Illéla, Tahoua Region, Niger",
        "road": null,
        "house_number": null,
        "neighbourhood": null,
        "suburb": null,
        "city_district": null,
        "city": "Tounga Mouhamadou",
        "state": "Tahoua Region",
        "postcode": null,
        "country": "Niger",
        "country_code": "ne"
      },
      "address": "029, Tounga Mouhamadou, Illéla, 59066 Tahoua Region, Niger"
    },
    {
      "lat": 14.454131620709438,
      "lon": 5.2798264450107615,
      "geoinfo": {
        "display_name": "Sagoumou, Illéla, Tahoua Region, Niger",
        "road": null,
        "house_number": null,
        "neighbourhood": null,
        "suburb": null,
        "city_district": null,
        "city": "Sagoumou",
        "state": "Tahoua Region",
        "postcode": null,
        "country": "Niger",
        "country_code": "ne"
      },
      "address": "775, Sagoumou, Illéla, 12760 Tahoua Region, Niger"
    }
  ],
  "updated_at": "2025-10-19T04:39:35.992489+00:00",
  "_kind": "geo_samples"
}