{
  "country_code": "NE",
  "country": "Niger",
  "city": "Madaoua",
  "geonameid": 2441530,
  "target_addresses": 15,
  "samples": [
    {
      "lat": 14.0355636443696,
      "lon": 5.952310091217169,
      "geoinfo": {
        "display_name": "Takargout, Madaoua, Tahoua Region, Niger",
        "road": null,
        "house_number": null,
        "neighbourhood": null,
        "suburb": null,
        "city_district": null,
        "city": "Takargout",
        "state": "Tahoua Region",
        "postcode": null,
        "country": "Niger",
        "country_code": "ne"
      },
      "address": "Madaoua, Tahoua Region, Niger"
    },
    {
      "lat": 14.056092891973492,
      "lon": 5.940286685364303,
      "geoinfo": {
        "display_name": "Bakin Zango, Madaoua, Tahoua Region, Niger",
        "road": null,
        "house_number": null,
        "neighbourhood": null,
        "suburb": null,
        "city_district": null,
        "city": "Bakin Zango",
        "state": "Tahoua Region",
        "postcode": null,
        "country": "Niger",
        "country_code": "ne"
      },
      "address": "Bakin Zango, Madaoua, 63150 Tahoua Region, Niger"
    },
    {
      "lat": 14.067102679159897,
      "lon": 5.946707149008786,
      "geoinfo": {
        "display_name": "Madaoua, Tahoua Region, Niger",
        "road": null,
        "house_number": null,
        "neighbourhood": null,
        "suburb": null,
        "city_district": null,
        "city": "Madaoua",
        "state": "Tahoua Region",
        "postcode": null,
        "country": "Niger",
        "country_code": "ne"
      },
      "address": "Madaoua, 96350 Tahoua Region, Niger"
    },
    {
      "lat": 14.04571568398964,
      "lon": 5.980565082849794,
      "geoinfo": {
        "display_name": "Tounfafi, Madaoua, Tahoua Region, Niger",
        "road": null,
        "house_number": null,
        "neighbourhood": null,
        "suburb": null,
        "city_district": null,
        "city": "Tounfafi",
        "state": "Tahoua Region",
        "postcode": null,
        "country": "Niger",
        "country_code": "ne"
      },
      "address": "566, Tounfafi, Madaoua, 90727 Tahoua Region, Niger"
    },
    {
      "lat": 14.07324703736857,
      "lon": 5.967395182128413,
      "geoinfo": {
        "display_name": "Madaoua, Tahoua Region, Niger",
        "road": null,
        "house_number": null,
        "neighbourhood": null,
        "suburb": null,
        "city_district": null,
        "city": "Madaoua",
        "state": "Tahoua Region",
        "postcode": null,
        "country": "Niger",
        "country_code": "ne"
      },
      "address": "377, Madaoua, 05182 Tahoua Region, Niger"
    },
    {
      "lat": 14.048765421518693,
      "lon": 5.938169279649082,
      "geoinfo": {
        "display_name": "Kwazga, Madaoua, Tahoua Region, Niger",
        "road": null,
        "house_number": null,
        "neighbourhood": null,
        "suburb": null,
        "city_district": null,
        "city": "Kwazga",
        "state": "Tahoua Region",
        "postcode": null,
        "country": "Niger",
        "country_code": "ne"
      },
      "address": "393, Kwazga, Madaoua, 82918 Tahoua Region, Niger"
    },
    {
      "lat": 14.092368881240878,
      "lon": 5.935806878295208,
      "geoinfo": {
        "display_name": "Nakoni, Azérori, Madaoua, Tahoua Region, Niger",
        "road": null,
        "house_number": null,
        "neighbourhood": null,
        "suburb": null,
        "city_district": null,
        "city": "Azérori",
        "state": "Tahoua Region",
        "postcode": null,
        "country": "Niger",
        "country_code": "ne"
      },
      "address": "042, Nakoni, Azérori, Madaoua, 78978 Tahoua Region, Niger"
    },
    {
      "lat": 14.0411351801662,
      "lon": 5.97988164414899,
      "geoinfo": {
        "display_name": "Tounfafi, Madaoua, Tahoua Region, Niger",
        "road": null,
        "house_number": null,
        "neighbourhood": null,
        "suburb": null,
        "city_district": null,
        "city": "Tounfafi",
        "state": "Tahoua Region",
        "postcode": null,
        "country": "Niger",
        "country_code": "ne"
      },
      "address": "962, Tounfafi, Madaoua, 87241 Tahoua Region, Niger"
    },
    {
      "lat": 14.036677901635592,
      "lon": 5.948367755611587,
      "geoinfo": {
        "display_name": "kwazga, Kwazga, Madaoua, Tahoua Region, Niger",
        "road": null,
        "house_number": null,
        "neighbourhood": null,
        "suburb": null,
        "city_district": null,
        "city": "Kwazga",
        "state": "Tahoua Region",
        "postcode": null,
        "country": "Niger",
        "country_code": "ne"
      },
      "address": "741, kwazga, Kwazga, Madaoua, 81926 Tahoua Region, Niger"
    },
    {
      "lat": 14.068267703156899,
      "lon": 5.973122895369808,
      "geoinfo": {
        "display_name": "Société Cotonière du Niger de Madaoua, Santar Matassa (Rue des Jeunes), Madaoua, Tahoua Region, Niger",
        "road": "Santar Matassa (Rue des Jeunes)",
        "house_number": null,
        "neighbourhood": null,
        "suburb": null,
        "city_district": null,
        "city": "Madaoua",
        "state": "Tahoua Region",
        "postcode": null,
        "country": "Niger",
        "country_code": "ne"
      },
      "address": "735, Santar Matassa (Rue des Jeunes), Madaoua, 97631 Tahoua Region, Niger"
    },
    {
      "lat": 14.04992475297459,
      "lon": 5.941584290265408,
      "geoinfo": {
        "display_name": "Bakin Zango, Madaoua, Tahoua Region, Niger",
        "road": null,
        "house_number": null,
        "neighbourhood": null,
        "suburb": null,
        "city_district": null,
        "city": "Bakin Zango",
        "state": "Tahoua Region",
        "postcode": null,
        "country": "Niger",
        "country_code": "ne"
      },
      "address": "560, Bakin Zango, Madaoua, 45457 Tahoua Region, Niger"
    },
    {
      "lat": 14.061828039527859,
      "lon": 5.994816708324771,
      "geoinfo": {
        "display_name": "kollé, Kolé, Madaoua, Tahoua Region, Niger",
        "road": null,
        "house_number": null,
        "neighbourhood": null,
        "suburb": null,
        "city_district": null,
        "city": "Kolé",
        "state": "Tahoua Region",
        "postcode": null,
        "country": "Niger",
        "country_code": "ne"
      },
      "address": "891, kollé, Kolé, Madaoua, 46324 Tahoua Region, Niger"
    },
    {
      "lat": 14.050464814230493,
      "lon": 5.950745808822021,
      "geoinfo": {
        "display_name": "kwazga, Kwazga, Madaoua, Tahoua Region, Niger",
        "road": null,
        "house_number": null,
        "neighbourhood": null,
        "suburb": null,
        "city_district": null,
        "city": "Kwazga",
        "state": "Tahoua Region",
        "postcode": null,
        "country": "Niger",
        "country_code": "ne"
      },
      "address": "468, kwazga, Kwazga, Madaoua, 52095 Tahoua Region, Niger"
    },
    {
      "lat": 14.081676859846167,
      "lon": 5.925510890570544,
      "geoinfo": {
        "display_name": "Guinji, Madaoua, Tahoua Region, Niger",
        "road": null,
        "house_number": null,
        "neighbourhood": null,
        "suburb": null,
        "city_district": null,
        "city": "Guinji",
        "state": "Tahoua Region",
        "postcode": null,
        "country": "Niger",
        "country_code": "ne"
      },
      "address": "902, Guinji, Madaoua, 22072 Tahoua Region, Niger"
    },
    {
      "lat": 14.090218721205565,
      "lon": 6.001365574164298,
      "geoinfo": {
        "display_name": "N16, area to be digitized, Zangon Jayao, KABA, Madaoua, Tahoua Region, Niger",
        "road": "N16",
        "house_number": null,
        "neighbourhood": null,
        "suburb": null,
        "city_district": null,
        "city": "KABA",
        "state": "Tahoua Region",
        "postcode": null,
        "country": "Niger",
        "country_code": "ne"
      },
      "address": "N16, area to be digitized, Zangon Jayao, KABA, Madaoua, 46929 Tahoua Region, Niger"
    }
  ],
  "updated_at": "2025-10-19T05:56:02.568484+00:00",
  "_kind": "geo_samples"
}