{
  "country_code": "NE",
  "country": "Niger",
  "city": "Mayahi",
  "geonameid": 2441194,
  "target_addresses": 3,
  "samples": [
    {
      "lat": 13.932459151775932,
      "lon": 7.653077487702939,
      "geoinfo": {
        "display_name": "Guidan Alou, Mayahi, Maradi Region, Niger",
        "road": null,
        "house_number": null,
        "neighbourhood": null,
        "suburb": null,
        "city_district": null,
        "city": "Guidan Alou",
        "state": "Maradi Region",
        "postcode": null,
        "country": "Niger",
        "country_code": "ne"
      },
      "address": "Mayahi, Maradi Region, Niger"
    },
    {
      "lat": 13.988162712467847,
      "lon": 7.693795340305989,
      "geoinfo": {
        "display_name": "Mayahi, Maradi Region, Niger",
        "road": null,
        "house_number": null,
        "neighbourhood": null,
        "suburb": null,
        "city_district": null,
        "city": "Mayahi",
        "state": "Maradi Region",
        "postcode": null,
        "country": "Niger",
        "country_code": "ne"
      },
      "address": "553, Mayahi, 49809 Maradi Region, Niger"
    },
    {
      "lat": 13.977488151852558,
      "lon": 7.667338215476811,
      "geoinfo": {
        "display_name": "Guidan Sallao, Mayahi, Maradi Region, Niger",
        "road": null,
        "house_number": null,
        "neighbourhood": null,
        "suburb": null,
        "city_district": null,
        "city": "Guidan Sallao",
        "state": "Maradi Region",
        "postcode": null,
        "country": "Niger",
        "country_code": "ne"
      },
      "address": "487, Guidan Sallao, Mayahi, 46106 Maradi Region, Niger"
    },
    {
      "lat": 13.954928020522106,
      "lon": 7.689274372651551,
      "geoinfo": {
        "display_name": "I-n-Wâlâ, Mayahi, Maradi Region, Niger",
        "road": null,
        "house_number": null,
        "neighbourhood": null,
        "suburb": null,
        "city_district": null,
        "city": "I-n-Wâlâ",
        "state": "Maradi Region",
        "postcode": null,
        "country": "Niger",
        "country_code": "ne"
      },
      "address": "953, I-n-Wâlâ, Mayahi, 69057 Maradi Region, Niger"
    }
  ],
  "updated_at": "2025-10-19T04:39:26.553812+00:00",
  "_kind": "geo_samples"
}