{
  "country_code": "NE",
  "country": "Niger",
  "city": "Mirriah",
  "geonameid": 2440921,
  "target_addresses": 3,
  "samples": [
    {
      "lat": 13.69433304218327,
      "lon": 9.154172074594749,
      "geoinfo": {
        "display_name": "غونا, Kofal Bey, Mirriah, Zinder Region, Niger",
        "road": null,
        "house_number": null,
        "neighbourhood": null,
        "suburb": "Kofal Bey",
        "city_district": null,
        "city": "Mirriah",
        "state": "Zinder Region",
        "postcode": null,
        "country": "Niger",
        "country_code": "ne"
      },
      "address": "Kofal Bey, Mirriah, Zinder Region, Niger"
    },
    {
      "lat": 13.731625005136255,
      "lon": 9.146340190775451,
      "geoinfo": {
        "display_name": "Mirriah, Zinder Region, Niger",
        "road": null,
        "house_number": null,
        "neighbourhood": null,
        "suburb": null,
        "city_district": null,
        "city": null,
        "state": "Zinder Region",
        "postcode": null,
        "country": "Niger",
        "country_code": "ne"
      },
      "address": "Mirriah, Zinder Region, Niger"
    },
    {
      "lat": 13.694076642081301,
      "lon": 9.164995314792957,
      "geoinfo": {
        "display_name": "Tchinkassari, Falki Baban, Mirriah, Zinder Region, Niger",
        "road": null,
        "house_number": null,
        "neighbourhood": null,
        "suburb": "Tchinkassari",
        "city_district": null,
        "city": "Falki Baban",
        "state": "Zinder Region",
        "postcode": null,
        "country": "Niger",
        "country_code": "ne"
      },
      "address": "Tchinkassari, Mirriah, Zinder Region, Niger"
    }
  ],
  "updated_at": "2025-10-16T20:18:34.589167+00:00",
  "_kind": "geo_samples"
}