{
  "country_code": "NE",
  "country": "Niger",
  "city": "Tahoua",
  "geonameid": 2439376,
  "target_addresses": 3,
  "samples": [
    {
      "lat": 14.87819405456726,
      "lon": 5.2340719698994445,
      "geoinfo": {
        "display_name": "Tahoua, Tahoua Region, 5000, Niger",
        "road": null,
        "house_number": null,
        "neighbourhood": null,
        "suburb": null,
        "city_district": null,
        "city": "Tahoua",
        "state": "Tahoua Region",
        "postcode": "5000",
        "country": "Niger",
        "country_code": "ne"
      },
      "address": "Tahoua, Tahoua Region, Niger"
    },
    {
      "lat": 14.901814141425923,
      "lon": 5.280688886164814,
      "geoinfo": {
        "display_name": "Commune I, Tahoua, Tahoua Region, 5000, Niger",
        "road": null,
        "house_number": null,
        "neighbourhood": "Commune I",
        "suburb": null,
        "city_district": null,
        "city": "Tahoua",
        "state": "Tahoua Region",
        "postcode": "5000",
        "country": "Niger",
        "country_code": "ne"
      },
      "address": "Commune I, Tahoua, Tahoua Region, Niger"
    },
    {
      "lat": 14.929572434958194,
      "lon": 5.2626394385462145,
      "geoinfo": {
        "display_name": "Gao Gebezogui, Tahoua, Tahoua Region, Niger",
        "road": null,
        "house_number": null,
        "neighbourhood": "Gao Gebezogui",
        "suburb": null,
        "city_district": null,
        "city": "Tahoua",
        "state": "Tahoua Region",
        "postcode": null,
        "country": "Niger",
        "country_code": "ne"
      },
      "address": "Gao Gebezogui, Tahoua, Tahoua Region, Niger"
    },
    {
      "lat": 14.890253105236013,
      "lon": 5.234823893100076,
      "geoinfo": {
        "display_name": "Tahoua, Tahoua Region, 5000, Niger",
        "road": null,
        "house_number": null,
        "neighbourhood": null,
        "suburb": null,
        "city_district": null,
        "city": "Tahoua",
        "state": "Tahoua Region",
        "postcode": "5000",
        "country": "Niger",
        "country_code": "ne"
      },
      "address": "305, Tahoua, Tahoua Region, 5000, Niger"
    },
    {
      "lat": 14.87165165251685,
      "lon": 5.297244577466276,
      "geoinfo": {
        "display_name": "Tahoua, Tahoua Region, 5000, Niger",
        "road": null,
        "house_number": null,
        "neighbourhood": null,
        "suburb": null,
        "city_district": null,
        "city": "Tahoua",
        "state": "Tahoua Region",
        "postcode": "5000",
        "country": "Niger",
        "country_code": "ne"
      },
      "address": "338, Tahoua, Tahoua Region, 5000, Niger"
    },
    {
      "lat": 14.905985343175255,
      "lon": 5.2455984336037735,
      "geoinfo": {
        "display_name": "Loungou, Toudoum Adoum, Tahoua, Tahoua Region, 5000, Niger",
        "road": "Loungou",
        "house_number": null,
        "neighbourhood": null,
        "suburb": null,
        "city_district": null,
        "city": "Tahoua",
        "state": "Tahoua Region",
        "postcode": "5000",
        "country": "Niger",
        "country_code": "ne"
      },
      "address": "676, Loungou, Toudoum Adoum, Tahoua, Tahoua Region, 5000, Niger"
    }
  ],
  "updated_at": "2025-10-19T06:13:59.364401+00:00",
  "_kind": "geo_samples"
}