{
  "country_code": "NE",
  "country": "Niger",
  "city": "Tibiri",
  "geonameid": 2438774,
  "target_addresses": 3,
  "samples": [
    {
      "lat": 13.551543396827343,
      "lon": 7.065292641660812,
      "geoinfo": {
        "display_name": "Soura Garin Daouré, Guidan Roumdji, Maradi Region, Niger",
        "road": null,
        "house_number": null,
        "neighbourhood": null,
        "suburb": null,
        "city_district": null,
        "city": "Soura Garin Daouré",
        "state": "Maradi Region",
        "postcode": null,
        "country": "Niger",
        "country_code": "ne"
      },
      "address": "Tibiri, Maradi Region, Niger"
    },
    {
      "lat": 13.583491658091187,
      "lon": 7.019151939328311,
      "geoinfo": {
        "display_name": "Rawaya, Guidan-Roumdji, Maradi Region, Niger",
        "road": null,
        "house_number": null,
        "neighbourhood": null,
        "suburb": null,
        "city_district": null,
        "city": "Rawaya",
        "state": "Maradi Region",
        "postcode": null,
        "country": "Niger",
        "country_code": "ne"
      },
      "address": "074, Rawaya, Guidan-Roumdji, 18638 Maradi Region, Niger"
    },
    {
      "lat": 13.590785783854193,
      "lon": 7.050502716765984,
      "geoinfo": {
        "display_name": "Mamawa, Guidan-Roumdji, Maradi Region, Niger",
        "road": null,
        "house_number": null,
        "neighbourhood": null,
        "suburb": null,
        "city_district": null,
        "city": "Mamawa",
        "state": "Maradi Region",
        "postcode": null,
        "country": "Niger",
        "country_code": "ne"
      },
      "address": "055, Mamawa, Guidan-Roumdji, 31671 Maradi Region, Niger"
    },
    {
      "lat": 13.583325698209837,
      "lon": 7.0886046472031445,
      "geoinfo": {
        "display_name": "Madata, Guidan-Roumdji, Maradi Region, Niger",
        "road": null,
        "house_number": null,
        "neighbourhood": null,
        "suburb": null,
        "city_district": null,
        "city": "Madata",
        "state": "Maradi Region",
        "postcode": null,
        "country": "Niger",
        "country_code": "ne"
      },
      "address": "934, Madata, Guidan-Roumdji, 48525 Maradi Region, Niger"
    }
  ],
  "updated_at": "2025-10-19T04:39:10.321481+00:00",
  "_kind": "geo_samples"
}