{
  "country_code": "AM",
  "country": "Armenia",
  "city": "Abovyan",
  "geonameid": 617026,
  "target_addresses": 4,
  "samples": [
    {
      "lat": 40.273423408267625,
      "lon": 44.62299322386336,
      "geoinfo": {
        "display_name": "2nd microdistrict, Abovyan, Abovyan community, Kotayk Province, 2204, Armenia",
        "road": null,
        "house_number": null,
        "neighbourhood": "2nd microdistrict",
        "suburb": null,
        "city_district": null,
        "city": "Abovyan",
        "state": "Kotayk Province",
        "postcode": "2204",
        "country": "Armenia",
        "country_code": "am"
      },
      "address": "2nd microdistrict, Abovyan, Kotayk Province, Armenia"
    },
    {
      "lat": 40.30818646363506,
      "lon": 44.65316782535376,
      "geoinfo": {
        "display_name": "Byureghavan community, Kotayk Province, Armenia",
        "road": null,
        "house_number": null,
        "neighbourhood": null,
        "suburb": null,
        "city_district": null,
        "city": null,
        "state": "Kotayk Province",
        "postcode": null,
        "country": "Armenia",
        "country_code": "am"
      },
      "address": "Abovyan, Kotayk Province, Armenia"
    },
    {
      "lat": 40.26606269155001,
      "lon": 44.62115453357246,
      "geoinfo": {
        "display_name": "21, Kotayq street, Elar district, Abovyan, Abovyan community, Kotayk Province, 2202, Armenia",
        "road": "Kotayq street",
        "house_number": "21",
        "neighbourhood": "Elar district",
        "suburb": null,
        "city_district": null,
        "city": "Abovyan",
        "state": "Kotayk Province",
        "postcode": "2202",
        "country": "Armenia",
        "country_code": "am"
      },
      "address": "21 Kotayq street, Abovyan, Kotayk Province, Armenia"
    },
    {
      "lat": 40.254638850125765,
      "lon": 44.64265217361797,
      "geoinfo": {
        "display_name": "2, Amaranotsayin 1st street, Aramus, Abovyan community, Kotayk Province, 2203, Armenia",
        "road": "Amaranotsayin 1st street",
        "house_number": "2",
        "neighbourhood": null,
        "suburb": null,
        "city_district": null,
        "city": "Aramus",
        "state": "Kotayk Province",
        "postcode": "2203",
        "country": "Armenia",
        "country_code": "am"
      },
      "address": "2 Amaranotsayin 1st street, Abovyan, Kotayk Province, Armenia"
    },
    {
      "lat": 40.31292697067897,
      "lon": 44.63670096871905,
      "geoinfo": {
        "display_name": "Byureghavan community, Kotayk Province, Armenia",
        "road": null,
        "house_number": null,
        "neighbourhood": null,
        "suburb": null,
        "city_district": null,
        "city": null,
        "state": "Kotayk Province",
        "postcode": null,
        "country": "Armenia",
        "country_code": "am"
      },
      "address": "913, Abovyan, 50482 Kotayk Province, Armenia"
    },
    {
      "lat": 40.28818670548256,
      "lon": 44.59559774929033,
      "geoinfo": {
        "display_name": "Nor Hachn-Abovyan Highway, Arzni community, Kotayk Province, 2212, Armenia",
        "road": "Nor Hachn-Abovyan Highway",
        "house_number": null,
        "neighbourhood": null,
        "suburb": null,
        "city_district": null,
        "city": null,
        "state": "Kotayk Province",
        "postcode": "2212",
        "country": "Armenia",
        "country_code": "am"
      },
      "address": "104, Nor Hachn-Abovyan Highway, Arzni community, Kotayk Province, 2212, Armenia"
    },
    {
      "lat": 40.23191577276361,
      "lon": 44.6420652741762,
      "geoinfo": {
        "display_name": "Abovyan community, Kotayk Province, Armenia",
        "road": null,
        "house_number": null,
        "neighbourhood": null,
        "suburb": null,
        "city_district": null,
        "city": null,
        "state": "Kotayk Province",
        "postcode": null,
        "country": "Armenia",
        "country_code": "am"
      },
      "address": "867, Abovyan community, 69047 Kotayk Province, Armenia"
    },
    {
      "lat": 40.27061893298316,
      "lon": 44.57876623706392,
      "geoinfo": {
        "display_name": "11, Getamej 17th street, Getamej, Abovyan community, Kotayk Province, 2214, Armenia",
        "road": "Getamej 17th street",
        "house_number": "11",
        "neighbourhood": null,
        "suburb": null,
        "city_district": null,
        "city": "Getamej",
        "state": "Kotayk Province",
        "postcode": "2214",
        "country": "Armenia",
        "country_code": "am"
      },
      "address": "11, Getamej 17th street, Getamej, Abovyan community, Kotayk Province, 2214, Armenia"
    }
  ],
  "updated_at": "2025-10-19T02:26:21.334655+00:00",
  "_kind": "geo_samples"
}