{
  "country_code": "AM",
  "country": "Armenia",
  "city": "Artashat",
  "geonameid": 174979,
  "target_addresses": 4,
  "samples": [
    {
      "lat": 39.959876816275944,
      "lon": 44.58860091264098,
      "geoinfo": {
        "display_name": "Verin Artashat-Aygepat highway, Verin Artashat, Artashat community, Ararat Province, 0713, Armenia",
        "road": "Verin Artashat-Aygepat highway",
        "house_number": null,
        "neighbourhood": null,
        "suburb": null,
        "city_district": null,
        "city": "Verin Artashat",
        "state": "Ararat Province",
        "postcode": "0713",
        "country": "Armenia",
        "country_code": "am"
      },
      "address": "Verin Artashat-Aygepat highway, Artashat, Ararat Province, Armenia"
    },
    {
      "lat": 39.984533374922954,
      "lon": 44.51112470257881,
      "geoinfo": {
        "display_name": "Azatavan, Artashat community, Ararat Province, 0724, Armenia",
        "road": null,
        "house_number": null,
        "neighbourhood": null,
        "suburb": null,
        "city_district": null,
        "city": "Azatavan",
        "state": "Ararat Province",
        "postcode": "0724",
        "country": "Armenia",
        "country_code": "am"
      },
      "address": "Artashat, Ararat Province, Armenia"
    },
    {
      "lat": 39.997913734071986,
      "lon": 44.53992811122315,
      "geoinfo": {
        "display_name": "Nshavan-Aygestan Highway, Kanachut, Artashat community, Ararat Province, 0723, Armenia",
        "road": "Nshavan-Aygestan Highway",
        "house_number": null,
        "neighbourhood": null,
        "suburb": null,
        "city_district": null,
        "city": "Kanachut",
        "state": "Ararat Province",
        "postcode": "0723",
        "country": "Armenia",
        "country_code": "am"
      },
      "address": "Nshavan-Aygestan Highway, Artashat, Ararat Province, Armenia"
    },
    {
      "lat": 39.97907235688268,
      "lon": 44.54058777838067,
      "geoinfo": {
        "display_name": "111, G. Khudaverdyan street, Mrgavan, Artashat community, Ararat Province, 0701, Armenia",
        "road": "G. Khudaverdyan street",
        "house_number": "111",
        "neighbourhood": null,
        "suburb": null,
        "city_district": null,
        "city": "Mrgavan",
        "state": "Ararat Province",
        "postcode": "0701",
        "country": "Armenia",
        "country_code": "am"
      },
      "address": "111 G. Khudaverdyan street, Artashat, Ararat Province, Armenia"
    },
    {
      "lat": 39.96138544496406,
      "lon": 44.59310492886132,
      "geoinfo": {
        "display_name": "Aygepat, Artashat community, Ararat Province, 0713, Armenia",
        "road": null,
        "house_number": null,
        "neighbourhood": null,
        "suburb": null,
        "city_district": null,
        "city": "Aygepat",
        "state": "Ararat Province",
        "postcode": "0713",
        "country": "Armenia",
        "country_code": "am"
      },
      "address": "045, Aygepat, Artashat community, Ararat Province, 0713, Armenia"
    },
    {
      "lat": 39.980345756347205,
      "lon": 44.509787210545674,
      "geoinfo": {
        "display_name": "Baghramyan, Artashat community, Ararat Province, 0724, Armenia",
        "road": null,
        "house_number": null,
        "neighbourhood": null,
        "suburb": null,
        "city_district": null,
        "city": "Baghramyan",
        "state": "Ararat Province",
        "postcode": "0724",
        "country": "Armenia",
        "country_code": "am"
      },
      "address": "275, Baghramyan, Artashat community, Ararat Province, 0724, Armenia"
    },
    {
      "lat": 39.96603566448176,
      "lon": 44.568299884788814,
      "geoinfo": {
        "display_name": "Andranik Ozanyan street, Vostan, Artashat community, Ararat Province, 0703, Armenia",
        "road": "Andranik Ozanyan street",
        "house_number": null,
        "neighbourhood": null,
        "suburb": null,
        "city_district": null,
        "city": "Vostan",
        "state": "Ararat Province",
        "postcode": "0703",
        "country": "Armenia",
        "country_code": "am"
      },
      "address": "504, Andranik Ozanyan street, Vostan, Artashat community, Ararat Province, 0703, Armenia"
    },
    {
      "lat": 39.96418080581274,
      "lon": 44.513410918387606,
      "geoinfo": {
        "display_name": "Dalar, Artashat community, Ararat Province, 0701, Armenia",
        "road": null,
        "house_number": null,
        "neighbourhood": null,
        "suburb": null,
        "city_district": null,
        "city": "Dalar",
        "state": "Ararat Province",
        "postcode": "0701",
        "country": "Armenia",
        "country_code": "am"
      },
      "address": "402, Dalar, Artashat community, Ararat Province, 0701, Armenia"
    }
  ],
  "updated_at": "2025-10-19T02:42:20.818926+00:00",
  "_kind": "geo_samples"
}