{
  "country_code": "AM",
  "country": "Armenia",
  "city": "Artik",
  "geonameid": 616887,
  "target_addresses": 4,
  "samples": [
    {
      "lat": 40.602169206700715,
      "lon": 43.965974351905466,
      "geoinfo": {
        "display_name": "Artik, Artik community, Shirak Province, 3001, Armenia",
        "road": null,
        "house_number": null,
        "neighbourhood": null,
        "suburb": null,
        "city_district": null,
        "city": "Artik",
        "state": "Shirak Province",
        "postcode": "3001",
        "country": "Armenia",
        "country_code": "am"
      },
      "address": "Artik, Shirak Province, Armenia"
    },
    {
      "lat": 40.63745303826462,
      "lon": 43.9737249673717,
      "geoinfo": {
        "display_name": "Highway T-7-52, Artik, Artik community, Shirak Province, 3004, Armenia",
        "road": "Highway T-7-52",
        "house_number": null,
        "neighbourhood": null,
        "suburb": null,
        "city_district": null,
        "city": "Artik",
        "state": "Shirak Province",
        "postcode": "3004",
        "country": "Armenia",
        "country_code": "am"
      },
      "address": "Highway T-7-52, Artik, Shirak Province, Armenia"
    },
    {
      "lat": 40.63645770645192,
      "lon": 43.951046852452784,
      "geoinfo": {
        "display_name": "Noraber-Artik Highway, Artik, Artik community, Shirak Province, 3002, Armenia",
        "road": "Noraber-Artik Highway",
        "house_number": null,
        "neighbourhood": null,
        "suburb": null,
        "city_district": null,
        "city": "Artik",
        "state": "Shirak Province",
        "postcode": "3002",
        "country": "Armenia",
        "country_code": "am"
      },
      "address": "Noraber-Artik Highway, Artik, Shirak Province, Armenia"
    },
    {
      "lat": 40.61574046346762,
      "lon": 43.96342929268967,
      "geoinfo": {
        "display_name": "Stepan Shahumyan street, Artik, Artik community, Shirak Province, 3001, Armenia",
        "road": "Stepan Shahumyan street",
        "house_number": null,
        "neighbourhood": null,
        "suburb": null,
        "city_district": null,
        "city": "Artik",
        "state": "Shirak Province",
        "postcode": "3001",
        "country": "Armenia",
        "country_code": "am"
      },
      "address": "Stepan Shahumyan street, Artik, Shirak Province, Armenia"
    },
    {
      "lat": 40.5932461453461,
      "lon": 44.000380565331874,
      "geoinfo": {
        "display_name": "Artik community, Shirak Province, 3004, Armenia",
        "road": null,
        "house_number": null,
        "neighbourhood": null,
        "suburb": null,
        "city_district": null,
        "city": null,
        "state": "Shirak Province",
        "postcode": "3004",
        "country": "Armenia",
        "country_code": "am"
      },
      "address": "630, Artik community, Shirak Province, 3004, Armenia"
    },
    {
      "lat": 40.623039596495936,
      "lon": 43.95490846907673,
      "geoinfo": {
        "display_name": "Artik, Artik community, Shirak Province, 3002, Armenia",
        "road": null,
        "house_number": null,
        "neighbourhood": null,
        "suburb": null,
        "city_district": null,
        "city": "Artik",
        "state": "Shirak Province",
        "postcode": "3002",
        "country": "Armenia",
        "country_code": "am"
      },
      "address": "309, Artik, Artik community, Shirak Province, 3002, Armenia"
    },
    {
      "lat": 40.6239499534201,
      "lon": 43.97973756540142,
      "geoinfo": {
        "display_name": "Artik-Alagyaz Highway, Artik, Artik community, Shirak Province, 3004, Armenia",
        "road": "Artik-Alagyaz Highway",
        "house_number": null,
        "neighbourhood": null,
        "suburb": null,
        "city_district": null,
        "city": "Artik",
        "state": "Shirak Province",
        "postcode": "3004",
        "country": "Armenia",
        "country_code": "am"
      },
      "address": "136, Artik-Alagyaz Highway, Artik, Artik community, Shirak Province, 3004, Armenia"
    },
    {
      "lat": 40.62965932827846,
      "lon": 44.0222067227061,
      "geoinfo": {
        "display_name": "Saralanj, Artik community, Shirak Province, 3004, Armenia",
        "road": null,
        "house_number": null,
        "neighbourhood": null,
        "suburb": null,
        "city_district": null,
        "city": "Saralanj",
        "state": "Shirak Province",
        "postcode": "3004",
        "country": "Armenia",
        "country_code": "am"
      },
      "address": "813, Saralanj, Artik community, Shirak Province, 3004, Armenia"
    }
  ],
  "updated_at": "2025-10-19T02:26:40.984668+00:00",
  "_kind": "geo_samples"
}