{
  "country_code": "AM",
  "country": "Armenia",
  "city": "Charentsavan",
  "geonameid": 616785,
  "target_addresses": 4,
  "samples": [
    {
      "lat": 40.42876874849554,
      "lon": 44.6500166265493,
      "geoinfo": {
        "display_name": "Տ-6-23, Alapars, Charentsavan community, Kotayk Province, 2504, Armenia",
        "road": "Տ-6-23",
        "house_number": null,
        "neighbourhood": null,
        "suburb": null,
        "city_district": null,
        "city": "Alapars",
        "state": "Kotayk Province",
        "postcode": "2504",
        "country": "Armenia",
        "country_code": "am"
      },
      "address": "Տ-6-23, Charentsavan, Kotayk Province, Armenia"
    },
    {
      "lat": 40.38056663465546,
      "lon": 44.640556446900305,
      "geoinfo": {
        "display_name": "Byureghavan community, Kotayk Province, 2502, Armenia",
        "road": null,
        "house_number": null,
        "neighbourhood": null,
        "suburb": null,
        "city_district": null,
        "city": null,
        "state": "Kotayk Province",
        "postcode": "2502",
        "country": "Armenia",
        "country_code": "am"
      },
      "address": "Charentsavan, Kotayk Province, Armenia"
    },
    {
      "lat": 40.445423364584215,
      "lon": 44.64011019102441,
      "geoinfo": {
        "display_name": "202, 1st street, Bjni, Charentsavan community, Kotayk Province, 2504, Armenia",
        "road": "1st street",
        "house_number": "202",
        "neighbourhood": null,
        "suburb": null,
        "city_district": null,
        "city": "Bjni",
        "state": "Kotayk Province",
        "postcode": "2504",
        "country": "Armenia",
        "country_code": "am"
      },
      "address": "202 1st street, Charentsavan, Kotayk Province, Armenia"
    },
    {
      "lat": 40.38885251400044,
      "lon": 44.672013314761784,
      "geoinfo": {
        "display_name": "Abovyan-Hrazdan Highway, Jraber, Byureghavan community, Kotayk Province, 2502, Armenia",
        "road": "Abovyan-Hrazdan Highway",
        "house_number": null,
        "neighbourhood": null,
        "suburb": null,
        "city_district": null,
        "city": "Jraber",
        "state": "Kotayk Province",
        "postcode": "2502",
        "country": "Armenia",
        "country_code": "am"
      },
      "address": "Abovyan-Hrazdan Highway, Charentsavan, Kotayk Province, Armenia"
    },
    {
      "lat": 40.417253950523516,
      "lon": 44.68947667050622,
      "geoinfo": {
        "display_name": "Yerevan-Dilijan Highway, Charentsavan community, Kotayk Province, 2506, Armenia",
        "road": "Yerevan-Dilijan Highway",
        "house_number": null,
        "neighbourhood": null,
        "suburb": null,
        "city_district": null,
        "city": null,
        "state": "Kotayk Province",
        "postcode": "2506",
        "country": "Armenia",
        "country_code": "am"
      },
      "address": "991, Yerevan-Dilijan Highway, Charentsavan community, Kotayk Province, 2506, Armenia"
    },
    {
      "lat": 40.386837278260536,
      "lon": 44.66063517546591,
      "geoinfo": {
        "display_name": "Yerevan-Dilijan Highway, Byureghavan community, Kotayk Province, 2506, Armenia",
        "road": "Yerevan-Dilijan Highway",
        "house_number": null,
        "neighbourhood": null,
        "suburb": null,
        "city_district": null,
        "city": null,
        "state": "Kotayk Province",
        "postcode": "2506",
        "country": "Armenia",
        "country_code": "am"
      },
      "address": "178, Yerevan-Dilijan Highway, Charentsavan, 2506 Kotayk Province, Armenia"
    },
    {
      "lat": 40.38264509335981,
      "lon": 44.659813058554796,
      "geoinfo": {
        "display_name": "Yerevan-Dilijan Highway, Byureghavan community, Kotayk Province, 2501, Armenia",
        "road": "Yerevan-Dilijan Highway",
        "house_number": null,
        "neighbourhood": null,
        "suburb": null,
        "city_district": null,
        "city": null,
        "state": "Kotayk Province",
        "postcode": "2501",
        "country": "Armenia",
        "country_code": "am"
      },
      "address": "369, Yerevan-Dilijan Highway, Charentsavan, 2501 Kotayk Province, Armenia"
    },
    {
      "lat": 40.37593919087916,
      "lon": 44.66512019859027,
      "geoinfo": {
        "display_name": "Abovyan-Hrazdan Highway, Jraber, Byureghavan community, Kotayk Province, 2502, Armenia",
        "road": "Abovyan-Hrazdan Highway",
        "house_number": null,
        "neighbourhood": null,
        "suburb": null,
        "city_district": null,
        "city": "Jraber",
        "state": "Kotayk Province",
        "postcode": "2502",
        "country": "Armenia",
        "country_code": "am"
      },
      "address": "531, Abovyan-Hrazdan Highway, Charentsavan, 2502 Kotayk Province, Armenia"
    }
  ],
  "updated_at": "2025-10-19T02:26:42.325889+00:00",
  "_kind": "geo_samples"
}