{
  "country_code": "AM",
  "country": "Armenia",
  "city": "Goris",
  "geonameid": 174895,
  "target_addresses": 4,
  "samples": [
    {
      "lat": 39.50281038476246,
      "lon": 46.3362843479546,
      "geoinfo": {
        "display_name": "Goris, Goris community, Syunik Province, 3201, Armenia",
        "road": null,
        "house_number": null,
        "neighbourhood": null,
        "suburb": null,
        "city_district": null,
        "city": "Goris",
        "state": "Syunik Province",
        "postcode": "3201",
        "country": "Armenia",
        "country_code": "am"
      },
      "address": "Goris, Syunik Province, Armenia"
    },
    {
      "lat": 39.52604688173776,
      "lon": 46.38303121113427,
      "geoinfo": {
        "display_name": "Goris-Kornidzor Highway, Goris community, Syunik Province, 3203, Armenia",
        "road": "Goris-Kornidzor Highway",
        "house_number": null,
        "neighbourhood": null,
        "suburb": null,
        "city_district": null,
        "city": null,
        "state": "Syunik Province",
        "postcode": "3203",
        "country": "Armenia",
        "country_code": "am"
      },
      "address": "Goris-Kornidzor Highway, Goris, Syunik Province, Armenia"
    },
    {
      "lat": 39.47673722770741,
      "lon": 46.34206769733546,
      "geoinfo": {
        "display_name": "Highway T-8-94, Karahunj, Goris community, Syunik Province, 3220, Armenia",
        "road": "Highway T-8-94",
        "house_number": null,
        "neighbourhood": null,
        "suburb": null,
        "city_district": null,
        "city": "Karahunj",
        "state": "Syunik Province",
        "postcode": "3220",
        "country": "Armenia",
        "country_code": "am"
      },
      "address": "Highway T-8-94, Goris, Syunik Province, Armenia"
    },
    {
      "lat": 39.51673804476712,
      "lon": 46.335227763703855,
      "geoinfo": {
        "display_name": "Ankakhutyan street, Goris, Goris community, Syunik Province, 3201, Armenia",
        "road": "Ankakhutyan street",
        "house_number": null,
        "neighbourhood": null,
        "suburb": null,
        "city_district": null,
        "city": "Goris",
        "state": "Syunik Province",
        "postcode": "3201",
        "country": "Armenia",
        "country_code": "am"
      },
      "address": "Ankakhutyan street, Goris, Syunik Province, Armenia"
    },
    {
      "lat": 39.49638228630008,
      "lon": 46.356581312674436,
      "geoinfo": {
        "display_name": "Goris, Goris community, Syunik Province, 3201, Armenia",
        "road": null,
        "house_number": null,
        "neighbourhood": null,
        "suburb": null,
        "city_district": null,
        "city": "Goris",
        "state": "Syunik Province",
        "postcode": "3201",
        "country": "Armenia",
        "country_code": "am"
      },
      "address": "696, Goris, Goris community, Syunik Province, 3201, Armenia"
    },
    {
      "lat": 39.546882816546294,
      "lon": 46.353942659632395,
      "geoinfo": {
        "display_name": "Tegh community, Syunik Province, Armenia",
        "road": null,
        "house_number": null,
        "neighbourhood": null,
        "suburb": null,
        "city_district": null,
        "city": null,
        "state": "Syunik Province",
        "postcode": null,
        "country": "Armenia",
        "country_code": "am"
      },
      "address": "432, Goris, 54846 Syunik Province, Armenia"
    },
    {
      "lat": 39.5163356832103,
      "lon": 46.2994478836365,
      "geoinfo": {
        "display_name": "Goris community, Syunik Province, Armenia",
        "road": null,
        "house_number": null,
        "neighbourhood": null,
        "suburb": null,
        "city_district": null,
        "city": null,
        "state": "Syunik Province",
        "postcode": null,
        "country": "Armenia",
        "country_code": "am"
      },
      "address": "919, Goris community, 68191 Syunik Province, Armenia"
    },
    {
      "lat": 39.515749898134985,
      "lon": 46.3035142717916,
      "geoinfo": {
        "display_name": "Goris community, Syunik Province, Armenia",
        "road": null,
        "house_number": null,
        "neighbourhood": null,
        "suburb": null,
        "city_district": null,
        "city": null,
        "state": "Syunik Province",
        "postcode": null,
        "country": "Armenia",
        "country_code": "am"
      },
      "address": "376, Goris community, 10885 Syunik Province, Armenia"
    }
  ],
  "updated_at": "2025-10-19T02:25:59.345680+00:00",
  "_kind": "geo_samples"
}