{
  "country_code": "AM",
  "country": "Armenia",
  "city": "Hrazdan",
  "geonameid": 616629,
  "target_addresses": 4,
  "samples": [
    {
      "lat": 40.49502663026964,
      "lon": 44.74268799188968,
      "geoinfo": {
        "display_name": "Օրբելու փողոց, Աղբյուրակ թաղամաս, Verin Aghbyurak, Hrazdan, Hrazdan community, Kotayk Province, 2307, Armenia",
        "road": "Օրբելու փողոց",
        "house_number": null,
        "neighbourhood": null,
        "suburb": null,
        "city_district": null,
        "city": "Hrazdan",
        "state": "Kotayk Province",
        "postcode": "2307",
        "country": "Armenia",
        "country_code": "am"
      },
      "address": "Օրբելու փողոց, Hrazdan, Kotayk Province, Armenia"
    },
    {
      "lat": 40.49972442906262,
      "lon": 44.72584153561342,
      "geoinfo": {
        "display_name": "Verin Akhbyurak, Verin Aghbyurak, Hrazdan, Hrazdan community, Kotayk Province, 2307, Armenia",
        "road": null,
        "house_number": null,
        "neighbourhood": "Verin Akhbyurak",
        "suburb": null,
        "city_district": null,
        "city": "Hrazdan",
        "state": "Kotayk Province",
        "postcode": "2307",
        "country": "Armenia",
        "country_code": "am"
      },
      "address": "Verin Akhbyurak, Hrazdan, Kotayk Province, Armenia"
    },
    {
      "lat": 40.542485171060285,
      "lon": 44.74271008428789,
      "geoinfo": {
        "display_name": "Hrazdan, Hrazdan community, Kotayk Province, 2310, Armenia",
        "road": null,
        "house_number": null,
        "neighbourhood": null,
        "suburb": null,
        "city_district": null,
        "city": "Hrazdan",
        "state": "Kotayk Province",
        "postcode": "2310",
        "country": "Armenia",
        "country_code": "am"
      },
      "address": "Hrazdan, Kotayk Province, Armenia"
    },
    {
      "lat": 40.49102330558562,
      "lon": 44.75297340520548,
      "geoinfo": {
        "display_name": "Hatsagortsneri street, Hrazdan, Hrazdan community, Kotayk Province, 2307, Armenia",
        "road": "Hatsagortsneri street",
        "house_number": null,
        "neighbourhood": null,
        "suburb": null,
        "city_district": null,
        "city": "Hrazdan",
        "state": "Kotayk Province",
        "postcode": "2307",
        "country": "Armenia",
        "country_code": "am"
      },
      "address": "Hatsagortsneri street, Hrazdan, Kotayk Province, Armenia"
    },
    {
      "lat": 40.50900461745291,
      "lon": 44.72067617543376,
      "geoinfo": {
        "display_name": "Verin Akhbyurak, Vardeni, Hrazdan, Hrazdan community, Kotayk Province, 2310, Armenia",
        "road": null,
        "house_number": null,
        "neighbourhood": "Verin Akhbyurak",
        "suburb": null,
        "city_district": null,
        "city": "Hrazdan",
        "state": "Kotayk Province",
        "postcode": "2310",
        "country": "Armenia",
        "country_code": "am"
      },
      "address": "822, Verin Akhbyurak, Vardeni, Hrazdan, Hrazdan community, Kotayk Province, 2310, Armenia"
    },
    {
      "lat": 40.535674669163164,
      "lon": 44.75283632325594,
      "geoinfo": {
        "display_name": "Tsaghkadzor Roadway, Jrarat, Գ-2 թաղ, Hrazdan, Tsaghkadzor community, Kotayk Province, 2301, Armenia",
        "road": "Tsaghkadzor Roadway",
        "house_number": null,
        "neighbourhood": "Jrarat",
        "suburb": "Գ-2 թաղ",
        "city_district": null,
        "city": "Hrazdan",
        "state": "Kotayk Province",
        "postcode": "2301",
        "country": "Armenia",
        "country_code": "am"
      },
      "address": "Tsaghkadzor Roadway, Jrarat, Գ-2 թաղ, Hrazdan, Tsaghkadzor community, Kotayk Province, 2301, Armenia"
    },
    {
      "lat": 40.501099494310786,
      "lon": 44.80783132611623,
      "geoinfo": {
        "display_name": "Hrazdan community, Kotayk Province, Armenia",
        "road": null,
        "house_number": null,
        "neighbourhood": null,
        "suburb": null,
        "city_district": null,
        "city": null,
        "state": "Kotayk Province",
        "postcode": null,
        "country": "Armenia",
        "country_code": "am"
      },
      "address": "853, Hrazdan community, 98408 Kotayk Province, Armenia"
    },
    {
      "lat": 40.545655908357766,
      "lon": 44.716257567652654,
      "geoinfo": {
        "display_name": "Hrazdan, Tsaghkadzor community, Kotayk Province, 2310, Armenia",
        "road": null,
        "house_number": null,
        "neighbourhood": null,
        "suburb": null,
        "city_district": null,
        "city": "Hrazdan",
        "state": "Kotayk Province",
        "postcode": "2310",
        "country": "Armenia",
        "country_code": "am"
      },
      "address": "600, Hrazdan, Tsaghkadzor community, Kotayk Province, 2310, Armenia"
    }
  ],
  "updated_at": "2025-10-19T02:42:51.750737+00:00",
  "_kind": "geo_samples"
}