{
  "country_code": "AM",
  "country": "Armenia",
  "city": "Malatia-Sebastia",
  "geonameid": 7670934,
  "target_addresses": 4,
  "samples": [
    {
      "lat": 40.165415777308446,
      "lon": 44.47976907553324,
      "geoinfo": {
        "display_name": "Admiral Isakov Avenue, Malatia-Sebastia, Yerevan, 0050, Armenia",
        "road": "Admiral Isakov Avenue",
        "house_number": null,
        "neighbourhood": null,
        "suburb": "Malatia-Sebastia",
        "city_district": null,
        "city": "Yerevan",
        "state": null,
        "postcode": "0050",
        "country": "Armenia",
        "country_code": "am"
      },
      "address": "Admiral Isakov Avenue, Malatia-Sebastia, Armenia"
    },
    {
      "lat": 40.17186874671552,
      "lon": 44.44312280749328,
      "geoinfo": {
        "display_name": "47, Raffi Street, Malatia-Sebastia, Yerevan, 0064, Armenia",
        "road": "Raffi Street",
        "house_number": "47",
        "neighbourhood": null,
        "suburb": "Malatia-Sebastia",
        "city_district": null,
        "city": "Yerevan",
        "state": null,
        "postcode": "0064",
        "country": "Armenia",
        "country_code": "am"
      },
      "address": "47 Raffi Street, Malatia-Sebastia, Armenia"
    },
    {
      "lat": 40.1854076365628,
      "lon": 44.493626103986436,
      "geoinfo": {
        "display_name": "Kentron, Yerevan, 0082, Armenia",
        "road": null,
        "house_number": null,
        "neighbourhood": null,
        "suburb": "Kentron",
        "city_district": null,
        "city": "Yerevan",
        "state": null,
        "postcode": "0082",
        "country": "Armenia",
        "country_code": "am"
      },
      "address": "Kentron, Malatia-Sebastia, Armenia"
    },
    {
      "lat": 40.18190184408224,
      "lon": 44.412063042742,
      "geoinfo": {
        "display_name": "Malatia-Sebastia, Yerevan, 0081, Armenia",
        "road": null,
        "house_number": null,
        "neighbourhood": null,
        "suburb": "Malatia-Sebastia",
        "city_district": null,
        "city": "Yerevan",
        "state": null,
        "postcode": "0081",
        "country": "Armenia",
        "country_code": "am"
      },
      "address": "Malatia-Sebastia, Malatia-Sebastia, Armenia"
    },
    {
      "lat": 40.18555623821569,
      "lon": 44.448530417087284,
      "geoinfo": {
        "display_name": "134/2, Tichina street, A-2, Malatia-Sebastia, Yerevan, 0084, Armenia",
        "road": "Tichina street",
        "house_number": "134/2",
        "neighbourhood": "A-2",
        "suburb": "Malatia-Sebastia",
        "city_district": null,
        "city": "Yerevan",
        "state": null,
        "postcode": "0084",
        "country": "Armenia",
        "country_code": "am"
      },
      "address": "134/2, Tichina street, A-2, Malatia-Sebastia, Yerevan, 0084, Armenia"
    },
    {
      "lat": 40.19853326808628,
      "lon": 44.492229810780756,
      "geoinfo": {
        "display_name": "1, Hakob Hakobyan street, Arabkir, Yerevan, 0033, Armenia",
        "road": "Hakob Hakobyan street",
        "house_number": "1",
        "neighbourhood": null,
        "suburb": "Arabkir",
        "city_district": null,
        "city": "Yerevan",
        "state": null,
        "postcode": "0033",
        "country": "Armenia",
        "country_code": "am"
      },
      "address": "1, Hakob Hakobyan street, Arabkir, Yerevan, 0033, Armenia"
    },
    {
      "lat": 40.20399921190163,
      "lon": 44.409992288360925,
      "geoinfo": {
        "display_name": "Sasunik-Yerevan Highway, Merdzavan, Parakar municipality, Armavir Province, 0081, Armenia",
        "road": "Sasunik-Yerevan Highway",
        "house_number": null,
        "neighbourhood": null,
        "suburb": null,
        "city_district": null,
        "city": "Merdzavan",
        "state": "Armavir Province",
        "postcode": "0081",
        "country": "Armenia",
        "country_code": "am"
      },
      "address": "385, Sasunik-Yerevan Highway, Merdzavan, Parakar municipality, Armavir Province, 0081, Armenia"
    },
    {
      "lat": 40.19044905835588,
      "lon": 44.46057798479646,
      "geoinfo": {
        "display_name": "30, Miraqian deadstreet, Lukashin, Ajapnyak, Yerevan, 0031, Armenia",
        "road": "Miraqian deadstreet",
        "house_number": "30",
        "neighbourhood": "Lukashin",
        "suburb": "Ajapnyak",
        "city_district": null,
        "city": "Yerevan",
        "state": null,
        "postcode": "0031",
        "country": "Armenia",
        "country_code": "am"
      },
      "address": "30, Miraqian deadstreet, Lukashin, Ajapnyak, Yerevan, 0031, Armenia"
    }
  ],
  "updated_at": "2025-10-19T00:53:34.123615+00:00",
  "_kind": "geo_samples"
}