{
  "country_code": "AM",
  "country": "Armenia",
  "city": "Nor Nork",
  "geonameid": 866153,
  "target_addresses": 4,
  "samples": [
    {
      "lat": 40.23877685164563,
      "lon": 44.576433335554995,
      "geoinfo": {
        "display_name": "Arinj, Abovyan community, Kotayk Province, 2210, Armenia",
        "road": null,
        "house_number": null,
        "neighbourhood": null,
        "suburb": null,
        "city_district": null,
        "city": "Arinj",
        "state": "Kotayk Province",
        "postcode": "2210",
        "country": "Armenia",
        "country_code": "am"
      },
      "address": "Nor Nork, Kotayk Province, Armenia"
    },
    {
      "lat": 40.17384889465861,
      "lon": 44.59173156984491,
      "geoinfo": {
        "display_name": "Artashat-Sevan highway, Erebuni, Yerevan, Jrvej, Jrvezh community, Kotayk Province, 0049, Armenia",
        "road": "Artashat-Sevan highway",
        "house_number": null,
        "neighbourhood": null,
        "suburb": "Erebuni",
        "city_district": null,
        "city": "Yerevan",
        "state": "Kotayk Province",
        "postcode": "0049",
        "country": "Armenia",
        "country_code": "am"
      },
      "address": "571, Artashat-Sevan highway, Erebuni, Yerevan, Jrvej, Jrvezh community, Kotayk Province, 0049, Armenia"
    },
    {
      "lat": 40.18591676474663,
      "lon": 44.54722781059841,
      "geoinfo": {
        "display_name": "7, Sargis Baghdasaryan street, Norq Marash, Yerevan, 0047, Armenia",
        "road": "Sargis Baghdasaryan street",
        "house_number": "7",
        "neighbourhood": null,
        "suburb": "Norq Marash",
        "city_district": null,
        "city": "Yerevan",
        "state": null,
        "postcode": "0047",
        "country": "Armenia",
        "country_code": "am"
      },
      "address": "7, Sargis Baghdasaryan street, Norq Marash, Yerevan, 0047, Armenia"
    },
    {
      "lat": 40.21847476473612,
      "lon": 44.55273524152618,
      "geoinfo": {
        "display_name": "Tsarav Aghbyuri Street, Avan, Yerevan, 0040, Armenia",
        "road": "Tsarav Aghbyuri Street",
        "house_number": null,
        "neighbourhood": null,
        "suburb": "Avan",
        "city_district": null,
        "city": "Yerevan",
        "state": null,
        "postcode": "0040",
        "country": "Armenia",
        "country_code": "am"
      },
      "address": "781, Tsarav Aghbyuri Street, Avan, Yerevan, 0040, Armenia"
    },
    {
      "lat": 40.22387002104137,
      "lon": 44.59020842480643,
      "geoinfo": {
        "display_name": "Khachatur Abovyan district 10th street 1st deadlock, Khachatur Abovyan district, Arinj, Abovyan community, Kotayk Province, 2210, Armenia",
        "road": "Khachatur Abovyan district 10th street 1st deadlock",
        "house_number": null,
        "neighbourhood": "Khachatur Abovyan district",
        "suburb": null,
        "city_district": null,
        "city": "Arinj",
        "state": "Kotayk Province",
        "postcode": "2210",
        "country": "Armenia",
        "country_code": "am"
      },
      "address": "Khachatur Abovyan district 10th street 1st deadlock, Khachatur Abovyan district, Arinj, Abovyan community, Kotayk Province, 2210, Armenia"
    }
  ],
  "updated_at": "2025-10-19T00:49:03.938858+00:00",
  "_kind": "geo_samples"
}