{
  "country_code": "AM",
  "country": "Armenia",
  "city": "Vanadzor",
  "geonameid": 616530,
  "target_addresses": 27,
  "samples": [
    {
      "lat": 40.80974626780239,
      "lon": 44.47415826273816,
      "geoinfo": {
        "display_name": "Վարդանանց փողոցի 4-րդ նրբանցք, Vanadzor, Vanadzor community, Lori Province, 2022, Armenia",
        "road": "Վարդանանց փողոցի 4-րդ նրբանցք",
        "house_number": null,
        "neighbourhood": null,
        "suburb": null,
        "city_district": null,
        "city": "Vanadzor",
        "state": "Lori Province",
        "postcode": "2022",
        "country": "Armenia",
        "country_code": "am"
      },
      "address": "Վարդանանց փողոցի 4-րդ նրբանցք, Vanadzor, Lori Province, Armenia"
    },
    {
      "lat": 40.77130049195168,
      "lon": 44.47561930541307,
      "geoinfo": {
        "display_name": "Vanadzor, Pambak community, Lori Province, 2009, Armenia",
        "road": null,
        "house_number": null,
        "neighbourhood": null,
        "suburb": null,
        "city_district": null,
        "city": "Vanadzor",
        "state": "Lori Province",
        "postcode": "2009",
        "country": "Armenia",
        "country_code": "am"
      },
      "address": "Vanadzor, Lori Province, Armenia"
    },
    {
      "lat": 40.76773863102122,
      "lon": 44.47092464119,
      "geoinfo": {
        "display_name": "Maymekh street, Vanadzor, Vanadzor community, Lori Province, 2009, Armenia",
        "road": "Maymekh street",
        "house_number": null,
        "neighbourhood": null,
        "suburb": null,
        "city_district": null,
        "city": "Vanadzor",
        "state": "Lori Province",
        "postcode": "2009",
        "country": "Armenia",
        "country_code": "am"
      },
      "address": "Maymekh street, Vanadzor, Lori Province, Armenia"
    },
    {
      "lat": 40.80473178435655,
      "lon": 44.515055110740185,
      "geoinfo": {
        "display_name": "44, Avetisyan street, Dimats, Vanadzor, Vanadzor community, Lori Province, 2005, Armenia",
        "road": "Avetisyan street",
        "house_number": "44",
        "neighbourhood": "Dimats",
        "suburb": null,
        "city_district": null,
        "city": "Vanadzor",
        "state": "Lori Province",
        "postcode": "2005",
        "country": "Armenia",
        "country_code": "am"
      },
      "address": "44 Avetisyan street, Vanadzor, Lori Province, Armenia"
    },
    {
      "lat": 40.796880031841134,
      "lon": 44.54138747724142,
      "geoinfo": {
        "display_name": "1st street, Vanadzor community, Lori Province, 2029, Armenia",
        "road": "1st street",
        "house_number": null,
        "neighbourhood": null,
        "suburb": null,
        "city_district": null,
        "city": null,
        "state": "Lori Province",
        "postcode": "2029",
        "country": "Armenia",
        "country_code": "am"
      },
      "address": "1st street, Vanadzor, 68804 Lori Province, Armenia"
    },
    {
      "lat": 40.78316640274631,
      "lon": 44.47935095518261,
      "geoinfo": {
        "display_name": "Vanadzor Home for the Elderly, 8, Maymekh street, Vanadzor, Vanadzor community, Lori Province, 2009, Armenia",
        "road": "Maymekh street",
        "house_number": "8",
        "neighbourhood": null,
        "suburb": null,
        "city_district": null,
        "city": "Vanadzor",
        "state": "Lori Province",
        "postcode": "2009",
        "country": "Armenia",
        "country_code": "am"
      },
      "address": "8 Maymekh street, Vanadzor, 61277 Lori Province, Armenia"
    },
    {
      "lat": 40.76914386399227,
      "lon": 44.47952039846154,
      "geoinfo": {
        "display_name": "Maymekh street, Vanadzor, Vanadzor community, Lori Province, 2009, Armenia",
        "road": "Maymekh street",
        "house_number": null,
        "neighbourhood": null,
        "suburb": null,
        "city_district": null,
        "city": "Vanadzor",
        "state": "Lori Province",
        "postcode": "2009",
        "country": "Armenia",
        "country_code": "am"
      },
      "address": "Maymekh street, Vanadzor, 94478 Lori Province, Armenia"
    },
    {
      "lat": 40.84398567687513,
      "lon": 44.51595957550861,
      "geoinfo": {
        "display_name": "Pambak community, Lori Province, 2013, Armenia",
        "road": null,
        "house_number": null,
        "neighbourhood": null,
        "suburb": null,
        "city_district": null,
        "city": null,
        "state": "Lori Province",
        "postcode": "2013",
        "country": "Armenia",
        "country_code": "am"
      },
      "address": "Vanadzor, 51786 Lori Province, Armenia"
    },
    {
      "lat": 40.797096294779806,
      "lon": 44.52413791878963,
      "geoinfo": {
        "display_name": "Yubeka Street, Bazum, Vanadzor, Vanadzor community, Lori Province, 2008, Armenia",
        "road": "Yubeka Street",
        "house_number": null,
        "neighbourhood": "Bazum",
        "suburb": null,
        "city_district": null,
        "city": "Vanadzor",
        "state": "Lori Province",
        "postcode": "2008",
        "country": "Armenia",
        "country_code": "am"
      },
      "address": "Yubeka Street, Bazum, Vanadzor, Vanadzor community, Lori Province, 2008, Armenia"
    },
    {
      "lat": 40.813875464845346,
      "lon": 44.49489368196858,
      "geoinfo": {
        "display_name": "Vanadzor, Vanadzor community, Lori Province, 2013, Armenia",
        "road": null,
        "house_number": null,
        "neighbourhood": null,
        "suburb": null,
        "city_district": null,
        "city": "Vanadzor",
        "state": "Lori Province",
        "postcode": "2013",
        "country": "Armenia",
        "country_code": "am"
      },
      "address": "Vanadzor, Vanadzor community, Lori Province, 2013, Armenia"
    },
    {
      "lat": 40.81483143088227,
      "lon": 44.491183213464815,
      "geoinfo": {
        "display_name": "25, Moskovyan street, Vanadzor, Vanadzor community, Lori Province, 2015, Armenia",
        "road": "Moskovyan street",
        "house_number": "25",
        "neighbourhood": null,
        "suburb": null,
        "city_district": null,
        "city": "Vanadzor",
        "state": "Lori Province",
        "postcode": "2015",
        "country": "Armenia",
        "country_code": "am"
      },
      "address": "25, Moskovyan street, Vanadzor, 2015 Lori Province, Armenia"
    },
    {
      "lat": 40.77415656119093,
      "lon": 44.52483685381058,
      "geoinfo": {
        "display_name": "Pambak community, Lori Province, Armenia",
        "road": null,
        "house_number": null,
        "neighbourhood": null,
        "suburb": null,
        "city_district": null,
        "city": null,
        "state": "Lori Province",
        "postcode": null,
        "country": "Armenia",
        "country_code": "am"
      },
      "address": "523, Vanadzor, 58789 Lori Province, Armenia"
    },
    {
      "lat": 40.799677107430355,
      "lon": 44.44436080342726,
      "geoinfo": {
        "display_name": "Pambak community, Lori Province, Armenia",
        "road": null,
        "house_number": null,
        "neighbourhood": null,
        "suburb": null,
        "city_district": null,
        "city": null,
        "state": "Lori Province",
        "postcode": null,
        "country": "Armenia",
        "country_code": "am"
      },
      "address": "647, Vanadzor, 54372 Lori Province, Armenia"
    },
    {
      "lat": 40.7742089041565,
      "lon": 44.48725308224944,
      "geoinfo": {
        "display_name": "Pambak community, Lori Province, Armenia",
        "road": null,
        "house_number": null,
        "neighbourhood": null,
        "suburb": null,
        "city_district": null,
        "city": null,
        "state": "Lori Province",
        "postcode": null,
        "country": "Armenia",
        "country_code": "am"
      },
      "address": "499, Vanadzor, 98863 Lori Province, Armenia"
    },
    {
      "lat": 40.8131662895923,
      "lon": 44.49911513512038,
      "geoinfo": {
        "display_name": "Tagavoranist, Manushyan street, Vanadzor, Vanadzor community, Lori Province, 2013, Armenia",
        "road": "Manushyan street",
        "house_number": null,
        "neighbourhood": null,
        "suburb": null,
        "city_district": null,
        "city": "Vanadzor",
        "state": "Lori Province",
        "postcode": "2013",
        "country": "Armenia",
        "country_code": "am"
      },
      "address": "968, Manushyan street, Vanadzor, 2013 Lori Province, Armenia"
    },
    {
      "lat": 40.78096828491008,
      "lon": 44.51654268415654,
      "geoinfo": {
        "display_name": "Sasuntsiner street, Vanadzor, Vanadzor community, Lori Province, 2011, Armenia",
        "road": "Sasuntsiner street",
        "house_number": null,
        "neighbourhood": null,
        "suburb": null,
        "city_district": null,
        "city": "Vanadzor",
        "state": "Lori Province",
        "postcode": "2011",
        "country": "Armenia",
        "country_code": "am"
      },
      "address": "879, Sasuntsiner street, Vanadzor, Vanadzor community, Lori Province, 2011, Armenia"
    },
    {
      "lat": 40.80143437314197,
      "lon": 44.55196891046669,
      "geoinfo": {
        "display_name": "6th street, Vanadzor community, Lori Province, 2029, Armenia",
        "road": "6th street",
        "house_number": null,
        "neighbourhood": null,
        "suburb": null,
        "city_district": null,
        "city": null,
        "state": "Lori Province",
        "postcode": "2029",
        "country": "Armenia",
        "country_code": "am"
      },
      "address": "6th street, Vanadzor community, Lori Province, 2029, Armenia"
    },
    {
      "lat": 40.80172996748731,
      "lon": 44.45064602934039,
      "geoinfo": {
        "display_name": "Pambak community, Lori Province, Armenia",
        "road": null,
        "house_number": null,
        "neighbourhood": null,
        "suburb": null,
        "city_district": null,
        "city": null,
        "state": "Lori Province",
        "postcode": null,
        "country": "Armenia",
        "country_code": "am"
      },
      "address": "227, Vanadzor, 69682 Lori Province, Armenia"
    },
    {
      "lat": 40.84310856854067,
      "lon": 44.497267045405536,
      "geoinfo": {
        "display_name": "Karaberd, Pambak community, Lori Province, 2005, Armenia",
        "road": null,
        "house_number": null,
        "neighbourhood": null,
        "suburb": null,
        "city_district": null,
        "city": "Karaberd",
        "state": "Lori Province",
        "postcode": "2005",
        "country": "Armenia",
        "country_code": "am"
      },
      "address": "822, Vanadzor, 2005 Lori Province, Armenia"
    },
    {
      "lat": 40.82200175291305,
      "lon": 44.53080210710402,
      "geoinfo": {
        "display_name": "Lori avenue, Pambak community, Lori Province, 2005, Armenia",
        "road": "Lori avenue",
        "house_number": null,
        "neighbourhood": null,
        "suburb": null,
        "city_district": null,
        "city": null,
        "state": "Lori Province",
        "postcode": "2005",
        "country": "Armenia",
        "country_code": "am"
      },
      "address": "397, Lori avenue, Vanadzor, 2005 Lori Province, Armenia"
    },
    {
      "lat": 40.831890399225365,
      "lon": 44.48559986692018,
      "geoinfo": {
        "display_name": "Karaberd, Pambak community, Lori Province, 2005, Armenia",
        "road": null,
        "house_number": null,
        "neighbourhood": null,
        "suburb": null,
        "city_district": null,
        "city": "Karaberd",
        "state": "Lori Province",
        "postcode": "2005",
        "country": "Armenia",
        "country_code": "am"
      },
      "address": "251, Vanadzor, 2005 Lori Province, Armenia"
    },
    {
      "lat": 40.849630552348,
      "lon": 44.48899991120518,
      "geoinfo": {
        "display_name": "Karaberd, Pambak community, Lori Province, 2005, Armenia",
        "road": null,
        "house_number": null,
        "neighbourhood": null,
        "suburb": null,
        "city_district": null,
        "city": "Karaberd",
        "state": "Lori Province",
        "postcode": "2005",
        "country": "Armenia",
        "country_code": "am"
      },
      "address": "599, Vanadzor, 2005 Lori Province, Armenia"
    },
    {
      "lat": 40.80075858582569,
      "lon": 44.48911900504383,
      "geoinfo": {
        "display_name": "14, Karbishev street, Vanadzor, Vanadzor community, Lori Province, 2021, Armenia",
        "road": "Karbishev street",
        "house_number": "14",
        "neighbourhood": null,
        "suburb": null,
        "city_district": null,
        "city": "Vanadzor",
        "state": "Lori Province",
        "postcode": "2021",
        "country": "Armenia",
        "country_code": "am"
      },
      "address": "14, Karbishev street, Vanadzor, Vanadzor community, Lori Province, 2021, Armenia"
    },
    {
      "lat": 40.818315983324865,
      "lon": 44.48776160447148,
      "geoinfo": {
        "display_name": "Narekatsi street, Vanadzor, Vanadzor community, Lori Province, 2015, Armenia",
        "road": "Narekatsi street",
        "house_number": null,
        "neighbourhood": null,
        "suburb": null,
        "city_district": null,
        "city": "Vanadzor",
        "state": "Lori Province",
        "postcode": "2015",
        "country": "Armenia",
        "country_code": "am"
      },
      "address": "263, Narekatsi street, Vanadzor, Vanadzor community, Lori Province, 2015, Armenia"
    },
    {
      "lat": 40.77845504404721,
      "lon": 44.47893365852966,
      "geoinfo": {
        "display_name": "Maymekh street, Vanadzor, Vanadzor community, Lori Province, 2009, Armenia",
        "road": "Maymekh street",
        "house_number": null,
        "neighbourhood": null,
        "suburb": null,
        "city_district": null,
        "city": "Vanadzor",
        "state": "Lori Province",
        "postcode": "2009",
        "country": "Armenia",
        "country_code": "am"
      },
      "address": "697, Maymekh street, Vanadzor, Vanadzor community, Lori Province, 2009, Armenia"
    },
    {
      "lat": 40.7665810582561,
      "lon": 44.48375710554927,
      "geoinfo": {
        "display_name": "Pambak community, Lori Province, Armenia",
        "road": null,
        "house_number": null,
        "neighbourhood": null,
        "suburb": null,
        "city_district": null,
        "city": null,
        "state": "Lori Province",
        "postcode": null,
        "country": "Armenia",
        "country_code": "am"
      },
      "address": "446, Vanadzor, 54411 Lori Province, Armenia"
    },
    {
      "lat": 40.794737811825,
      "lon": 44.461688622548266,
      "geoinfo": {
        "display_name": "Pambak community, Lori Province, Armenia",
        "road": null,
        "house_number": null,
        "neighbourhood": null,
        "suburb": null,
        "city_district": null,
        "city": null,
        "state": "Lori Province",
        "postcode": null,
        "country": "Armenia",
        "country_code": "am"
      },
      "address": "645, Vanadzor, 29736 Lori Province, Armenia"
    }
  ],
  "updated_at": "2025-10-19T03:09:40.327547+00:00",
  "_kind": "geo_samples"
}