{
  "country_code": "GA",
  "country": "Gabon",
  "city": "Lambaréné",
  "geonameid": 2399888,
  "target_addresses": 8,
  "samples": [
    {
      "lat": -0.7378913272522847,
      "lon": 10.246844080603578,
      "geoinfo": {
        "display_name": "Lambarene, Moyen-Ogooué Province, Gabon",
        "road": null,
        "house_number": null,
        "neighbourhood": null,
        "suburb": null,
        "city_district": null,
        "city": "Lambarene",
        "state": "Moyen-Ogooué Province",
        "postcode": null,
        "country": "Gabon",
        "country_code": "ga"
      },
      "address": "Lambaréné, Moyen-Ogooué Province, Gabon"
    },
    {
      "lat": -0.6579192063089565,
      "lon": 10.233955546508524,
      "geoinfo": {
        "display_name": "Abongo, Lambarene, Moyen-Ogooué Province, Gabon",
        "road": null,
        "house_number": null,
        "neighbourhood": "Abongo",
        "suburb": null,
        "city_district": null,
        "city": "Lambarene",
        "state": "Moyen-Ogooué Province",
        "postcode": null,
        "country": "Gabon",
        "country_code": "ga"
      },
      "address": "Abongo, Lambaréné, Moyen-Ogooué Province, Gabon"
    },
    {
      "lat": -0.6744260176755753,
      "lon": 10.231369284386266,
      "geoinfo": {
        "display_name": "Entrée de Abongo, Abongo, Lambarene, Moyen-Ogooué Province, Gabon",
        "road": "Entrée de Abongo",
        "house_number": null,
        "neighbourhood": "Abongo",
        "suburb": null,
        "city_district": null,
        "city": "Lambarene",
        "state": "Moyen-Ogooué Province",
        "postcode": null,
        "country": "Gabon",
        "country_code": "ga"
      },
      "address": "Entrée de Abongo, Lambaréné, Moyen-Ogooué Province, Gabon"
    },
    {
      "lat": -0.6881739226983197,
      "lon": 10.20510753952326,
      "geoinfo": {
        "display_name": "Point V, Lambarene, Moyen-Ogooué Province, Gabon",
        "road": null,
        "house_number": null,
        "neighbourhood": "Point V",
        "suburb": null,
        "city_district": null,
        "city": "Lambarene",
        "state": "Moyen-Ogooué Province",
        "postcode": null,
        "country": "Gabon",
        "country_code": "ga"
      },
      "address": "Point V, Lambaréné, Moyen-Ogooué Province, Gabon"
    },
    {
      "lat": -0.6826417520412313,
      "lon": 10.207795070573326,
      "geoinfo": {
        "display_name": "Route de Fangui, Lambarene, Moyen-Ogooué Province, Gabon",
        "road": "Route de Fangui",
        "house_number": null,
        "neighbourhood": null,
        "suburb": null,
        "city_district": null,
        "city": "Lambarene",
        "state": "Moyen-Ogooué Province",
        "postcode": null,
        "country": "Gabon",
        "country_code": "ga"
      },
      "address": "Route de Fangui, Lambaréné, Moyen-Ogooué Province, Gabon"
    },
    {
      "lat": -0.7144408209410789,
      "lon": 10.198002536121301,
      "geoinfo": {
        "display_name": "Carrière Lambaréné, Lambarene, Moyen-Ogooué Province, Gabon",
        "road": "Carrière Lambaréné",
        "house_number": null,
        "neighbourhood": null,
        "suburb": null,
        "city_district": null,
        "city": "Lambarene",
        "state": "Moyen-Ogooué Province",
        "postcode": null,
        "country": "Gabon",
        "country_code": "ga"
      },
      "address": "Carrière Lambaréné, Lambaréné, Moyen-Ogooué Province, Gabon"
    },
    {
      "lat": -0.6980155788173804,
      "lon": 10.220605742297845,
      "geoinfo": {
        "display_name": "Route du Grand Village, Grand Village, Lambarene, Moyen-Ogooué Province, Gabon",
        "road": "Route du Grand Village",
        "house_number": null,
        "neighbourhood": "Grand Village",
        "suburb": null,
        "city_district": null,
        "city": "Lambarene",
        "state": "Moyen-Ogooué Province",
        "postcode": null,
        "country": "Gabon",
        "country_code": "ga"
      },
      "address": "Route du Grand Village, Lambaréné, Moyen-Ogooué Province, Gabon"
    },
    {
      "lat": -0.6978636243243959,
      "lon": 10.280341006337181,
      "geoinfo": {
        "display_name": "Route Transgabonaise, Lambarene, Moyen-Ogooué Province, Gabon",
        "road": "Route Transgabonaise",
        "house_number": null,
        "neighbourhood": null,
        "suburb": null,
        "city_district": null,
        "city": "Lambarene",
        "state": "Moyen-Ogooué Province",
        "postcode": null,
        "country": "Gabon",
        "country_code": "ga"
      },
      "address": "Route Transgabonaise, Lambaréné, Moyen-Ogooué Province, Gabon"
    },
    {
      "lat": -0.7041202825791049,
      "lon": 10.244054930508856,
      "geoinfo": {
        "display_name": "Aéroport de Lambaréné, Route Transgabonaise, Lambarene, Moyen-Ogooué Province, Gabon",
        "road": "Route Transgabonaise",
        "house_number": null,
        "neighbourhood": null,
        "suburb": null,
        "city_district": null,
        "city": "Lambarene",
        "state": "Moyen-Ogooué Province",
        "postcode": null,
        "country": "Gabon",
        "country_code": "ga"
      },
      "address": "793, Route Transgabonaise, Lambaréné, 54256 Moyen-Ogooué Province, Gabon"
    },
    {
      "lat": -0.7230392236536299,
      "lon": 10.205096199985206,
      "geoinfo": {
        "display_name": "N'Dong, Moyen-Ogooué Province, Gabon",
        "road": null,
        "house_number": null,
        "neighbourhood": null,
        "suburb": null,
        "city_district": null,
        "city": "N'Dong",
        "state": "Moyen-Ogooué Province",
        "postcode": null,
        "country": "Gabon",
        "country_code": "ga"
      },
      "address": "219, Lambaréné, 01659 Moyen-Ogooué Province, Gabon"
    },
    {
      "lat": -0.7065140217519962,
      "lon": 10.278906142981173,
      "geoinfo": {
        "display_name": "Route Transgabonaise, Lambarene, Moyen-Ogooué Province, Gabon",
        "road": "Route Transgabonaise",
        "house_number": null,
        "neighbourhood": null,
        "suburb": null,
        "city_district": null,
        "city": "Lambarene",
        "state": "Moyen-Ogooué Province",
        "postcode": null,
        "country": "Gabon",
        "country_code": "ga"
      },
      "address": "599, Route Transgabonaise, Lambaréné, 24499 Moyen-Ogooué Province, Gabon"
    },
    {
      "lat": -0.7030108331420382,
      "lon": 10.252402934053478,
      "geoinfo": {
        "display_name": "Stade Jean Koumou, Route Transgabonaise, Lambarene, Moyen-Ogooué Province, Gabon",
        "road": "Route Transgabonaise",
        "house_number": null,
        "neighbourhood": null,
        "suburb": null,
        "city_district": null,
        "city": "Lambarene",
        "state": "Moyen-Ogooué Province",
        "postcode": null,
        "country": "Gabon",
        "country_code": "ga"
      },
      "address": "817, Route Transgabonaise, Lambaréné, 62775 Moyen-Ogooué Province, Gabon"
    },
    {
      "lat": -0.6633721921585959,
      "lon": 10.262342010754454,
      "geoinfo": {
        "display_name": "Etougué, Moyen-Ogooué Province, Gabon",
        "road": null,
        "house_number": null,
        "neighbourhood": null,
        "suburb": null,
        "city_district": null,
        "city": "Etougué",
        "state": "Moyen-Ogooué Province",
        "postcode": null,
        "country": "Gabon",
        "country_code": "ga"
      },
      "address": "838, Lambaréné, 40029 Moyen-Ogooué Province, Gabon"
    },
    {
      "lat": -0.6686670949532855,
      "lon": 10.233904070959055,
      "geoinfo": {
        "display_name": "Entrée de Abongo, Abongo, Lambarene, Moyen-Ogooué Province, Gabon",
        "road": "Entrée de Abongo",
        "house_number": null,
        "neighbourhood": "Abongo",
        "suburb": null,
        "city_district": null,
        "city": "Lambarene",
        "state": "Moyen-Ogooué Province",
        "postcode": null,
        "country": "Gabon",
        "country_code": "ga"
      },
      "address": "688, Entrée de Abongo, Lambaréné, 58137 Moyen-Ogooué Province, Gabon"
    },
    {
      "lat": -0.7063625330197878,
      "lon": 10.264418609587237,
      "geoinfo": {
        "display_name": "Lambarene, Moyen-Ogooué Province, Gabon",
        "road": null,
        "house_number": null,
        "neighbourhood": null,
        "suburb": null,
        "city_district": null,
        "city": "Lambarene",
        "state": "Moyen-Ogooué Province",
        "postcode": null,
        "country": "Gabon",
        "country_code": "ga"
      },
      "address": "346, Lambaréné, 30359 Moyen-Ogooué Province, Gabon"
    },
    {
      "lat": -0.7312028276211263,
      "lon": 10.230058548660478,
      "geoinfo": {
        "display_name": "Junckville, Moyen-Ogooué Province, Gabon",
        "road": null,
        "house_number": null,
        "neighbourhood": null,
        "suburb": null,
        "city_district": null,
        "city": "Junckville",
        "state": "Moyen-Ogooué Province",
        "postcode": null,
        "country": "Gabon",
        "country_code": "ga"
      },
      "address": "388, Lambaréné, 51670 Moyen-Ogooué Province, Gabon"
    }
  ],
  "updated_at": "2025-10-19T04:02:41.780504+00:00",
  "_kind": "geo_samples"
}