{
  "country_code": "GA",
  "country": "Gabon",
  "city": "Moanda",
  "geonameid": 2398269,
  "target_addresses": 8,
  "samples": [
    {
      "lat": -1.5918757005813358,
      "lon": 13.180600176318528,
      "geoinfo": {
        "display_name": "Moanda, Haut-Ogooué Province, Gabon",
        "road": null,
        "house_number": null,
        "neighbourhood": null,
        "suburb": null,
        "city_district": null,
        "city": "Moanda",
        "state": "Haut-Ogooué Province",
        "postcode": null,
        "country": "Gabon",
        "country_code": "ga"
      },
      "address": "Moanda, Haut-Ogooué Province, Gabon"
    },
    {
      "lat": -1.562353641085246,
      "lon": 13.19382479889651,
      "geoinfo": {
        "display_name": "R24, Alliance, Moanda, Haut-Ogooué Province, Gabon",
        "road": "R24",
        "house_number": null,
        "neighbourhood": null,
        "suburb": null,
        "city_district": null,
        "city": "Moanda",
        "state": "Haut-Ogooué Province",
        "postcode": null,
        "country": "Gabon",
        "country_code": "ga"
      },
      "address": "R24, Moanda, Haut-Ogooué Province, Gabon"
    },
    {
      "lat": -1.5700184108712494,
      "lon": 13.187285624836012,
      "geoinfo": {
        "display_name": "R24, Alliance, Moanda, Haut-Ogooué Province, Gabon",
        "road": "R24",
        "house_number": null,
        "neighbourhood": null,
        "suburb": null,
        "city_district": null,
        "city": "Moanda",
        "state": "Haut-Ogooué Province",
        "postcode": null,
        "country": "Gabon",
        "country_code": "ga"
      },
      "address": "R24, Alliance, Moanda, 58422 Haut-Ogooué Province, Gabon"
    },
    {
      "lat": -1.588525668116913,
      "lon": 13.233823972281119,
      "geoinfo": {
        "display_name": "Moanda, Haut-Ogooué Province, Gabon",
        "road": null,
        "house_number": null,
        "neighbourhood": null,
        "suburb": null,
        "city_district": null,
        "city": "Moanda",
        "state": "Haut-Ogooué Province",
        "postcode": null,
        "country": "Gabon",
        "country_code": "ga"
      },
      "address": "698, Moanda, 13276 Haut-Ogooué Province, Gabon"
    },
    {
      "lat": -1.5789528907547727,
      "lon": 13.219010055224883,
      "geoinfo": {
        "display_name": "Samba II, Moanda, Haut-Ogooué Province, Gabon",
        "road": null,
        "house_number": null,
        "neighbourhood": null,
        "suburb": null,
        "city_district": null,
        "city": "Moanda",
        "state": "Haut-Ogooué Province",
        "postcode": null,
        "country": "Gabon",
        "country_code": "ga"
      },
      "address": "811, Samba II, Moanda, 14532 Haut-Ogooué Province, Gabon"
    },
    {
      "lat": -1.5695045204043225,
      "lon": 13.241451336098544,
      "geoinfo": {
        "display_name": "Leima, Moanda, Haut-Ogooué Province, Gabon",
        "road": null,
        "house_number": null,
        "neighbourhood": null,
        "suburb": null,
        "city_district": null,
        "city": "Moanda",
        "state": "Haut-Ogooué Province",
        "postcode": null,
        "country": "Gabon",
        "country_code": "ga"
      },
      "address": "951, Leima, Moanda, 81463 Haut-Ogooué Province, Gabon"
    },
    {
      "lat": -1.5670587402441487,
      "lon": 13.182180440589308,
      "geoinfo": {
        "display_name": "R24, Alliance, Moanda, Haut-Ogooué Province, Gabon",
        "road": "R24",
        "house_number": null,
        "neighbourhood": null,
        "suburb": null,
        "city_district": null,
        "city": "Moanda",
        "state": "Haut-Ogooué Province",
        "postcode": null,
        "country": "Gabon",
        "country_code": "ga"
      },
      "address": "R24, Alliance, Moanda, 52895 Haut-Ogooué Province, Gabon"
    },
    {
      "lat": -1.5463031706283201,
      "lon": 13.20183510188957,
      "geoinfo": {
        "display_name": "Alliance, Moanda, Haut-Ogooué Province, Gabon",
        "road": null,
        "house_number": null,
        "neighbourhood": null,
        "suburb": null,
        "city_district": null,
        "city": "Moanda",
        "state": "Haut-Ogooué Province",
        "postcode": null,
        "country": "Gabon",
        "country_code": "ga"
      },
      "address": "334, Alliance, Moanda, 38470 Haut-Ogooué Province, Gabon"
    },
    {
      "lat": -1.5588162978705866,
      "lon": 13.20485603455137,
      "geoinfo": {
        "display_name": "Alliance, Moanda, Haut-Ogooué Province, Gabon",
        "road": null,
        "house_number": null,
        "neighbourhood": null,
        "suburb": null,
        "city_district": null,
        "city": "Moanda",
        "state": "Haut-Ogooué Province",
        "postcode": null,
        "country": "Gabon",
        "country_code": "ga"
      },
      "address": "251, Alliance, Moanda, 95321 Haut-Ogooué Province, Gabon"
    },
    {
      "lat": -1.5548873812918418,
      "lon": 13.229855056676199,
      "geoinfo": {
        "display_name": "Cité des Cadres, Moanda, Haut-Ogooué Province, Gabon",
        "road": null,
        "house_number": null,
        "neighbourhood": null,
        "suburb": null,
        "city_district": null,
        "city": "Moanda",
        "state": "Haut-Ogooué Province",
        "postcode": null,
        "country": "Gabon",
        "country_code": "ga"
      },
      "address": "042, Cité des Cadres, Moanda, 91572 Haut-Ogooué Province, Gabon"
    }
  ],
  "updated_at": "2025-10-19T04:17:44.104408+00:00",
  "_kind": "geo_samples"
}