{
  "country_code": "GA",
  "country": "Gabon",
  "city": "Mouila",
  "geonameid": 2398073,
  "target_addresses": 8,
  "samples": [
    {
      "lat": -1.8385915963889117,
      "lon": 11.072316254436508,
      "geoinfo": {
        "display_name": "Mouila, Ngounié Province, Gabon",
        "road": null,
        "house_number": null,
        "neighbourhood": null,
        "suburb": null,
        "city_district": null,
        "city": "Mouila",
        "state": "Ngounié Province",
        "postcode": null,
        "country": "Gabon",
        "country_code": "ga"
      },
      "address": "Mouila, Ngounié Province, Gabon"
    },
    {
      "lat": -1.8457440025189034,
      "lon": 11.060720106973207,
      "geoinfo": {
        "display_name": "Aéroport de Mouilla Ville, Route Transgabonaise, Mouila, Ngounié Province, Gabon",
        "road": "Route Transgabonaise",
        "house_number": null,
        "neighbourhood": null,
        "suburb": null,
        "city_district": null,
        "city": "Mouila",
        "state": "Ngounié Province",
        "postcode": null,
        "country": "Gabon",
        "country_code": "ga"
      },
      "address": "Route Transgabonaise, Mouila, Ngounié Province, Gabon"
    },
    {
      "lat": -1.8583839638782664,
      "lon": 11.084886142818062,
      "geoinfo": {
        "display_name": "Mouila, Ngounié Province, Gabon",
        "road": null,
        "house_number": null,
        "neighbourhood": null,
        "suburb": null,
        "city_district": null,
        "city": "Mouila",
        "state": "Ngounié Province",
        "postcode": null,
        "country": "Gabon",
        "country_code": "ga"
      },
      "address": "417, Mouila, 18002 Ngounié Province, Gabon"
    },
    {
      "lat": -1.8524070628129405,
      "lon": 11.02694797932446,
      "geoinfo": {
        "display_name": "Mouila, Ngounié Province, Gabon",
        "road": null,
        "house_number": null,
        "neighbourhood": null,
        "suburb": null,
        "city_district": null,
        "city": "Mouila",
        "state": "Ngounié Province",
        "postcode": null,
        "country": "Gabon",
        "country_code": "ga"
      },
      "address": "236, Mouila, 97879 Ngounié Province, Gabon"
    },
    {
      "lat": -1.8953514812039665,
      "lon": 11.049964919560201,
      "geoinfo": {
        "display_name": "Mouila, Ngounié Province, Gabon",
        "road": null,
        "house_number": null,
        "neighbourhood": null,
        "suburb": null,
        "city_district": null,
        "city": "Mouila",
        "state": "Ngounié Province",
        "postcode": null,
        "country": "Gabon",
        "country_code": "ga"
      },
      "address": "219, Mouila, 10053 Ngounié Province, Gabon"
    },
    {
      "lat": -1.9000375210677207,
      "lon": 11.081352742656954,
      "geoinfo": {
        "display_name": "Malaba, Ngounié Province, Gabon",
        "road": null,
        "house_number": null,
        "neighbourhood": null,
        "suburb": null,
        "city_district": null,
        "city": "Malaba",
        "state": "Ngounié Province",
        "postcode": null,
        "country": "Gabon",
        "country_code": "ga"
      },
      "address": "609, Mouila, 28454 Ngounié Province, Gabon"
    },
    {
      "lat": -1.8521917997712265,
      "lon": 11.038662074653889,
      "geoinfo": {
        "display_name": "Mouila, Ngounié Province, Gabon",
        "road": null,
        "house_number": null,
        "neighbourhood": null,
        "suburb": null,
        "city_district": null,
        "city": "Mouila",
        "state": "Ngounié Province",
        "postcode": null,
        "country": "Gabon",
        "country_code": "ga"
      },
      "address": "938, Mouila, 13628 Ngounié Province, Gabon"
    },
    {
      "lat": -1.9070790159201882,
      "lon": 11.046125155863754,
      "geoinfo": {
        "display_name": "Mouila, Ngounié Province, Gabon",
        "road": null,
        "house_number": null,
        "neighbourhood": null,
        "suburb": null,
        "city_district": null,
        "city": "Mouila",
        "state": "Ngounié Province",
        "postcode": null,
        "country": "Gabon",
        "country_code": "ga"
      },
      "address": "690, Mouila, 54070 Ngounié Province, Gabon"
    },
    {
      "lat": -1.891551974273422,
      "lon": 11.06033843419371,
      "geoinfo": {
        "display_name": "Mouila, Ngounié Province, Gabon",
        "road": null,
        "house_number": null,
        "neighbourhood": null,
        "suburb": null,
        "city_district": null,
        "city": "Mouila",
        "state": "Ngounié Province",
        "postcode": null,
        "country": "Gabon",
        "country_code": "ga"
      },
      "address": "214, Mouila, 44578 Ngounié Province, Gabon"
    },
    {
      "lat": -1.863450816130019,
      "lon": 11.09906095396622,
      "geoinfo": {
        "display_name": "Mouila, Ngounié Province, Gabon",
        "road": null,
        "house_number": null,
        "neighbourhood": null,
        "suburb": null,
        "city_district": null,
        "city": "Mouila",
        "state": "Ngounié Province",
        "postcode": null,
        "country": "Gabon",
        "country_code": "ga"
      },
      "address": "351, Mouila, 49702 Ngounié Province, Gabon"
    }
  ],
  "updated_at": "2025-10-19T02:21:18.767539+00:00",
  "_kind": "geo_samples"
}