{
  "country_code": "HR",
  "country": "Croatia",
  "city": "Dubrovnik",
  "geonameid": 3201047,
  "target_addresses": 4,
  "samples": [
    {
      "lat": 42.613645614492675,
      "lon": 18.074037681012502,
      "geoinfo": {
        "display_name": "Montovjerna, Gradski kotar Montovjerna, Dubrovnik, Dubrovnik-Neretva County, 20106, Croatia",
        "road": null,
        "house_number": null,
        "neighbourhood": null,
        "suburb": "Montovjerna",
        "city_district": "Dubrovnik",
        "city": "Dubrovnik",
        "state": null,
        "postcode": "20106",
        "country": "Croatia",
        "country_code": "hr"
      },
      "address": "Montovjerna, Dubrovnik, Croatia"
    },
    {
      "lat": 42.60699016988544,
      "lon": 18.123435421403855,
      "geoinfo": {
        "display_name": "Ploče, Gradski kotar Ploče iza Grada, Dubrovnik, Dubrovnik-Neretva County, 20108, Croatia",
        "road": null,
        "house_number": null,
        "neighbourhood": null,
        "suburb": "Ploče",
        "city_district": "Dubrovnik",
        "city": "Dubrovnik",
        "state": null,
        "postcode": "20108",
        "country": "Croatia",
        "country_code": "hr"
      },
      "address": "Ploče, Dubrovnik, Croatia"
    },
    {
      "lat": 42.644796146570094,
      "lon": 18.066622949260605,
      "geoinfo": {
        "display_name": "FKK, Masarykov put, Lapad, Gradski kotar Lapad, Dubrovnik, Dubrovnik-Neretva County, 20109, Croatia",
        "road": "Masarykov put",
        "house_number": null,
        "neighbourhood": null,
        "suburb": "Lapad",
        "city_district": "Dubrovnik",
        "city": "Dubrovnik",
        "state": null,
        "postcode": "20109",
        "country": "Croatia",
        "country_code": "hr"
      },
      "address": "Masarykov put, Dubrovnik, Croatia"
    },
    {
      "lat": 42.65639971220479,
      "lon": 18.08147443877154,
      "geoinfo": {
        "display_name": "Ulica kneza Domagoja, Giman, Gradski kotar Lapad, Dubrovnik, Dubrovnik-Neretva County, 20103, Croatia",
        "road": "Ulica kneza Domagoja",
        "house_number": null,
        "neighbourhood": "Giman",
        "suburb": "Gradski kotar Lapad",
        "city_district": "Dubrovnik",
        "city": "Dubrovnik",
        "state": null,
        "postcode": "20103",
        "country": "Croatia",
        "country_code": "hr"
      },
      "address": "Ulica kneza Domagoja, Dubrovnik, Croatia"
    },
    {
      "lat": 42.678866256494565,
      "lon": 18.131227965103676,
      "geoinfo": {
        "display_name": "Rožat Gornji, Gradski kotar Komolac, Rožat, Dubrovnik, Dubrovnik-Neretva County, 20236, Croatia",
        "road": "Rožat Gornji",
        "house_number": null,
        "neighbourhood": null,
        "suburb": "Gradski kotar Komolac",
        "city_district": "Rožat",
        "city": "Dubrovnik",
        "state": null,
        "postcode": "20236",
        "country": "Croatia",
        "country_code": "hr"
      },
      "address": "746, Rožat Gornji, Gradski kotar Komolac, Rožat, Dubrovnik, Dubrovnik-Neretva County, 20236, Croatia"
    },
    {
      "lat": 42.61114812182637,
      "lon": 18.09822938301109,
      "geoinfo": {
        "display_name": "Pile, Gradski kotar Pile - Kono, Dubrovnik, Dubrovnik-Neretva County, 20108, Croatia",
        "road": null,
        "house_number": null,
        "neighbourhood": null,
        "suburb": "Pile",
        "city_district": "Dubrovnik",
        "city": "Dubrovnik",
        "state": null,
        "postcode": "20108",
        "country": "Croatia",
        "country_code": "hr"
      },
      "address": "312, Pile, Gradski kotar Pile - Kono, Dubrovnik, Dubrovnik-Neretva County, 20108, Croatia"
    },
    {
      "lat": 42.655682150270465,
      "lon": 18.070021346623253,
      "geoinfo": {
        "display_name": "Šetalište Nika i Meda Pucića, Uvala Lapad, Gradski kotar Lapad, Dubrovnik, Dubrovnik-Neretva County, 20103, Croatia",
        "road": "Šetalište Nika i Meda Pucića",
        "house_number": null,
        "neighbourhood": null,
        "suburb": "Gradski kotar Lapad",
        "city_district": "Dubrovnik",
        "city": "Dubrovnik",
        "state": null,
        "postcode": "20103",
        "country": "Croatia",
        "country_code": "hr"
      },
      "address": "248, Šetalište Nika i Meda Pucića, Uvala Lapad, Gradski kotar Lapad, Dubrovnik, Dubrovnik-Neretva County, 20103, Croatia"
    },
    {
      "lat": 42.64052055325373,
      "lon": 18.10270700007221,
      "geoinfo": {
        "display_name": "Don Frana Bulića, Pile, Gradski kotar Pile - Kono, Dubrovnik, Dubrovnik-Neretva County, 20108, Croatia",
        "road": "Don Frana Bulića",
        "house_number": null,
        "neighbourhood": null,
        "suburb": "Pile",
        "city_district": "Dubrovnik",
        "city": "Dubrovnik",
        "state": null,
        "postcode": "20108",
        "country": "Croatia",
        "country_code": "hr"
      },
      "address": "014, Don Frana Bulića, Pile, Gradski kotar Pile - Kono, Dubrovnik, Dubrovnik-Neretva County, 20108, Croatia"
    }
  ],
  "updated_at": "2025-10-19T05:53:34.502443+00:00",
  "_kind": "geo_samples"
}