{
  "country_code": "HR",
  "country": "Croatia",
  "city": "Koprivnica",
  "geonameid": 3197728,
  "target_addresses": 4,
  "samples": [
    {
      "lat": 46.153505670859445,
      "lon": 16.803782231234855,
      "geoinfo": {
        "display_name": "Križevačka cesta, Crna gora, Mjesni odbor Podolice, Koprivnica, Grad Koprivnica, Koprivnica-Križevci County, 48000, Croatia",
        "road": "Križevačka cesta",
        "house_number": null,
        "neighbourhood": null,
        "suburb": "Mjesni odbor Podolice",
        "city_district": "Koprivnica",
        "city": "Grad Koprivnica",
        "state": null,
        "postcode": "48000",
        "country": "Croatia",
        "country_code": "hr"
      },
      "address": "Križevačka cesta, Koprivnica, Croatia"
    },
    {
      "lat": 46.189390571414556,
      "lon": 16.837361220559863,
      "geoinfo": {
        "display_name": "Danica, Mjesni odbor Ledinska, Koprivnica, Grad Koprivnica, Koprivnica-Križevci County, 48314, Croatia",
        "road": "Danica",
        "house_number": null,
        "neighbourhood": null,
        "suburb": "Mjesni odbor Ledinska",
        "city_district": "Koprivnica",
        "city": "Grad Koprivnica",
        "state": null,
        "postcode": "48314",
        "country": "Croatia",
        "country_code": "hr"
      },
      "address": "Danica, Koprivnica, Croatia"
    },
    {
      "lat": 46.17731917526547,
      "lon": 16.791475531288178,
      "geoinfo": {
        "display_name": "11, Marijanska ulica, Močile, Mjesni odbor Vinica, Koprivnica, Grad Koprivnica, Koprivnica-Križevci County, 48000, Croatia",
        "road": "Marijanska ulica",
        "house_number": "11",
        "neighbourhood": null,
        "suburb": "Mjesni odbor Vinica",
        "city_district": "Koprivnica",
        "city": "Grad Koprivnica",
        "state": null,
        "postcode": "48000",
        "country": "Croatia",
        "country_code": "hr"
      },
      "address": "11 Marijanska ulica, Koprivnica, Croatia"
    },
    {
      "lat": 46.18674885778099,
      "lon": 16.849862245218056,
      "geoinfo": {
        "display_name": "Čarda, Mjesni odbor Ledinska, Koprivnica, Grad Koprivnica, Koprivnica-Križevci County, 48314, Croatia",
        "road": null,
        "house_number": null,
        "neighbourhood": null,
        "suburb": "Mjesni odbor Ledinska",
        "city_district": "Koprivnica",
        "city": "Grad Koprivnica",
        "state": null,
        "postcode": "48314",
        "country": "Croatia",
        "country_code": "hr"
      },
      "address": "Mjesni odbor Ledinska, Koprivnica, Croatia"
    },
    {
      "lat": 46.13221031131974,
      "lon": 16.799722751735334,
      "geoinfo": {
        "display_name": "Mlinarska, Starigrad, Grad Koprivnica, Koprivnica-Križevci County, 48305, Croatia",
        "road": "Mlinarska",
        "house_number": null,
        "neighbourhood": null,
        "suburb": null,
        "city_district": null,
        "city": "Grad Koprivnica",
        "state": null,
        "postcode": "48305",
        "country": "Croatia",
        "country_code": "hr"
      },
      "address": "146, Mlinarska, Starigrad, Grad Koprivnica, Koprivnica-Križevci County, 48305, Croatia"
    },
    {
      "lat": 46.152556976309064,
      "lon": 16.859507750081363,
      "geoinfo": {
        "display_name": "Miklinovec, Cerine, Mjesni odbor Miklinovec, Koprivnica, Grad Koprivnica, Koprivnica-Križevci County, 48000, Croatia",
        "road": "Miklinovec",
        "house_number": null,
        "neighbourhood": null,
        "suburb": "Mjesni odbor Miklinovec",
        "city_district": "Koprivnica",
        "city": "Grad Koprivnica",
        "state": null,
        "postcode": "48000",
        "country": "Croatia",
        "country_code": "hr"
      },
      "address": "370, Miklinovec, Cerine, Mjesni odbor Miklinovec, Koprivnica, Grad Koprivnica, Koprivnica-Križevci County, 48000, Croatia"
    },
    {
      "lat": 46.13191206519449,
      "lon": 16.845827614165433,
      "geoinfo": {
        "display_name": "Draganovec, Grad Koprivnica, Koprivnica-Križevci County, Croatia",
        "road": null,
        "house_number": null,
        "neighbourhood": null,
        "suburb": null,
        "city_district": "Draganovec",
        "city": "Grad Koprivnica",
        "state": null,
        "postcode": null,
        "country": "Croatia",
        "country_code": "hr"
      },
      "address": "033, Draganovec, Grad Koprivnica, 91830 Koprivnica-Križevci County, Croatia"
    },
    {
      "lat": 46.13572173578431,
      "lon": 16.873821125802834,
      "geoinfo": {
        "display_name": "Koprivnički Bregi, Općina Koprivnički Bregi, Koprivnica-Križevci County, Croatia",
        "road": null,
        "house_number": null,
        "neighbourhood": null,
        "suburb": null,
        "city_district": "Koprivnički Bregi",
        "city": "Općina Koprivnički Bregi",
        "state": null,
        "postcode": null,
        "country": "Croatia",
        "country_code": "hr"
      },
      "address": "677, Koprivnički Bregi, 96420 Koprivnica, Croatia"
    }
  ],
  "updated_at": "2025-10-19T04:17:42.080681+00:00",
  "_kind": "geo_samples"
}