{
  "country_code": "HR",
  "country": "Croatia",
  "city": "Osijek",
  "geonameid": 3193935,
  "target_addresses": 4,
  "samples": [
    {
      "lat": 45.570321611186536,
      "lon": 18.699175523304454,
      "geoinfo": {
        "display_name": "Tvrđavica, Mjesni odbor Osijek – lijeva obala, Tvrđavica, Grad Osijek, Osijek-Baranja County, 31112, Croatia",
        "road": "Tvrđavica",
        "house_number": null,
        "neighbourhood": null,
        "suburb": null,
        "city_district": null,
        "city": "Tvrđavica",
        "state": null,
        "postcode": "31112",
        "country": "Croatia",
        "country_code": "hr"
      },
      "address": "Tvrđavica, Osijek, Croatia"
    },
    {
      "lat": 45.54426782336055,
      "lon": 18.734301545590515,
      "geoinfo": {
        "display_name": "Ulica Martina Divalta, Bikara, Gradska četvrt Jug II, Osijek, Grad Osijek, Osijek-Baranja County, 31103, Croatia",
        "road": "Ulica Martina Divalta",
        "house_number": null,
        "neighbourhood": "Bikara",
        "suburb": "Gradska četvrt Jug II",
        "city_district": null,
        "city": "Osijek",
        "state": null,
        "postcode": "31103",
        "country": "Croatia",
        "country_code": "hr"
      },
      "address": "Ulica Martina Divalta, Osijek, Croatia"
    },
    {
      "lat": 45.54015792816199,
      "lon": 18.67458279419328,
      "geoinfo": {
        "display_name": "63, Vinkovačka cesta, Žuto naselje, Gradska četvrt Industrijska četvrt, Osijek, Grad Osijek, Osijek-Baranja County, 31000, Croatia",
        "road": "Vinkovačka cesta",
        "house_number": "63",
        "neighbourhood": "Žuto naselje",
        "suburb": "Gradska četvrt Industrijska četvrt",
        "city_district": null,
        "city": "Osijek",
        "state": null,
        "postcode": "31000",
        "country": "Croatia",
        "country_code": "hr"
      },
      "address": "63 Vinkovačka cesta, Osijek, Croatia"
    },
    {
      "lat": 45.526695108762034,
      "lon": 18.652570651675454,
      "geoinfo": {
        "display_name": "35, Zapadno predgrađe, Gradska četvrt Industrijska četvrt, Osijek, Grad Osijek, Osijek-Baranja County, 31000, Croatia",
        "road": "Zapadno predgrađe",
        "house_number": "35",
        "neighbourhood": null,
        "suburb": "Gradska četvrt Industrijska četvrt",
        "city_district": null,
        "city": "Osijek",
        "state": null,
        "postcode": "31000",
        "country": "Croatia",
        "country_code": "hr"
      },
      "address": "35 Zapadno predgrađe, Osijek, Croatia"
    },
    {
      "lat": 45.57106455431734,
      "lon": 18.67658394793807,
      "geoinfo": {
        "display_name": "Tvrđavica, Mjesni odbor Osijek – lijeva obala, Tvrđavica, Grad Osijek, Osijek-Baranja County, 31104, Croatia",
        "road": "Tvrđavica",
        "house_number": null,
        "neighbourhood": null,
        "suburb": null,
        "city_district": null,
        "city": "Tvrđavica",
        "state": null,
        "postcode": "31104",
        "country": "Croatia",
        "country_code": "hr"
      },
      "address": "061, Tvrđavica, Mjesni odbor Osijek – lijeva obala, Tvrđavica, Grad Osijek, Osijek-Baranja County, 31104, Croatia"
    },
    {
      "lat": 45.54941011677958,
      "lon": 18.70856400738041,
      "geoinfo": {
        "display_name": "2, Varaždinska ulica, Jug I, Gradska četvrt Novi grad, Osijek, Grad Osijek, Osijek-Baranja County, 31000, Croatia",
        "road": "Varaždinska ulica",
        "house_number": "2",
        "neighbourhood": "Jug I",
        "suburb": "Gradska četvrt Novi grad",
        "city_district": null,
        "city": "Osijek",
        "state": null,
        "postcode": "31000",
        "country": "Croatia",
        "country_code": "hr"
      },
      "address": "2, Varaždinska ulica, Jug I, Gradska četvrt Novi grad, Osijek, Grad Osijek, Osijek-Baranja County, 31000, Croatia"
    },
    {
      "lat": 45.572015221849824,
      "lon": 18.719442454962223,
      "geoinfo": {
        "display_name": "Kompostana Osijek, 82, Biljska cesta, Mjesni odbor Osijek – lijeva obala, Podravlje, Grad Osijek, Osijek-Baranja County, 31000, Croatia",
        "road": "Biljska cesta",
        "house_number": "82",
        "neighbourhood": null,
        "suburb": null,
        "city_district": null,
        "city": "Podravlje",
        "state": null,
        "postcode": "31000",
        "country": "Croatia",
        "country_code": "hr"
      },
      "address": "Kompostana Osijek, 82, Biljska cesta, Mjesni odbor Osijek – lijeva obala, Podravlje, Grad Osijek, Osijek-Baranja County, 31000, Croatia"
    },
    {
      "lat": 45.53194169094515,
      "lon": 18.6557596096846,
      "geoinfo": {
        "display_name": "28, Zapadno predgrađe, Gradska četvrt Industrijska četvrt, Osijek, Grad Osijek, Osijek-Baranja County, 31000, Croatia",
        "road": "Zapadno predgrađe",
        "house_number": "28",
        "neighbourhood": null,
        "suburb": "Gradska četvrt Industrijska četvrt",
        "city_district": null,
        "city": "Osijek",
        "state": null,
        "postcode": "31000",
        "country": "Croatia",
        "country_code": "hr"
      },
      "address": "28, Zapadno predgrađe, Gradska četvrt Industrijska četvrt, Osijek, Grad Osijek, Osijek-Baranja County, 31000, Croatia"
    }
  ],
  "updated_at": "2025-10-19T04:42:31.303858+00:00",
  "_kind": "geo_samples"
}