{
  "country_code": "HR",
  "country": "Croatia",
  "city": "Samobor",
  "geonameid": 3191316,
  "target_addresses": 4,
  "samples": [
    {
      "lat": 45.83355255740811,
      "lon": 15.729169483990635,
      "geoinfo": {
        "display_name": "Osišće, Samoborski Otok, Grad Samobor, Zagreb County, 10433, Croatia",
        "road": "Osišće",
        "house_number": null,
        "neighbourhood": null,
        "suburb": null,
        "city_district": null,
        "city": "Grad Samobor",
        "state": null,
        "postcode": "10433",
        "country": "Croatia",
        "country_code": "hr"
      },
      "address": "Osišće, Samobor, Croatia"
    },
    {
      "lat": 45.839312826423715,
      "lon": 15.722103241039704,
      "geoinfo": {
        "display_name": "31207, Melinišće, Samoborski Otok, Grad Samobor, Zagreb County, 10430, Croatia",
        "road": "31207",
        "house_number": null,
        "neighbourhood": null,
        "suburb": null,
        "city_district": null,
        "city": "Grad Samobor",
        "state": null,
        "postcode": "10430",
        "country": "Croatia",
        "country_code": "hr"
      },
      "address": "31207, Samobor, Croatia"
    },
    {
      "lat": 45.80206257489356,
      "lon": 15.726620911460849,
      "geoinfo": {
        "display_name": "9, Ulica Grgura Ninskog, Podložnice, Samobor, Grad Samobor, Zagreb County, 10430, Croatia",
        "road": "Ulica Grgura Ninskog",
        "house_number": "9",
        "neighbourhood": null,
        "suburb": null,
        "city_district": "Samobor",
        "city": "Grad Samobor",
        "state": null,
        "postcode": "10430",
        "country": "Croatia",
        "country_code": "hr"
      },
      "address": "9 Ulica Grgura Ninskog, Samobor, Croatia"
    },
    {
      "lat": 45.781278100132894,
      "lon": 15.71221583748304,
      "geoinfo": {
        "display_name": "Za gaj, Zagaj, Mala Rakovica, Grad Samobor, Zagreb County, 10430, Croatia",
        "road": "Za gaj",
        "house_number": null,
        "neighbourhood": null,
        "suburb": null,
        "city_district": null,
        "city": "Grad Samobor",
        "state": null,
        "postcode": "10430",
        "country": "Croatia",
        "country_code": "hr"
      },
      "address": "Za gaj, Samobor, Croatia"
    },
    {
      "lat": 45.83761381021523,
      "lon": 15.710610257926072,
      "geoinfo": {
        "display_name": "A3, Samoborski Otok, Grad Samobor, Zagreb County, 10430, Croatia",
        "road": "A3",
        "house_number": null,
        "neighbourhood": null,
        "suburb": null,
        "city_district": null,
        "city": "Grad Samobor",
        "state": null,
        "postcode": "10430",
        "country": "Croatia",
        "country_code": "hr"
      },
      "address": "A3, Samoborski Otok, Grad Samobor, Zagreb County, 10430, Croatia"
    },
    {
      "lat": 45.7986782356345,
      "lon": 15.706073970186045,
      "geoinfo": {
        "display_name": "Vugrinščak, Giznik - Anindol, Samobor, Grad Samobor, Zagreb County, 10430, Croatia",
        "road": "Vugrinščak",
        "house_number": null,
        "neighbourhood": null,
        "suburb": null,
        "city_district": "Samobor",
        "city": "Grad Samobor",
        "state": null,
        "postcode": "10430",
        "country": "Croatia",
        "country_code": "hr"
      },
      "address": "845, Vugrinščak, Giznik - Anindol, Samobor, Grad Samobor, Zagreb County, 10430, Croatia"
    },
    {
      "lat": 45.772160772087915,
      "lon": 15.758463598575116,
      "geoinfo": {
        "display_name": "Školska, Požgaji, Molvice, Grad Samobor, Zagreb County, 10435, Croatia",
        "road": "Školska",
        "house_number": null,
        "neighbourhood": null,
        "suburb": null,
        "city_district": "Molvice",
        "city": "Grad Samobor",
        "state": null,
        "postcode": "10435",
        "country": "Croatia",
        "country_code": "hr"
      },
      "address": "883, Školska, Požgaji, Molvice, Grad Samobor, Zagreb County, 10435, Croatia"
    },
    {
      "lat": 45.80200317843898,
      "lon": 15.730569340506829,
      "geoinfo": {
        "display_name": "26;26A, Ćirilometodska ulica, Podložnice, Samobor, Grad Samobor, Zagreb County, 10430, Croatia",
        "road": "Ćirilometodska ulica",
        "house_number": "26;26A",
        "neighbourhood": null,
        "suburb": null,
        "city_district": "Samobor",
        "city": "Grad Samobor",
        "state": null,
        "postcode": "10430",
        "country": "Croatia",
        "country_code": "hr"
      },
      "address": "26;26A, Ćirilometodska ulica, Podložnice, Samobor, Grad Samobor, Zagreb County, 10430, Croatia"
    }
  ],
  "updated_at": "2025-10-19T04:38:20.213006+00:00",
  "_kind": "geo_samples"
}