{
  "country_code": "HR",
  "country": "Croatia",
  "city": "Sisak",
  "geonameid": 3190813,
  "target_addresses": 4,
  "samples": [
    {
      "lat": 45.45206784181968,
      "lon": 16.346098895242516,
      "geoinfo": {
        "display_name": "Nova Drenčina, Town of Petrinja, Sisak-Moslavina County, Croatia",
        "road": null,
        "house_number": null,
        "neighbourhood": null,
        "suburb": null,
        "city_district": null,
        "city": "Town of Petrinja",
        "state": null,
        "postcode": null,
        "country": "Croatia",
        "country_code": "hr"
      },
      "address": "Sisak, Croatia"
    },
    {
      "lat": 45.4275633751636,
      "lon": 16.35516090154258,
      "geoinfo": {
        "display_name": "89, Ulica Kralja Tomislava, Mošćeničje, Mošćenica, Town of Petrinja, Sisak-Moslavina County, 44103, Croatia",
        "road": "Ulica Kralja Tomislava",
        "house_number": "89",
        "neighbourhood": null,
        "suburb": null,
        "city_district": null,
        "city": "Town of Petrinja",
        "state": null,
        "postcode": "44103",
        "country": "Croatia",
        "country_code": "hr"
      },
      "address": "89 Ulica Kralja Tomislava, Sisak, Croatia"
    },
    {
      "lat": 45.44045526062529,
      "lon": 16.342410708699315,
      "geoinfo": {
        "display_name": "18, Ulica Ante Starčevića, Mošćenički Lug, Mošćenica, Town of Petrinja, Sisak-Moslavina County, 44103, Croatia",
        "road": "Ulica Ante Starčevića",
        "house_number": "18",
        "neighbourhood": null,
        "suburb": null,
        "city_district": null,
        "city": "Town of Petrinja",
        "state": null,
        "postcode": "44103",
        "country": "Croatia",
        "country_code": "hr"
      },
      "address": "18 Ulica Ante Starčevića, Sisak, Croatia"
    },
    {
      "lat": 45.47593069709699,
      "lon": 16.383340753881747,
      "geoinfo": {
        "display_name": "55, Obala Tome Bakača Erdödyja, Stari grad, Vrbina, Gradska četvrt Centar, Sisak, Grad Sisak, Sisak-Moslavina County, 44104, Croatia",
        "road": "Obala Tome Bakača Erdödyja",
        "house_number": "55",
        "neighbourhood": "Stari grad",
        "suburb": "Gradska četvrt Centar",
        "city_district": "Sisak",
        "city": "Grad Sisak",
        "state": null,
        "postcode": "44104",
        "country": "Croatia",
        "country_code": "hr"
      },
      "address": "55 Obala Tome Bakača Erdödyja, Sisak, Croatia"
    },
    {
      "lat": 45.488836189034664,
      "lon": 16.421077497592254,
      "geoinfo": {
        "display_name": "Hrastelnica, Grad Sisak, Sisak-Moslavina County, 44104, Croatia",
        "road": null,
        "house_number": null,
        "neighbourhood": null,
        "suburb": null,
        "city_district": null,
        "city": "Grad Sisak",
        "state": null,
        "postcode": "44104",
        "country": "Croatia",
        "country_code": "hr"
      },
      "address": "049, Hrastelnica, Grad Sisak, Sisak-Moslavina County, 44104, Croatia"
    },
    {
      "lat": 45.506972297176056,
      "lon": 16.380856141637043,
      "geoinfo": {
        "display_name": "168, Ulica Marijana Celjaka, Braće Čulig, Gradska četvrt Zeleni brijeg, Sisak, Grad Sisak, Sisak-Moslavina County, 44000, Croatia",
        "road": "Ulica Marijana Celjaka",
        "house_number": "168",
        "neighbourhood": "Braće Čulig",
        "suburb": "Gradska četvrt Zeleni brijeg",
        "city_district": "Sisak",
        "city": "Grad Sisak",
        "state": null,
        "postcode": "44000",
        "country": "Croatia",
        "country_code": "hr"
      },
      "address": "168, Ulica Marijana Celjaka, Braće Čulig, Gradska četvrt Zeleni brijeg, Sisak, Grad Sisak, Sisak-Moslavina County, 44000, Croatia"
    },
    {
      "lat": 45.43465483116025,
      "lon": 16.413328565480874,
      "geoinfo": {
        "display_name": "47B, Capraške Poljane, Crnac, Grad Sisak, Sisak-Moslavina County, 44202, Croatia",
        "road": "Capraške Poljane",
        "house_number": "47B",
        "neighbourhood": null,
        "suburb": null,
        "city_district": "Crnac",
        "city": "Grad Sisak",
        "state": null,
        "postcode": "44202",
        "country": "Croatia",
        "country_code": "hr"
      },
      "address": "47B, Capraške Poljane, Crnac, Grad Sisak, Sisak-Moslavina County, 44202, Croatia"
    },
    {
      "lat": 45.47097829445573,
      "lon": 16.37153774089307,
      "geoinfo": {
        "display_name": "3, Aleja narodnih heroja, Brzaj, Gradska četvrt Sisak Novi, Sisak, Grad Sisak, Sisak-Moslavina County, 44103, Croatia",
        "road": "Aleja narodnih heroja",
        "house_number": "3",
        "neighbourhood": null,
        "suburb": "Gradska četvrt Sisak Novi",
        "city_district": "Sisak",
        "city": "Grad Sisak",
        "state": null,
        "postcode": "44103",
        "country": "Croatia",
        "country_code": "hr"
      },
      "address": "3, Aleja narodnih heroja, Brzaj, Gradska četvrt Sisak Novi, Sisak, Grad Sisak, Sisak-Moslavina County, 44103, Croatia"
    }
  ],
  "updated_at": "2025-10-19T02:36:21.490809+00:00",
  "_kind": "geo_samples"
}