{
  "country_code": "HR",
  "country": "Croatia",
  "city": "Solin",
  "geonameid": 3190359,
  "target_addresses": 4,
  "samples": [
    {
      "lat": 43.542310968920795,
      "lon": 16.49694000696592,
      "geoinfo": {
        "display_name": "Klis, Općina Klis, Split-Dalmatia County, 21210, Croatia",
        "road": null,
        "house_number": null,
        "neighbourhood": null,
        "suburb": null,
        "city_district": "Klis",
        "city": "Općina Klis",
        "state": null,
        "postcode": "21210",
        "country": "Croatia",
        "country_code": "hr"
      },
      "address": "Klis, Solin, Croatia"
    },
    {
      "lat": 43.57899095227064,
      "lon": 16.467579561642545,
      "geoinfo": {
        "display_name": "67061, Čerine, Blaca, Grad Solin, Split-Dalmatia County, 21212, Croatia",
        "road": "67061",
        "house_number": null,
        "neighbourhood": null,
        "suburb": null,
        "city_district": null,
        "city": "Grad Solin",
        "state": null,
        "postcode": "21212",
        "country": "Croatia",
        "country_code": "hr"
      },
      "address": "67061, Solin, Croatia"
    },
    {
      "lat": 43.53669296042883,
      "lon": 16.54642449484741,
      "geoinfo": {
        "display_name": "Žvoraj, Žrnovnica, Grad Split, Split-Dalmatia County, 21209, Croatia",
        "road": null,
        "house_number": null,
        "neighbourhood": null,
        "suburb": null,
        "city_district": null,
        "city": "Žrnovnica",
        "state": null,
        "postcode": "21209",
        "country": "Croatia",
        "country_code": "hr"
      },
      "address": "Solin, Croatia"
    },
    {
      "lat": 43.56530313655693,
      "lon": 16.53257554746077,
      "geoinfo": {
        "display_name": "D1, Klis-Grlo, Galići, Klis, Općina Klis, Split-Dalmatia County, 21231, Croatia",
        "road": "D1",
        "house_number": null,
        "neighbourhood": null,
        "suburb": null,
        "city_district": "Klis",
        "city": "Općina Klis",
        "state": null,
        "postcode": "21231",
        "country": "Croatia",
        "country_code": "hr"
      },
      "address": "D1, Solin, Croatia"
    },
    {
      "lat": 43.57990509526663,
      "lon": 16.47440831388653,
      "geoinfo": {
        "display_name": "Blaca, Grad Solin, Split-Dalmatia County, 21210, Croatia",
        "road": null,
        "house_number": null,
        "neighbourhood": null,
        "suburb": null,
        "city_district": null,
        "city": "Grad Solin",
        "state": null,
        "postcode": "21210",
        "country": "Croatia",
        "country_code": "hr"
      },
      "address": "245, Blaca, Grad Solin, Split-Dalmatia County, 21210, Croatia"
    },
    {
      "lat": 43.55930060906817,
      "lon": 16.511683343637582,
      "geoinfo": {
        "display_name": "Sinjska rera, Didovići, Klis, Općina Klis, Split-Dalmatia County, 21231, Croatia",
        "road": "Sinjska rera",
        "house_number": null,
        "neighbourhood": null,
        "suburb": null,
        "city_district": "Klis",
        "city": "Općina Klis",
        "state": null,
        "postcode": "21231",
        "country": "Croatia",
        "country_code": "hr"
      },
      "address": "788, Sinjska rera, 21231 Solin, Croatia"
    },
    {
      "lat": 43.49991869799179,
      "lon": 16.496804013758535,
      "geoinfo": {
        "display_name": "Put Duilova, Duilovo, Gradski kotar Žnjan, Split, Grad Split, Split-Dalmatia County, 21113, Croatia",
        "road": "Put Duilova",
        "house_number": null,
        "neighbourhood": "Duilovo",
        "suburb": null,
        "city_district": null,
        "city": "Split",
        "state": null,
        "postcode": "21113",
        "country": "Croatia",
        "country_code": "hr"
      },
      "address": "610, Put Duilova, Duilovo, Gradski kotar Žnjan, Split, Grad Split, Split-Dalmatia County, 21113, Croatia"
    },
    {
      "lat": 43.53015560143223,
      "lon": 16.46306894977969,
      "geoinfo": {
        "display_name": "Obala pomoraca, Vranjic, Grad Solin, Split-Dalmatia County, 21110, Croatia",
        "road": "Obala pomoraca",
        "house_number": null,
        "neighbourhood": null,
        "suburb": null,
        "city_district": "Vranjic",
        "city": "Grad Solin",
        "state": null,
        "postcode": "21110",
        "country": "Croatia",
        "country_code": "hr"
      },
      "address": "441, Obala pomoraca, Vranjic, Grad Solin, Split-Dalmatia County, 21110, Croatia"
    }
  ],
  "updated_at": "2025-10-19T04:40:35.573101+00:00",
  "_kind": "geo_samples"
}