{
  "country_code": "HR",
  "country": "Croatia",
  "city": "Vukovar",
  "geonameid": 3187047,
  "target_addresses": 4,
  "samples": [
    {
      "lat": 45.313425050900264,
      "lon": 18.980134798424984,
      "geoinfo": {
        "display_name": "4150, Mjesni odbor Sajmište, Vukovar, Općina Bogdanovci, Vukovar-Srijem County, 32229, Croatia",
        "road": "4150",
        "house_number": null,
        "neighbourhood": null,
        "suburb": "Mjesni odbor Sajmište",
        "city_district": "Vukovar",
        "city": "Vukovar",
        "state": null,
        "postcode": "32229",
        "country": "Croatia",
        "country_code": "hr"
      },
      "address": "4150, Vukovar, Croatia"
    },
    {
      "lat": 45.334735766741034,
      "lon": 18.963766304425498,
      "geoinfo": {
        "display_name": "Erovac, Mjesni odbor Sajmište, Vukovar, Vukovar-Srijem County, 32000, Croatia",
        "road": null,
        "house_number": null,
        "neighbourhood": null,
        "suburb": "Mjesni odbor Sajmište",
        "city_district": "Vukovar",
        "city": "Vukovar",
        "state": null,
        "postcode": "32000",
        "country": "Croatia",
        "country_code": "hr"
      },
      "address": "800, Erovac, Mjesni odbor Sajmište, Vukovar, Vukovar-Srijem County, 32000, Croatia"
    },
    {
      "lat": 45.37680652510588,
      "lon": 18.949856339612932,
      "geoinfo": {
        "display_name": "Padobranska ulica, Trpinjska cesta, Mjesni odbor Trpinjska cesta, Vukovar, Vukovar-Srijem County, 32000, Croatia",
        "road": "Padobranska ulica",
        "house_number": null,
        "neighbourhood": null,
        "suburb": "Trpinjska cesta",
        "city_district": "Vukovar",
        "city": "Vukovar",
        "state": null,
        "postcode": "32000",
        "country": "Croatia",
        "country_code": "hr"
      },
      "address": "548, Padobranska ulica, Trpinjska cesta, Mjesni odbor Trpinjska cesta, Vukovar, Vukovar-Srijem County, 32000, Croatia"
    },
    {
      "lat": 45.33946154567377,
      "lon": 19.05826831060163,
      "geoinfo": {
        "display_name": "Vučedol, Mjesni odbor Mitnica, Vukovar, Vukovar-Srijem County, 32011, Croatia",
        "road": null,
        "house_number": null,
        "neighbourhood": null,
        "suburb": "Mjesni odbor Mitnica",
        "city_district": "Vukovar",
        "city": "Vukovar",
        "state": null,
        "postcode": "32011",
        "country": "Croatia",
        "country_code": "hr"
      },
      "address": "451, Vučedol, Mjesni odbor Mitnica, Vukovar, Vukovar-Srijem County, 32011, Croatia"
    },
    {
      "lat": 45.33082099280495,
      "lon": 19.048542889189747,
      "geoinfo": {
        "display_name": "Trojstvo, Vučedol, Mjesni odbor Mitnica, Vukovar, Vukovar-Srijem County, 32011, Croatia",
        "road": "Trojstvo",
        "house_number": null,
        "neighbourhood": null,
        "suburb": "Mjesni odbor Mitnica",
        "city_district": "Vukovar",
        "city": "Vukovar",
        "state": null,
        "postcode": "32011",
        "country": "Croatia",
        "country_code": "hr"
      },
      "address": "422, Trojstvo, Vučedol, Mjesni odbor Mitnica, Vukovar, Vukovar-Srijem County, 32011, Croatia"
    }
  ],
  "updated_at": "2025-10-19T05:53:06.563798+00:00",
  "_kind": "geo_samples"
}