{
  "country_code": "HR",
  "country": "Croatia",
  "city": "Čakovec",
  "geonameid": 3202888,
  "target_addresses": 4,
  "samples": [
    {
      "lat": 46.426671285403195,
      "lon": 16.444890021201324,
      "geoinfo": {
        "display_name": "162a, Balogovec, Mačkovec, Grad Čakovec, Međimurje County, 40000, Croatia",
        "road": "Balogovec",
        "house_number": "162a",
        "neighbourhood": null,
        "suburb": null,
        "city_district": null,
        "city": "Grad Čakovec",
        "state": null,
        "postcode": "40000",
        "country": "Croatia",
        "country_code": "hr"
      },
      "address": "162a Balogovec, Čakovec, Croatia"
    },
    {
      "lat": 46.39513831626053,
      "lon": 16.447535741517065,
      "geoinfo": {
        "display_name": "27, Ulica Antuna Gustava Matoša, Dolnje Trate, Špice, Čakovec, Grad Čakovec, Međimurje County, 40000, Croatia",
        "road": "Ulica Antuna Gustava Matoša",
        "house_number": "27",
        "neighbourhood": "Dolnje Trate",
        "suburb": "Špice",
        "city_district": "Čakovec",
        "city": "Grad Čakovec",
        "state": null,
        "postcode": "40000",
        "country": "Croatia",
        "country_code": "hr"
      },
      "address": "27 Ulica Antuna Gustava Matoša, Čakovec, Croatia"
    },
    {
      "lat": 46.40452925559265,
      "lon": 16.477672678390288,
      "geoinfo": {
        "display_name": "Ulica Matije Gupca, Pribislavec, Općina Pribislavec, Međimurje County, 40000, Croatia",
        "road": "Ulica Matije Gupca",
        "house_number": null,
        "neighbourhood": null,
        "suburb": null,
        "city_district": "Pribislavec",
        "city": "Općina Pribislavec",
        "state": null,
        "postcode": "40000",
        "country": "Croatia",
        "country_code": "hr"
      },
      "address": "Ulica Matije Gupca, Čakovec, Croatia"
    },
    {
      "lat": 46.390823048516644,
      "lon": 16.387173046783115,
      "geoinfo": {
        "display_name": "Dunjkovec, Općina Nedelišće, Međimurje County, Croatia",
        "road": null,
        "house_number": null,
        "neighbourhood": null,
        "suburb": null,
        "city_district": null,
        "city": "Dunjkovec",
        "state": null,
        "postcode": null,
        "country": "Croatia",
        "country_code": "hr"
      },
      "address": "Čakovec, Croatia"
    },
    {
      "lat": 46.427503495450146,
      "lon": 16.445132647402843,
      "geoinfo": {
        "display_name": "162a, Balogovec, Mačkovec, Grad Čakovec, Međimurje County, 40000, Croatia",
        "road": "Balogovec",
        "house_number": "162a",
        "neighbourhood": null,
        "suburb": null,
        "city_district": null,
        "city": "Grad Čakovec",
        "state": null,
        "postcode": "40000",
        "country": "Croatia",
        "country_code": "hr"
      },
      "address": "162a, Balogovec, Mačkovec, Grad Čakovec, Međimurje County, 40000, Croatia"
    },
    {
      "lat": 46.3706094966598,
      "lon": 16.48220439527999,
      "geoinfo": {
        "display_name": "Ulica Vladimira Nazora, Ivanovec, Grad Čakovec, Međimurje County, 40101, Croatia",
        "road": "Ulica Vladimira Nazora",
        "house_number": null,
        "neighbourhood": null,
        "suburb": null,
        "city_district": null,
        "city": "Grad Čakovec",
        "state": null,
        "postcode": "40101",
        "country": "Croatia",
        "country_code": "hr"
      },
      "address": "502, Ulica Vladimira Nazora, Ivanovec, Grad Čakovec, Međimurje County, 40101, Croatia"
    },
    {
      "lat": 46.3939876586336,
      "lon": 16.475294259920897,
      "geoinfo": {
        "display_name": "Ulica braće Radića, Pribislavec, Općina Pribislavec, Međimurje County, 40101, Croatia",
        "road": "Ulica braće Radića",
        "house_number": null,
        "neighbourhood": null,
        "suburb": null,
        "city_district": "Pribislavec",
        "city": "Općina Pribislavec",
        "state": null,
        "postcode": "40101",
        "country": "Croatia",
        "country_code": "hr"
      },
      "address": "123, Ulica braće Radića, 40101 Čakovec, Croatia"
    },
    {
      "lat": 46.33980612759402,
      "lon": 16.436728758296443,
      "geoinfo": {
        "display_name": "Ulica dr. Vladimira Bakarića, Totovec, Grad Čakovec, Međimurje County, 40101, Croatia",
        "road": "Ulica dr. Vladimira Bakarića",
        "house_number": null,
        "neighbourhood": null,
        "suburb": null,
        "city_district": null,
        "city": "Grad Čakovec",
        "state": null,
        "postcode": "40101",
        "country": "Croatia",
        "country_code": "hr"
      },
      "address": "141, Ulica dr. Vladimira Bakarića, Totovec, Grad Čakovec, Međimurje County, 40101, Croatia"
    }
  ],
  "updated_at": "2025-10-19T04:17:59.653402+00:00",
  "_kind": "geo_samples"
}