{
  "country_code": "NC",
  "country": "New Caledonia",
  "city": "Dumbéa",
  "geonameid": 2141394,
  "target_addresses": 34,
  "samples": [
    {
      "lat": -22.17911964271438,
      "lon": 166.43049901347433,
      "geoinfo": {
        "display_name": "V.E.2, Pointe à la Dorade, Dumbéa, South Province, New Caledonia, 99835, France",
        "road": "V.E.2",
        "house_number": null,
        "neighbourhood": null,
        "suburb": "Pointe à la Dorade",
        "city_district": null,
        "city": "Dumbéa",
        "state": null,
        "postcode": "99835",
        "country": "France",
        "country_code": "fr"
      },
      "address": "V.E.2, Dumbéa, New Caledonia"
    },
    {
      "lat": -22.12092610563924,
      "lon": 166.4767256209222,
      "geoinfo": {
        "display_name": "Sentier rocher, Dumbéa, South Province, New Caledonia, 99835, France",
        "road": "Sentier rocher",
        "house_number": null,
        "neighbourhood": null,
        "suburb": null,
        "city_district": null,
        "city": "Dumbéa",
        "state": null,
        "postcode": "99835",
        "country": "France",
        "country_code": "fr"
      },
      "address": "Sentier rocher, Dumbéa, New Caledonia"
    },
    {
      "lat": -22.166694807378654,
      "lon": 166.41000730621838,
      "geoinfo": {
        "display_name": "Chemin de Gadji, Pointe à la Luzerne, Dumbéa, South Province, New Caledonia, 98889, France",
        "road": "Chemin de Gadji",
        "house_number": null,
        "neighbourhood": null,
        "suburb": "Pointe à la Luzerne",
        "city_district": null,
        "city": "Dumbéa",
        "state": null,
        "postcode": "98889",
        "country": "France",
        "country_code": "fr"
      },
      "address": "Chemin de Gadji, Dumbéa, New Caledonia"
    },
    {
      "lat": -22.137382865886195,
      "lon": 166.47089783448058,
      "geoinfo": {
        "display_name": "La Maison des Sens, Route Daver, Koé, Dumbéa, South Province, New Caledonia, 99835, France",
        "road": "Route Daver",
        "house_number": null,
        "neighbourhood": null,
        "suburb": "Koé",
        "city_district": null,
        "city": "Dumbéa",
        "state": null,
        "postcode": "99835",
        "country": "France",
        "country_code": "fr"
      },
      "address": "Route Daver, Dumbéa, New Caledonia"
    },
    {
      "lat": -22.181350759634903,
      "lon": 166.46307609657075,
      "geoinfo": {
        "display_name": "La Pépinière, Dumbéa, South Province, New Caledonia, 99835, France",
        "road": null,
        "house_number": null,
        "neighbourhood": null,
        "suburb": "La Pépinière",
        "city_district": null,
        "city": "Dumbéa",
        "state": null,
        "postcode": "99835",
        "country": "France",
        "country_code": "fr"
      },
      "address": "La Pépinière, Dumbéa, New Caledonia"
    },
    {
      "lat": -22.19721051809823,
      "lon": 166.44731696016228,
      "geoinfo": {
        "display_name": "Accès École Provisoire, Les Hauts d'Apogoti, Dumbéa, South Province, New Caledonia, 98835, France",
        "road": "Accès École Provisoire",
        "house_number": null,
        "neighbourhood": null,
        "suburb": "Les Hauts d'Apogoti",
        "city_district": null,
        "city": "Dumbéa",
        "state": null,
        "postcode": "98835",
        "country": "France",
        "country_code": "fr"
      },
      "address": "Accès École Provisoire, Dumbéa, New Caledonia"
    },
    {
      "lat": -22.153348145793522,
      "lon": 166.48501968140303,
      "geoinfo": {
        "display_name": "38, Voie privée des Hauts de Koé, Les Hauts de Koé, Dumbéa, South Province, New Caledonia, 98835, France",
        "road": "Voie privée des Hauts de Koé",
        "house_number": "38",
        "neighbourhood": null,
        "suburb": "Les Hauts de Koé",
        "city_district": null,
        "city": "Dumbéa",
        "state": null,
        "postcode": "98835",
        "country": "France",
        "country_code": "fr"
      },
      "address": "38 Voie privée des Hauts de Koé, Dumbéa, New Caledonia"
    },
    {
      "lat": -22.158026003071523,
      "lon": 166.4845827547211,
      "geoinfo": {
        "display_name": "Voie Privée de Cherubini, Koé, Dumbéa, South Province, New Caledonia, 99835, France",
        "road": "Voie Privée de Cherubini",
        "house_number": null,
        "neighbourhood": null,
        "suburb": "Koé",
        "city_district": null,
        "city": "Dumbéa",
        "state": null,
        "postcode": "99835",
        "country": "France",
        "country_code": "fr"
      },
      "address": "Voie Privée de Cherubini, Dumbéa, New Caledonia"
    },
    {
      "lat": -22.17859350552772,
      "lon": 166.46636655018824,
      "geoinfo": {
        "display_name": "Route Territoriale 1, L'Hermitage, Dumbéa, South Province, New Caledonia, 98835, France",
        "road": "Route Territoriale 1",
        "house_number": null,
        "neighbourhood": null,
        "suburb": "L'Hermitage",
        "city_district": null,
        "city": "Dumbéa",
        "state": null,
        "postcode": "98835",
        "country": "France",
        "country_code": "fr"
      },
      "address": "Route Territoriale 1, Dumbéa, New Caledonia"
    },
    {
      "lat": -22.136224551347656,
      "lon": 166.4300912121532,
      "geoinfo": {
        "display_name": "Rue Jolimont Kabar, Katiramona, Dumbéa, South Province, New Caledonia, 99835, France",
        "road": "Rue Jolimont Kabar",
        "house_number": null,
        "neighbourhood": null,
        "suburb": "Katiramona",
        "city_district": null,
        "city": "Dumbéa",
        "state": null,
        "postcode": "99835",
        "country": "France",
        "country_code": "fr"
      },
      "address": "Rue Jolimont Kabar, Dumbéa, New Caledonia"
    },
    {
      "lat": -22.145388944579572,
      "lon": 166.4574506142784,
      "geoinfo": {
        "display_name": "Garden golf de Dumbéa, Route de la Nondoué, Dumbéa, South Province, New Caledonia, 99835, France",
        "road": "Route de la Nondoué",
        "house_number": null,
        "neighbourhood": null,
        "suburb": null,
        "city_district": null,
        "city": "Dumbéa",
        "state": null,
        "postcode": "99835",
        "country": "France",
        "country_code": "fr"
      },
      "address": "Route de la Nondoué, Dumbéa, New Caledonia"
    },
    {
      "lat": -22.13883162797257,
      "lon": 166.4495826820493,
      "geoinfo": {
        "display_name": "Nondoué, Dumbéa, South Province, New Caledonia, 99835, France",
        "road": null,
        "house_number": null,
        "neighbourhood": null,
        "suburb": "Nondoué",
        "city_district": null,
        "city": "Dumbéa",
        "state": null,
        "postcode": "99835",
        "country": "France",
        "country_code": "fr"
      },
      "address": "Nondoué, Dumbéa, New Caledonia"
    },
    {
      "lat": -22.134332997137783,
      "lon": 166.43309560460696,
      "geoinfo": {
        "display_name": "Rue de L'Alizé, Katiramona, Dumbéa, South Province, New Caledonia, 99835, France",
        "road": "Rue de L'Alizé",
        "house_number": null,
        "neighbourhood": null,
        "suburb": "Katiramona",
        "city_district": null,
        "city": "Dumbéa",
        "state": null,
        "postcode": "99835",
        "country": "France",
        "country_code": "fr"
      },
      "address": "Rue de L'Alizé, Dumbéa, New Caledonia"
    },
    {
      "lat": -22.19756130087001,
      "lon": 166.4568083905912,
      "geoinfo": {
        "display_name": "76, Rue de la Seine, Fortunes de mer, Dumbéa, South Province, New Caledonia, 98835, France",
        "road": "Rue de la Seine",
        "house_number": "76",
        "neighbourhood": null,
        "suburb": "Fortunes de mer",
        "city_district": null,
        "city": "Dumbéa",
        "state": null,
        "postcode": "98835",
        "country": "France",
        "country_code": "fr"
      },
      "address": "76 Rue de la Seine, Dumbéa, New Caledonia"
    },
    {
      "lat": -22.17145918651826,
      "lon": 166.47883194831277,
      "geoinfo": {
        "display_name": "Route du Carigou, L'Hermitage, Dumbéa, South Province, New Caledonia, 99835, France",
        "road": "Route du Carigou",
        "house_number": null,
        "neighbourhood": null,
        "suburb": "L'Hermitage",
        "city_district": null,
        "city": "Dumbéa",
        "state": null,
        "postcode": "99835",
        "country": "France",
        "country_code": "fr"
      },
      "address": "Route du Carigou, Dumbéa, New Caledonia"
    },
    {
      "lat": -22.175542162530903,
      "lon": 166.4700598104258,
      "geoinfo": {
        "display_name": "Ancien Chemin de Fer, L'Hermitage, Dumbéa, South Province, New Caledonia, 99835, France",
        "road": "Ancien Chemin de Fer",
        "house_number": null,
        "neighbourhood": null,
        "suburb": "L'Hermitage",
        "city_district": null,
        "city": "Dumbéa",
        "state": null,
        "postcode": "99835",
        "country": "France",
        "country_code": "fr"
      },
      "address": "Ancien Chemin de Fer, Dumbéa, New Caledonia"
    },
    {
      "lat": -22.11883728718774,
      "lon": 166.47044173546394,
      "geoinfo": {
        "display_name": "Trou d'eau, Sentier, Dumbéa, South Province, New Caledonia, 99835, France",
        "road": "Sentier",
        "house_number": null,
        "neighbourhood": null,
        "suburb": null,
        "city_district": null,
        "city": "Dumbéa",
        "state": null,
        "postcode": "99835",
        "country": "France",
        "country_code": "fr"
      },
      "address": "Sentier, Dumbéa, New Caledonia"
    },
    {
      "lat": -22.20018899810454,
      "lon": 166.46498313850032,
      "geoinfo": {
        "display_name": "1, Impasse Antonio Vivaldi, Jacarandas 2, Dumbéa, South Province, New Caledonia, 98835, France",
        "road": "Impasse Antonio Vivaldi",
        "house_number": "1",
        "neighbourhood": null,
        "suburb": "Jacarandas 2",
        "city_district": null,
        "city": "Dumbéa",
        "state": null,
        "postcode": "98835",
        "country": "France",
        "country_code": "fr"
      },
      "address": "1 Impasse Antonio Vivaldi, Dumbéa, New Caledonia"
    },
    {
      "lat": -22.16750364416363,
      "lon": 166.4222138759129,
      "geoinfo": {
        "display_name": "Route de Nakutakoin, Pointe à la Luzerne, Dumbéa, South Province, New Caledonia, 99835, France",
        "road": "Route de Nakutakoin",
        "house_number": null,
        "neighbourhood": null,
        "suburb": "Pointe à la Luzerne",
        "city_district": null,
        "city": "Dumbéa",
        "state": null,
        "postcode": "99835",
        "country": "France",
        "country_code": "fr"
      },
      "address": "Route de Nakutakoin, Dumbéa, New Caledonia"
    },
    {
      "lat": -22.153362315529503,
      "lon": 166.49204557606686,
      "geoinfo": {
        "display_name": "Sentier du mur de koé, Les Hauts de Koé, Dumbéa, South Province, New Caledonia, 99835, France",
        "road": "Sentier du mur de koé",
        "house_number": null,
        "neighbourhood": null,
        "suburb": "Les Hauts de Koé",
        "city_district": null,
        "city": "Dumbéa",
        "state": null,
        "postcode": "99835",
        "country": "France",
        "country_code": "fr"
      },
      "address": "Sentier du mur de koé, Dumbéa, New Caledonia"
    },
    {
      "lat": -22.181042984351826,
      "lon": 166.42108380394126,
      "geoinfo": {
        "display_name": "Rue de l'Anse Apogoti, Pointe à la Luzerne, Dumbéa, South Province, New Caledonia, 99835, France",
        "road": "Rue de l'Anse Apogoti",
        "house_number": null,
        "neighbourhood": null,
        "suburb": "Pointe à la Luzerne",
        "city_district": null,
        "city": "Dumbéa",
        "state": null,
        "postcode": "99835",
        "country": "France",
        "country_code": "fr"
      },
      "address": "Rue de l'Anse Apogoti, Dumbéa, New Caledonia"
    },
    {
      "lat": -22.160765012707675,
      "lon": 166.50528301851847,
      "geoinfo": {
        "display_name": "Les Hauts de Koé, Dumbéa, South Province, New Caledonia, 99835, France",
        "road": null,
        "house_number": null,
        "neighbourhood": null,
        "suburb": "Les Hauts de Koé",
        "city_district": null,
        "city": "Dumbéa",
        "state": null,
        "postcode": "99835",
        "country": "France",
        "country_code": "fr"
      },
      "address": "Les Hauts de Koé, Dumbéa, New Caledonia"
    },
    {
      "lat": -22.118726858686934,
      "lon": 166.4714778895098,
      "geoinfo": {
        "display_name": "Chemin, Dumbéa, South Province, New Caledonia, 99835, France",
        "road": "Chemin",
        "house_number": null,
        "neighbourhood": null,
        "suburb": null,
        "city_district": null,
        "city": "Dumbéa",
        "state": null,
        "postcode": "99835",
        "country": "France",
        "country_code": "fr"
      },
      "address": "Chemin, Dumbéa, New Caledonia"
    },
    {
      "lat": -22.139328323309364,
      "lon": 166.4156722578829,
      "geoinfo": {
        "display_name": "Route de la Katiramona, Païta, South Province, New Caledonia, 99835, France",
        "road": "Route de la Katiramona",
        "house_number": null,
        "neighbourhood": null,
        "suburb": null,
        "city_district": null,
        "city": "Païta",
        "state": null,
        "postcode": "99835",
        "country": "France",
        "country_code": "fr"
      },
      "address": "Route de la Katiramona, Dumbéa, New Caledonia"
    },
    {
      "lat": -22.194557459140032,
      "lon": 166.44165582869988,
      "geoinfo": {
        "display_name": "Rue du Dauphiné, L'Embouchure, Dumbéa, South Province, New Caledonia, 98835, France",
        "road": "Rue du Dauphiné",
        "house_number": null,
        "neighbourhood": null,
        "suburb": "L'Embouchure",
        "city_district": null,
        "city": "Dumbéa",
        "state": null,
        "postcode": "98835",
        "country": "France",
        "country_code": "fr"
      },
      "address": "Rue du Dauphiné, Dumbéa, New Caledonia"
    },
    {
      "lat": -22.19567432257986,
      "lon": 166.43494425881266,
      "geoinfo": {
        "display_name": "Avenue de Normandie, Pointe à la Dorade, Dumbéa, South Province, New Caledonia, 98835, France",
        "road": "Avenue de Normandie",
        "house_number": null,
        "neighbourhood": null,
        "suburb": "Pointe à la Dorade",
        "city_district": null,
        "city": "Dumbéa",
        "state": null,
        "postcode": "98835",
        "country": "France",
        "country_code": "fr"
      },
      "address": "Avenue de Normandie, Dumbéa, New Caledonia"
    },
    {
      "lat": -22.14928595095105,
      "lon": 166.49204459299602,
      "geoinfo": {
        "display_name": "Chemin de la Mine des Barbouilleurs, Les Hauts de Koé, Dumbéa, South Province, New Caledonia, 99835, France",
        "road": "Chemin de la Mine des Barbouilleurs",
        "house_number": null,
        "neighbourhood": null,
        "suburb": "Les Hauts de Koé",
        "city_district": null,
        "city": "Dumbéa",
        "state": null,
        "postcode": "99835",
        "country": "France",
        "country_code": "fr"
      },
      "address": "Chemin de la Mine des Barbouilleurs, Dumbéa, New Caledonia"
    },
    {
      "lat": -22.166775593364243,
      "lon": 166.45089852109405,
      "geoinfo": {
        "display_name": "Piste Plaine Adam, Dumbéa, South Province, New Caledonia, 99835, France",
        "road": "Piste Plaine Adam",
        "house_number": null,
        "neighbourhood": null,
        "suburb": null,
        "city_district": null,
        "city": "Dumbéa",
        "state": null,
        "postcode": "99835",
        "country": "France",
        "country_code": "fr"
      },
      "address": "Piste Plaine Adam, Dumbéa, New Caledonia"
    },
    {
      "lat": -22.182006220723107,
      "lon": 166.43550973299241,
      "geoinfo": {
        "display_name": "Rue de l'Industrie, Parc d'activités Panda, Pointe à la Dorade, Dumbéa, South Province, New Caledonia, 99835, France",
        "road": "Rue de l'Industrie",
        "house_number": null,
        "neighbourhood": null,
        "suburb": "Pointe à la Dorade",
        "city_district": null,
        "city": "Dumbéa",
        "state": null,
        "postcode": "99835",
        "country": "France",
        "country_code": "fr"
      },
      "address": "Rue de l'Industrie, Dumbéa, New Caledonia"
    },
    {
      "lat": -22.129355935946798,
      "lon": 166.46481818996588,
      "geoinfo": {
        "display_name": "Dumbéa, South Province, New Caledonia, 99835, France",
        "road": null,
        "house_number": null,
        "neighbourhood": null,
        "suburb": null,
        "city_district": null,
        "city": "Dumbéa",
        "state": null,
        "postcode": "99835",
        "country": "France",
        "country_code": "fr"
      },
      "address": "Dumbéa, New Caledonia"
    },
    {
      "lat": -22.15643028566394,
      "lon": 166.4602190840639,
      "geoinfo": {
        "display_name": "Route de Koé, Koé, Dumbéa, South Province, New Caledonia, 99835, France",
        "road": "Route de Koé",
        "house_number": null,
        "neighbourhood": null,
        "suburb": "Koé",
        "city_district": null,
        "city": "Dumbéa",
        "state": null,
        "postcode": "99835",
        "country": "France",
        "country_code": "fr"
      },
      "address": "Route de Koé, Dumbéa, New Caledonia"
    },
    {
      "lat": -22.140303451783343,
      "lon": 166.43521874794493,
      "geoinfo": {
        "display_name": "Rue de l'Entrée, Katiramona, Dumbéa, South Province, New Caledonia, 99835, France",
        "road": "Rue de l'Entrée",
        "house_number": null,
        "neighbourhood": null,
        "suburb": "Katiramona",
        "city_district": null,
        "city": "Dumbéa",
        "state": null,
        "postcode": "99835",
        "country": "France",
        "country_code": "fr"
      },
      "address": "Rue de l'Entrée, Dumbéa, New Caledonia"
    },
    {
      "lat": -22.124943537677236,
      "lon": 166.48247603570925,
      "geoinfo": {
        "display_name": "Sentier muletier, Dumbéa, South Province, New Caledonia, 99835, France",
        "road": "Sentier muletier",
        "house_number": null,
        "neighbourhood": null,
        "suburb": null,
        "city_district": null,
        "city": "Dumbéa",
        "state": null,
        "postcode": "99835",
        "country": "France",
        "country_code": "fr"
      },
      "address": "Sentier muletier, Dumbéa, New Caledonia"
    },
    {
      "lat": -22.120883075235366,
      "lon": 166.45997868960166,
      "geoinfo": {
        "display_name": "Piste des Dzumac, Dumbéa, South Province, New Caledonia, 99835, France",
        "road": "Piste des Dzumac",
        "house_number": null,
        "neighbourhood": null,
        "suburb": null,
        "city_district": null,
        "city": "Dumbéa",
        "state": null,
        "postcode": "99835",
        "country": "France",
        "country_code": "fr"
      },
      "address": "Piste des Dzumac, Dumbéa, New Caledonia"
    },
    {
      "lat": -22.125021740245312,
      "lon": 166.44000854389657,
      "geoinfo": {
        "display_name": "Route des Dzumac, Nondoué, Dumbéa, South Province, New Caledonia, 99835, France",
        "road": "Route des Dzumac",
        "house_number": null,
        "neighbourhood": null,
        "suburb": "Nondoué",
        "city_district": null,
        "city": "Dumbéa",
        "state": null,
        "postcode": "99835",
        "country": "France",
        "country_code": "fr"
      },
      "address": "279, Route des Dzumac, 99835 Dumbéa, New Caledonia"
    },
    {
      "lat": -22.16665304864054,
      "lon": 166.46070155454873,
      "geoinfo": {
        "display_name": "Ancien chemin de fer de paita, La Pépinière, Dumbéa, South Province, New Caledonia, 99835, France",
        "road": "Ancien chemin de fer de paita",
        "house_number": null,
        "neighbourhood": null,
        "suburb": "La Pépinière",
        "city_district": null,
        "city": "Dumbéa",
        "state": null,
        "postcode": "99835",
        "country": "France",
        "country_code": "fr"
      },
      "address": "725, Ancien chemin de fer de paita, 99835 Dumbéa, New Caledonia"
    },
    {
      "lat": -22.143931476351685,
      "lon": 166.4964868116292,
      "geoinfo": {
        "display_name": "Sentier du mur de koé, Les Hauts de Koé, Dumbéa, South Province, New Caledonia, 99835, France",
        "road": "Sentier du mur de koé",
        "house_number": null,
        "neighbourhood": null,
        "suburb": "Les Hauts de Koé",
        "city_district": null,
        "city": "Dumbéa",
        "state": null,
        "postcode": "99835",
        "country": "France",
        "country_code": "fr"
      },
      "address": "351, Sentier du mur de koé, 99835 Dumbéa, New Caledonia"
    },
    {
      "lat": -22.185414498572353,
      "lon": 166.42631789409347,
      "geoinfo": {
        "display_name": "V.E.2, Pointe à la Dorade, Dumbéa, South Province, New Caledonia, 99835, France",
        "road": "V.E.2",
        "house_number": null,
        "neighbourhood": null,
        "suburb": "Pointe à la Dorade",
        "city_district": null,
        "city": "Dumbéa",
        "state": null,
        "postcode": "99835",
        "country": "France",
        "country_code": "fr"
      },
      "address": "V.E.2, 99835 Dumbéa, New Caledonia"
    },
    {
      "lat": -22.186204208050945,
      "lon": 166.4780723631732,
      "geoinfo": {
        "display_name": "Route Territoriale 1, L'Hermitage, Dumbéa, South Province, New Caledonia, 98835, France",
        "road": "Route Territoriale 1",
        "house_number": null,
        "neighbourhood": null,
        "suburb": "L'Hermitage",
        "city_district": null,
        "city": "Dumbéa",
        "state": null,
        "postcode": "98835",
        "country": "France",
        "country_code": "fr"
      },
      "address": "Route Territoriale 1, 98835 Dumbéa, New Caledonia"
    },
    {
      "lat": -22.19769915941728,
      "lon": 166.46901390245046,
      "geoinfo": {
        "display_name": "Voie privée Agathe Togna, Jacarandas 1, Dumbéa, South Province, New Caledonia, 98835, France",
        "road": "Voie privée Agathe Togna",
        "house_number": null,
        "neighbourhood": null,
        "suburb": "Jacarandas 1",
        "city_district": null,
        "city": "Dumbéa",
        "state": null,
        "postcode": "98835",
        "country": "France",
        "country_code": "fr"
      },
      "address": "379, Voie privée Agathe Togna, 98835 Dumbéa, New Caledonia"
    },
    {
      "lat": -22.13953000428171,
      "lon": 166.49485645129516,
      "geoinfo": {
        "display_name": "Accès Stand de Tir, Les Hauts de Koé, Dumbéa, South Province, New Caledonia, France",
        "road": "Accès Stand de Tir",
        "house_number": null,
        "neighbourhood": null,
        "suburb": "Les Hauts de Koé",
        "city_district": null,
        "city": "Dumbéa",
        "state": null,
        "postcode": null,
        "country": "France",
        "country_code": "fr"
      },
      "address": "789, Accès Stand de Tir, 87125 Dumbéa, New Caledonia"
    },
    {
      "lat": -22.13754808673897,
      "lon": 166.44426336668323,
      "geoinfo": {
        "display_name": "Rue du Soleil, Nondoué, Dumbéa, South Province, New Caledonia, 99835, France",
        "road": "Rue du Soleil",
        "house_number": null,
        "neighbourhood": null,
        "suburb": "Nondoué",
        "city_district": null,
        "city": "Dumbéa",
        "state": null,
        "postcode": "99835",
        "country": "France",
        "country_code": "fr"
      },
      "address": "520, Rue du Soleil, 99835 Dumbéa, New Caledonia"
    },
    {
      "lat": -22.167361525232188,
      "lon": 166.44743223850097,
      "geoinfo": {
        "display_name": "Piste Plaine Adam, Dumbéa, South Province, New Caledonia, 99835, France",
        "road": "Piste Plaine Adam",
        "house_number": null,
        "neighbourhood": null,
        "suburb": null,
        "city_district": null,
        "city": "Dumbéa",
        "state": null,
        "postcode": "99835",
        "country": "France",
        "country_code": "fr"
      },
      "address": "231, Piste Plaine Adam, 99835 Dumbéa, New Caledonia"
    },
    {
      "lat": -22.185302186058976,
      "lon": 166.4359544325271,
      "geoinfo": {
        "display_name": "Rond-Point Jean-Gustave Ungler, Parc d'activités Panda, Pointe à la Dorade, Dumbéa, South Province, New Caledonia, 99835, France",
        "road": "Rond-Point Jean-Gustave Ungler",
        "house_number": null,
        "neighbourhood": null,
        "suburb": "Pointe à la Dorade",
        "city_district": null,
        "city": "Dumbéa",
        "state": null,
        "postcode": "99835",
        "country": "France",
        "country_code": "fr"
      },
      "address": "210, Rond-Point Jean-Gustave Ungler, 99835 Dumbéa, New Caledonia"
    },
    {
      "lat": -22.167495604333215,
      "lon": 166.43043063949756,
      "geoinfo": {
        "display_name": "Route de Nakutakoin, Dumbéa, South Province, New Caledonia, 99835, France",
        "road": "Route de Nakutakoin",
        "house_number": null,
        "neighbourhood": null,
        "suburb": null,
        "city_district": null,
        "city": "Dumbéa",
        "state": null,
        "postcode": "99835",
        "country": "France",
        "country_code": "fr"
      },
      "address": "539, Route de Nakutakoin, 99835 Dumbéa, New Caledonia"
    },
    {
      "lat": -22.13385196399725,
      "lon": 166.4600670067916,
      "geoinfo": {
        "display_name": "291, Route de la Couvelée, Koé, Dumbéa, South Province, New Caledonia, 98835, France",
        "road": "Route de la Couvelée",
        "house_number": "291",
        "neighbourhood": null,
        "suburb": "Koé",
        "city_district": null,
        "city": "Dumbéa",
        "state": null,
        "postcode": "98835",
        "country": "France",
        "country_code": "fr"
      },
      "address": "291, Route de la Couvelée, 98835 Dumbéa, New Caledonia"
    },
    {
      "lat": -22.17854141857038,
      "lon": 166.4612898360463,
      "geoinfo": {
        "display_name": "La Pépinière, Dumbéa, South Province, New Caledonia, 99835, France",
        "road": null,
        "house_number": null,
        "neighbourhood": null,
        "suburb": "La Pépinière",
        "city_district": null,
        "city": "Dumbéa",
        "state": null,
        "postcode": "99835",
        "country": "France",
        "country_code": "fr"
      },
      "address": "495, La Pépinière, 99835 Dumbéa, New Caledonia"
    },
    {
      "lat": -22.20151167292448,
      "lon": 166.46274570123109,
      "geoinfo": {
        "display_name": "65, Avenue Johannes Brahms, Jacarandas 2, Dumbéa, South Province, New Caledonia, 98835, France",
        "road": "Avenue Johannes Brahms",
        "house_number": "65",
        "neighbourhood": null,
        "suburb": "Jacarandas 2",
        "city_district": null,
        "city": "Dumbéa",
        "state": null,
        "postcode": "98835",
        "country": "France",
        "country_code": "fr"
      },
      "address": "65, Avenue Johannes Brahms, 98835 Dumbéa, New Caledonia"
    },
    {
      "lat": -22.188336543940654,
      "lon": 166.48138203337385,
      "geoinfo": {
        "display_name": "Route Socafim (du Lac Tonghoué), L'Hermitage, Dumbéa, South Province, New Caledonia, 98835, France",
        "road": "Route Socafim (du Lac Tonghoué)",
        "house_number": null,
        "neighbourhood": null,
        "suburb": "L'Hermitage",
        "city_district": null,
        "city": "Dumbéa",
        "state": null,
        "postcode": "98835",
        "country": "France",
        "country_code": "fr"
      },
      "address": "808, Route Socafim (du Lac Tonghoué), 98835 Dumbéa, New Caledonia"
    },
    {
      "lat": -22.1335014987985,
      "lon": 166.4555118922289,
      "geoinfo": {
        "display_name": "Nondoué, Dumbéa, South Province, New Caledonia, 99835, France",
        "road": null,
        "house_number": null,
        "neighbourhood": null,
        "suburb": "Nondoué",
        "city_district": null,
        "city": "Dumbéa",
        "state": null,
        "postcode": "99835",
        "country": "France",
        "country_code": "fr"
      },
      "address": "703, Nondoué, 99835 Dumbéa, New Caledonia"
    },
    {
      "lat": -22.17438697125371,
      "lon": 166.45248029711024,
      "geoinfo": {
        "display_name": "Piste Plaine Adam, Dumbéa, South Province, New Caledonia, 99835, France",
        "road": "Piste Plaine Adam",
        "house_number": null,
        "neighbourhood": null,
        "suburb": null,
        "city_district": null,
        "city": "Dumbéa",
        "state": null,
        "postcode": "99835",
        "country": "France",
        "country_code": "fr"
      },
      "address": "788, Piste Plaine Adam, 99835 Dumbéa, New Caledonia"
    },
    {
      "lat": -22.196806572316717,
      "lon": 166.4735734778359,
      "geoinfo": {
        "display_name": "Jacarandas 1, Dumbéa, South Province, New Caledonia, 98835, France",
        "road": null,
        "house_number": null,
        "neighbourhood": null,
        "suburb": "Jacarandas 1",
        "city_district": null,
        "city": "Dumbéa",
        "state": null,
        "postcode": "98835",
        "country": "France",
        "country_code": "fr"
      },
      "address": "Jacarandas 1, 98835 Dumbéa, New Caledonia"
    },
    {
      "lat": -22.197610206118217,
      "lon": 166.46361412319152,
      "geoinfo": {
        "display_name": "19, Rue Ludwig van Beethoven, Jacarandas 2, Dumbéa, South Province, New Caledonia, 98835, France",
        "road": "Rue Ludwig van Beethoven",
        "house_number": "19",
        "neighbourhood": null,
        "suburb": "Jacarandas 2",
        "city_district": null,
        "city": "Dumbéa",
        "state": null,
        "postcode": "98835",
        "country": "France",
        "country_code": "fr"
      },
      "address": "19, Rue Ludwig van Beethoven, 98835 Dumbéa, New Caledonia"
    },
    {
      "lat": -22.176130778113713,
      "lon": 166.5007635020453,
      "geoinfo": {
        "display_name": "Route des Monts Koghis, L'Hermitage, Dumbéa, South Province, New Caledonia, 98835, France",
        "road": "Route des Monts Koghis",
        "house_number": null,
        "neighbourhood": null,
        "suburb": "L'Hermitage",
        "city_district": null,
        "city": "Dumbéa",
        "state": null,
        "postcode": "98835",
        "country": "France",
        "country_code": "fr"
      },
      "address": "836, Route des Monts Koghis, 98835 Dumbéa, New Caledonia"
    },
    {
      "lat": -22.14470173462476,
      "lon": 166.44761415204647,
      "geoinfo": {
        "display_name": "Nondoué, Dumbéa, South Province, New Caledonia, 99835, France",
        "road": null,
        "house_number": null,
        "neighbourhood": null,
        "suburb": "Nondoué",
        "city_district": null,
        "city": "Dumbéa",
        "state": null,
        "postcode": "99835",
        "country": "France",
        "country_code": "fr"
      },
      "address": "388, Nondoué, 99835 Dumbéa, New Caledonia"
    },
    {
      "lat": -22.15728375945483,
      "lon": 166.47595698938076,
      "geoinfo": {
        "display_name": "Voie Privée de Cherubini, Koé, Dumbéa, South Province, New Caledonia, 99835, France",
        "road": "Voie Privée de Cherubini",
        "house_number": null,
        "neighbourhood": null,
        "suburb": "Koé",
        "city_district": null,
        "city": "Dumbéa",
        "state": null,
        "postcode": "99835",
        "country": "France",
        "country_code": "fr"
      },
      "address": "999, Voie Privée de Cherubini, 99835 Dumbéa, New Caledonia"
    },
    {
      "lat": -22.130353080189735,
      "lon": 166.48428603300061,
      "geoinfo": {
        "display_name": "Route de Koé Prolongée, Les Hauts de Koé, Dumbéa, South Province, New Caledonia, 99835, France",
        "road": "Route de Koé Prolongée",
        "house_number": null,
        "neighbourhood": null,
        "suburb": "Les Hauts de Koé",
        "city_district": null,
        "city": "Dumbéa",
        "state": null,
        "postcode": "99835",
        "country": "France",
        "country_code": "fr"
      },
      "address": "904, Route de Koé Prolongée, 99835 Dumbéa, New Caledonia"
    },
    {
      "lat": -22.167837282949257,
      "lon": 166.41972085970232,
      "geoinfo": {
        "display_name": "Route de Nakutakoin, Pointe à la Luzerne, Dumbéa, South Province, New Caledonia, 99835, France",
        "road": "Route de Nakutakoin",
        "house_number": null,
        "neighbourhood": null,
        "suburb": "Pointe à la Luzerne",
        "city_district": null,
        "city": "Dumbéa",
        "state": null,
        "postcode": "99835",
        "country": "France",
        "country_code": "fr"
      },
      "address": "933, Route de Nakutakoin, 99835 Dumbéa, New Caledonia"
    },
    {
      "lat": -22.13401470191445,
      "lon": 166.44717178221447,
      "geoinfo": {
        "display_name": "Route de la Nondoué, Nondoué, Dumbéa, South Province, New Caledonia, 99835, France",
        "road": "Route de la Nondoué",
        "house_number": null,
        "neighbourhood": null,
        "suburb": "Nondoué",
        "city_district": null,
        "city": "Dumbéa",
        "state": null,
        "postcode": "99835",
        "country": "France",
        "country_code": "fr"
      },
      "address": "096, Route de la Nondoué, 99835 Dumbéa, New Caledonia"
    },
    {
      "lat": -22.139088225875593,
      "lon": 166.44560026718366,
      "geoinfo": {
        "display_name": "Avenue Boutan, Nondoué, Dumbéa, South Province, New Caledonia, 99835, France",
        "road": "Avenue Boutan",
        "house_number": null,
        "neighbourhood": null,
        "suburb": "Nondoué",
        "city_district": null,
        "city": "Dumbéa",
        "state": null,
        "postcode": "99835",
        "country": "France",
        "country_code": "fr"
      },
      "address": "008, Avenue Boutan, 99835 Dumbéa, New Caledonia"
    }
  ],
  "updated_at": "2025-10-19T04:39:02.241862+00:00",
  "_kind": "geo_samples"
}