{
  "country_code": "NC",
  "country": "New Caledonia",
  "city": "Mont-Dore",
  "geonameid": 2140066,
  "target_addresses": 34,
  "samples": [
    {
      "lat": -22.286315608838848,
      "lon": 166.60630105729072,
      "geoinfo": {
        "display_name": "Rue des Notous, Mont Dore, South Province, New Caledonia, France",
        "road": "Rue des Notous",
        "house_number": null,
        "neighbourhood": null,
        "suburb": null,
        "city_district": null,
        "city": "Mont Dore",
        "state": null,
        "postcode": null,
        "country": "France",
        "country_code": "fr"
      },
      "address": "Rue des Notous, Mont-Dore, New Caledonia"
    },
    {
      "lat": -22.22772532754609,
      "lon": 166.538450508656,
      "geoinfo": {
        "display_name": "Collège Marie-Reine Thabor, Route du Mont Thabor, Saint-Michel, Mont Dore, South Province, New Caledonia, 89809, France",
        "road": "Route du Mont Thabor",
        "house_number": null,
        "neighbourhood": null,
        "suburb": "Saint-Michel",
        "city_district": null,
        "city": "Mont Dore",
        "state": null,
        "postcode": "89809",
        "country": "France",
        "country_code": "fr"
      },
      "address": "Route du Mont Thabor, Mont-Dore, New Caledonia"
    },
    {
      "lat": -22.259987516987774,
      "lon": 166.5433969596722,
      "geoinfo": {
        "display_name": "Vallon Dore, Mont Dore, South Province, New Caledonia, 98810, France",
        "road": null,
        "house_number": null,
        "neighbourhood": null,
        "suburb": "Vallon Dore",
        "city_district": null,
        "city": "Mont Dore",
        "state": null,
        "postcode": "98810",
        "country": "France",
        "country_code": "fr"
      },
      "address": "Vallon Dore, Mont-Dore, New Caledonia"
    },
    {
      "lat": -22.306793918877865,
      "lon": 166.55801939584921,
      "geoinfo": {
        "display_name": "La Corniche, Mont Dore, South Province, New Caledonia, 98808, France",
        "road": null,
        "house_number": null,
        "neighbourhood": null,
        "suburb": "La Corniche",
        "city_district": null,
        "city": "Mont Dore",
        "state": null,
        "postcode": "98808",
        "country": "France",
        "country_code": "fr"
      },
      "address": "La Corniche, Mont-Dore, New Caledonia"
    },
    {
      "lat": -22.239827229320845,
      "lon": 166.5748401146898,
      "geoinfo": {
        "display_name": "Rue du Clairbois, Mont Dore, South Province, New Caledonia, 98808, France",
        "road": "Rue du Clairbois",
        "house_number": null,
        "neighbourhood": null,
        "suburb": null,
        "city_district": null,
        "city": "Mont Dore",
        "state": null,
        "postcode": "98808",
        "country": "France",
        "country_code": "fr"
      },
      "address": "Rue du Clairbois, Mont-Dore, New Caledonia"
    },
    {
      "lat": -22.271854444420402,
      "lon": 166.60555086888235,
      "geoinfo": {
        "display_name": "Allée du Val Boisé, Plum, Mont Dore, South Province, New Caledonia, 98808, France",
        "road": "Allée du Val Boisé",
        "house_number": null,
        "neighbourhood": null,
        "suburb": "Plum",
        "city_district": null,
        "city": "Mont Dore",
        "state": null,
        "postcode": "98808",
        "country": "France",
        "country_code": "fr"
      },
      "address": "Allée du Val Boisé, Mont-Dore, New Caledonia"
    },
    {
      "lat": -22.24624180813763,
      "lon": 166.55134996983443,
      "geoinfo": {
        "display_name": "Morcellement ARDIMANNIE, Mont Dore, South Province, New Caledonia, 98810, France",
        "road": null,
        "house_number": null,
        "neighbourhood": null,
        "suburb": null,
        "city_district": null,
        "city": "Mont Dore",
        "state": null,
        "postcode": "98810",
        "country": "France",
        "country_code": "fr"
      },
      "address": "Mont-Dore, New Caledonia"
    },
    {
      "lat": -22.2511469173711,
      "lon": 166.59581772342165,
      "geoinfo": {
        "display_name": "Sentier muletier du mont dore, Mont Dore, South Province, New Caledonia, 98808, France",
        "road": "Sentier muletier du mont dore",
        "house_number": null,
        "neighbourhood": null,
        "suburb": null,
        "city_district": null,
        "city": "Mont Dore",
        "state": null,
        "postcode": "98808",
        "country": "France",
        "country_code": "fr"
      },
      "address": "Sentier muletier du mont dore, Mont-Dore, New Caledonia"
    },
    {
      "lat": -22.231797010210403,
      "lon": 166.5877274843215,
      "geoinfo": {
        "display_name": "Rue de la Plaine, Mont Dore, South Province, New Caledonia, 98808, France",
        "road": "Rue de la Plaine",
        "house_number": null,
        "neighbourhood": null,
        "suburb": null,
        "city_district": null,
        "city": "Mont Dore",
        "state": null,
        "postcode": "98808",
        "country": "France",
        "country_code": "fr"
      },
      "address": "Rue de la Plaine, Mont-Dore, New Caledonia"
    },
    {
      "lat": -22.239294558716335,
      "lon": 166.59224271410358,
      "geoinfo": {
        "display_name": "Rue du Chef Kandjio, Mont Dore, South Province, New Caledonia, 98808, France",
        "road": "Rue du Chef Kandjio",
        "house_number": null,
        "neighbourhood": null,
        "suburb": null,
        "city_district": null,
        "city": "Mont Dore",
        "state": null,
        "postcode": "98808",
        "country": "France",
        "country_code": "fr"
      },
      "address": "Rue du Chef Kandjio, Mont-Dore, New Caledonia"
    },
    {
      "lat": -22.264689231231433,
      "lon": 166.57835118283668,
      "geoinfo": {
        "display_name": "216, Route de la Forêt, Vallon Dore, Mont Dore, South Province, New Caledonia, 98809, France",
        "road": "Route de la Forêt",
        "house_number": "216",
        "neighbourhood": null,
        "suburb": "Vallon Dore",
        "city_district": null,
        "city": "Mont Dore",
        "state": null,
        "postcode": "98809",
        "country": "France",
        "country_code": "fr"
      },
      "address": "216 Route de la Forêt, Mont-Dore, New Caledonia"
    },
    {
      "lat": -22.227521489408648,
      "lon": 166.58187436341538,
      "geoinfo": {
        "display_name": "558, Routes des Sources - Rue Daniel Lefort, La Coulée, Mont Dore, South Province, New Caledonia, 98809, France",
        "road": "Routes des Sources - Rue Daniel Lefort",
        "house_number": "558",
        "neighbourhood": null,
        "suburb": null,
        "city_district": null,
        "city": "Mont Dore",
        "state": null,
        "postcode": "98809",
        "country": "France",
        "country_code": "fr"
      },
      "address": "558 Routes des Sources - Rue Daniel Lefort, Mont-Dore, New Caledonia"
    },
    {
      "lat": -22.219483148685406,
      "lon": 166.5591113561016,
      "geoinfo": {
        "display_name": "Route de Yereka, Saint-Louis, Mont Dore, South Province, New Caledonia, 98809, France",
        "road": "Route de Yereka",
        "house_number": null,
        "neighbourhood": null,
        "suburb": null,
        "city_district": null,
        "city": "Mont Dore",
        "state": null,
        "postcode": "98809",
        "country": "France",
        "country_code": "fr"
      },
      "address": "Route de Yereka, Mont-Dore, New Caledonia"
    },
    {
      "lat": -22.280738868976176,
      "lon": 166.60951259293742,
      "geoinfo": {
        "display_name": "Sentier vers le Gurunyi, La Corniche, Mont Dore, South Province, New Caledonia, 98808, France",
        "road": "Sentier vers le Gurunyi",
        "house_number": null,
        "neighbourhood": null,
        "suburb": "La Corniche",
        "city_district": null,
        "city": "Mont Dore",
        "state": null,
        "postcode": "98808",
        "country": "France",
        "country_code": "fr"
      },
      "address": "Sentier vers le Gurunyi, Mont-Dore, New Caledonia"
    },
    {
      "lat": -22.273477164296906,
      "lon": 166.57541530557063,
      "geoinfo": {
        "display_name": "Rue des Bunis, Vallon Dore, Mont Dore, South Province, New Caledonia, 98810, France",
        "road": "Rue des Bunis",
        "house_number": null,
        "neighbourhood": null,
        "suburb": "Vallon Dore",
        "city_district": null,
        "city": "Mont Dore",
        "state": null,
        "postcode": "98810",
        "country": "France",
        "country_code": "fr"
      },
      "address": "Rue des Bunis, Mont-Dore, New Caledonia"
    },
    {
      "lat": -22.265817147771838,
      "lon": 166.56618248858481,
      "geoinfo": {
        "display_name": "Route de la Corniche, Vallon Dore, Mont Dore, South Province, New Caledonia, 98808, France",
        "road": "Route de la Corniche",
        "house_number": null,
        "neighbourhood": null,
        "suburb": "Vallon Dore",
        "city_district": null,
        "city": "Mont Dore",
        "state": null,
        "postcode": "98808",
        "country": "France",
        "country_code": "fr"
      },
      "address": "Route de la Corniche, Mont-Dore, New Caledonia"
    },
    {
      "lat": -22.295461136387356,
      "lon": 166.5901298278298,
      "geoinfo": {
        "display_name": "Rue des Martins Pêcheurs, La Corniche, Mont Dore, South Province, New Caledonia, France",
        "road": "Rue des Martins Pêcheurs",
        "house_number": null,
        "neighbourhood": null,
        "suburb": "La Corniche",
        "city_district": null,
        "city": "Mont Dore",
        "state": null,
        "postcode": null,
        "country": "France",
        "country_code": "fr"
      },
      "address": "Rue des Martins Pêcheurs, Mont-Dore, New Caledonia"
    },
    {
      "lat": -22.260106305627975,
      "lon": 166.5521990419698,
      "geoinfo": {
        "display_name": "Rue de la Pointe d'Och, Vallon Dore, Mont Dore, South Province, New Caledonia, 98810, France",
        "road": "Rue de la Pointe d'Och",
        "house_number": null,
        "neighbourhood": null,
        "suburb": "Vallon Dore",
        "city_district": null,
        "city": "Mont Dore",
        "state": null,
        "postcode": "98810",
        "country": "France",
        "country_code": "fr"
      },
      "address": "Rue de la Pointe d'Och, Mont-Dore, New Caledonia"
    },
    {
      "lat": -22.237503250344293,
      "lon": 166.5486577303388,
      "geoinfo": {
        "display_name": "Chemin de Saint-Joseph, Mont Dore, South Province, New Caledonia, 98810, France",
        "road": "Chemin de Saint-Joseph",
        "house_number": null,
        "neighbourhood": null,
        "suburb": null,
        "city_district": null,
        "city": "Mont Dore",
        "state": null,
        "postcode": "98810",
        "country": "France",
        "country_code": "fr"
      },
      "address": "Chemin de Saint-Joseph, Mont-Dore, New Caledonia"
    },
    {
      "lat": -22.233752995058868,
      "lon": 166.55801849484195,
      "geoinfo": {
        "display_name": "Route du Sud, Saint-Louis, Mont Dore, South Province, New Caledonia, 98809, France",
        "road": "Route du Sud",
        "house_number": null,
        "neighbourhood": null,
        "suburb": null,
        "city_district": null,
        "city": "Mont Dore",
        "state": null,
        "postcode": "98809",
        "country": "France",
        "country_code": "fr"
      },
      "address": "Route du Sud, Mont-Dore, New Caledonia"
    },
    {
      "lat": -22.273169295006213,
      "lon": 166.55453748494594,
      "geoinfo": {
        "display_name": "Rue du Vallon Dore, Vallon Dore, Mont Dore, South Province, New Caledonia, 98810, France",
        "road": "Rue du Vallon Dore",
        "house_number": null,
        "neighbourhood": null,
        "suburb": "Vallon Dore",
        "city_district": null,
        "city": "Mont Dore",
        "state": null,
        "postcode": "98810",
        "country": "France",
        "country_code": "fr"
      },
      "address": "Rue du Vallon Dore, Mont-Dore, New Caledonia"
    },
    {
      "lat": -22.23435390136636,
      "lon": 166.54076934261477,
      "geoinfo": {
        "display_name": "Route de la station Maraîchère, Saint-Louis, Mont Dore, South Province, New Caledonia, 89809, France",
        "road": "Route de la station Maraîchère",
        "house_number": null,
        "neighbourhood": null,
        "suburb": null,
        "city_district": null,
        "city": "Mont Dore",
        "state": null,
        "postcode": "89809",
        "country": "France",
        "country_code": "fr"
      },
      "address": "Route de la station Maraîchère, Mont-Dore, New Caledonia"
    },
    {
      "lat": -22.259828722896135,
      "lon": 166.52147605169856,
      "geoinfo": {
        "display_name": "Saint-Michel, Mont Dore, South Province, New Caledonia, 89809, France",
        "road": null,
        "house_number": null,
        "neighbourhood": null,
        "suburb": "Saint-Michel",
        "city_district": null,
        "city": "Mont Dore",
        "state": null,
        "postcode": "89809",
        "country": "France",
        "country_code": "fr"
      },
      "address": "Saint-Michel, Mont-Dore, New Caledonia"
    },
    {
      "lat": -22.238639245725278,
      "lon": 166.5470743734222,
      "geoinfo": {
        "display_name": "Rue de Ouatsindia, Saint-Louis, Mont Dore, South Province, New Caledonia, 98810, France",
        "road": "Rue de Ouatsindia",
        "house_number": null,
        "neighbourhood": null,
        "suburb": null,
        "city_district": null,
        "city": "Mont Dore",
        "state": null,
        "postcode": "98810",
        "country": "France",
        "country_code": "fr"
      },
      "address": "Rue de Ouatsindia, Mont-Dore, New Caledonia"
    },
    {
      "lat": -22.262741992343305,
      "lon": 166.59222624586124,
      "geoinfo": {
        "display_name": "PR-DOR1 - Ascension du Mont-Dore, La Corniche, Mont Dore, South Province, New Caledonia, 98808, France",
        "road": "PR-DOR1 - Ascension du Mont-Dore",
        "house_number": null,
        "neighbourhood": null,
        "suburb": "La Corniche",
        "city_district": null,
        "city": "Mont Dore",
        "state": null,
        "postcode": "98808",
        "country": "France",
        "country_code": "fr"
      },
      "address": "PR-DOR1 - Ascension du Mont-Dore, Mont-Dore, New Caledonia"
    },
    {
      "lat": -22.27869921074967,
      "lon": 166.58389313322107,
      "geoinfo": {
        "display_name": "Foyer de vie la Séviane, 4, Rue des Roches Noires, La Corniche, Mont Dore, South Province, New Caledonia, 98808, France",
        "road": "Rue des Roches Noires",
        "house_number": "4",
        "neighbourhood": null,
        "suburb": "La Corniche",
        "city_district": null,
        "city": "Mont Dore",
        "state": null,
        "postcode": "98808",
        "country": "France",
        "country_code": "fr"
      },
      "address": "4 Rue des Roches Noires, Mont-Dore, New Caledonia"
    },
    {
      "lat": -22.251534708936774,
      "lon": 166.5643591825465,
      "geoinfo": {
        "display_name": "Route du Vallon Dore, Vallon Dore, Mont Dore, South Province, New Caledonia, 98810, France",
        "road": "Route du Vallon Dore",
        "house_number": null,
        "neighbourhood": null,
        "suburb": "Vallon Dore",
        "city_district": null,
        "city": "Mont Dore",
        "state": null,
        "postcode": "98810",
        "country": "France",
        "country_code": "fr"
      },
      "address": "Route du Vallon Dore, Mont-Dore, New Caledonia"
    },
    {
      "lat": -22.268582538978386,
      "lon": 166.61173910504033,
      "geoinfo": {
        "display_name": "Rue Tiaré Anani, Mont Dore, South Province, New Caledonia, 98808, France",
        "road": "Rue Tiaré Anani",
        "house_number": null,
        "neighbourhood": null,
        "suburb": null,
        "city_district": null,
        "city": "Mont Dore",
        "state": null,
        "postcode": "98808",
        "country": "France",
        "country_code": "fr"
      },
      "address": "Rue Tiaré Anani, Mont-Dore, New Caledonia"
    },
    {
      "lat": -22.239909599864767,
      "lon": 166.60515474914658,
      "geoinfo": {
        "display_name": "Route de la Fontaine du Mont-Dore, Mont Dore, South Province, New Caledonia, 98808, France",
        "road": "Route de la Fontaine du Mont-Dore",
        "house_number": null,
        "neighbourhood": null,
        "suburb": null,
        "city_district": null,
        "city": "Mont Dore",
        "state": null,
        "postcode": "98808",
        "country": "France",
        "country_code": "fr"
      },
      "address": "Route de la Fontaine du Mont-Dore, Mont-Dore, New Caledonia"
    },
    {
      "lat": -22.27698428438434,
      "lon": 166.57992976807702,
      "geoinfo": {
        "display_name": "Rue des bois Bleus, La Corniche, Mont Dore, South Province, New Caledonia, 98808, France",
        "road": "Rue des bois Bleus",
        "house_number": null,
        "neighbourhood": null,
        "suburb": "La Corniche",
        "city_district": null,
        "city": "Mont Dore",
        "state": null,
        "postcode": "98808",
        "country": "France",
        "country_code": "fr"
      },
      "address": "Rue des bois Bleus, Mont-Dore, New Caledonia"
    },
    {
      "lat": -22.22867671879485,
      "lon": 166.5927208632693,
      "geoinfo": {
        "display_name": "Route de la Montagne des Sources, Mont Dore, South Province, New Caledonia, 98808, France",
        "road": "Route de la Montagne des Sources",
        "house_number": null,
        "neighbourhood": null,
        "suburb": null,
        "city_district": null,
        "city": "Mont Dore",
        "state": null,
        "postcode": "98808",
        "country": "France",
        "country_code": "fr"
      },
      "address": "Route de la Montagne des Sources, Mont-Dore, New Caledonia"
    },
    {
      "lat": -22.228675639064498,
      "lon": 166.56309875542166,
      "geoinfo": {
        "display_name": "Route des Americains, Mont Dore, South Province, New Caledonia, 98809, France",
        "road": "Route des Americains",
        "house_number": null,
        "neighbourhood": null,
        "suburb": null,
        "city_district": null,
        "city": "Mont Dore",
        "state": null,
        "postcode": "98809",
        "country": "France",
        "country_code": "fr"
      },
      "address": "Route des Americains, Mont-Dore, New Caledonia"
    },
    {
      "lat": -22.23762179479921,
      "lon": 166.5704242415594,
      "geoinfo": {
        "display_name": "Rue des Pandanus, La Coulée, Mont Dore, South Province, New Caledonia, 98809, France",
        "road": "Rue des Pandanus",
        "house_number": null,
        "neighbourhood": null,
        "suburb": null,
        "city_district": null,
        "city": "Mont Dore",
        "state": null,
        "postcode": "98809",
        "country": "France",
        "country_code": "fr"
      },
      "address": "Rue des Pandanus, Mont-Dore, New Caledonia"
    },
    {
      "lat": -22.273146975771063,
      "lon": 166.60910255216538,
      "geoinfo": {
        "display_name": "Rue Vaima, Mont Dore, South Province, New Caledonia, 98808, France",
        "road": "Rue Vaima",
        "house_number": null,
        "neighbourhood": null,
        "suburb": null,
        "city_district": null,
        "city": "Mont Dore",
        "state": null,
        "postcode": "98808",
        "country": "France",
        "country_code": "fr"
      },
      "address": "Rue Vaima, Mont-Dore, New Caledonia"
    },
    {
      "lat": -22.304342983562357,
      "lon": 166.56701735424693,
      "geoinfo": {
        "display_name": "La Corniche, Mont Dore, South Province, New Caledonia, 98808, France",
        "road": null,
        "house_number": null,
        "neighbourhood": null,
        "suburb": "La Corniche",
        "city_district": null,
        "city": "Mont Dore",
        "state": null,
        "postcode": "98808",
        "country": "France",
        "country_code": "fr"
      },
      "address": "069, La Corniche, 98808 Mont-Dore, New Caledonia"
    },
    {
      "lat": -22.234034146140537,
      "lon": 166.55860623635155,
      "geoinfo": {
        "display_name": "MORARI, Route du Sud, Saint-Louis, Mont Dore, South Province, New Caledonia, 98809, France",
        "road": "Route du Sud",
        "house_number": null,
        "neighbourhood": null,
        "suburb": null,
        "city_district": null,
        "city": "Mont Dore",
        "state": null,
        "postcode": "98809",
        "country": "France",
        "country_code": "fr"
      },
      "address": "994, Route du Sud, 98809 Mont-Dore, New Caledonia"
    },
    {
      "lat": -22.22868312377507,
      "lon": 166.57101670476507,
      "geoinfo": {
        "display_name": "Route du Pic Kou, La Coulée, Mont Dore, South Province, New Caledonia, 98809, France",
        "road": "Route du Pic Kou",
        "house_number": null,
        "neighbourhood": null,
        "suburb": null,
        "city_district": null,
        "city": "Mont Dore",
        "state": null,
        "postcode": "98809",
        "country": "France",
        "country_code": "fr"
      },
      "address": "961, Route du Pic Kou, 98809 Mont-Dore, New Caledonia"
    },
    {
      "lat": -22.246342780453517,
      "lon": 166.60356399592024,
      "geoinfo": {
        "display_name": "jonction Trail de la Rentrée, Mont Dore, South Province, New Caledonia, 98808, France",
        "road": "jonction Trail de la Rentrée",
        "house_number": null,
        "neighbourhood": null,
        "suburb": null,
        "city_district": null,
        "city": "Mont Dore",
        "state": null,
        "postcode": "98808",
        "country": "France",
        "country_code": "fr"
      },
      "address": "298, jonction Trail de la Rentrée, 98808 Mont-Dore, New Caledonia"
    },
    {
      "lat": -22.27425223549611,
      "lon": 166.58280823095333,
      "geoinfo": {
        "display_name": "La Corniche, Mont Dore, South Province, New Caledonia, 98808, France",
        "road": null,
        "house_number": null,
        "neighbourhood": null,
        "suburb": "La Corniche",
        "city_district": null,
        "city": "Mont Dore",
        "state": null,
        "postcode": "98808",
        "country": "France",
        "country_code": "fr"
      },
      "address": "197, La Corniche, 98808 Mont-Dore, New Caledonia"
    },
    {
      "lat": -22.247230575805283,
      "lon": 166.5612939621882,
      "geoinfo": {
        "display_name": "Accès Dépotoir, Mont Dore, South Province, New Caledonia, 98810, France",
        "road": "Accès Dépotoir",
        "house_number": null,
        "neighbourhood": null,
        "suburb": null,
        "city_district": null,
        "city": "Mont Dore",
        "state": null,
        "postcode": "98810",
        "country": "France",
        "country_code": "fr"
      },
      "address": "502, Accès Dépotoir, 98810 Mont-Dore, New Caledonia"
    },
    {
      "lat": -22.25023620392705,
      "lon": 166.60043320213592,
      "geoinfo": {
        "display_name": "jonction Trail de la Rentrée, Mont Dore, South Province, New Caledonia, 98808, France",
        "road": "jonction Trail de la Rentrée",
        "house_number": null,
        "neighbourhood": null,
        "suburb": null,
        "city_district": null,
        "city": "Mont Dore",
        "state": null,
        "postcode": "98808",
        "country": "France",
        "country_code": "fr"
      },
      "address": "934, jonction Trail de la Rentrée, 98808 Mont-Dore, New Caledonia"
    },
    {
      "lat": -22.266694565573644,
      "lon": 166.58506935565794,
      "geoinfo": {
        "display_name": "PR-DOR1 - Ascension du Mont-Dore, Mont Dore, South Province, New Caledonia, 98808, France",
        "road": "PR-DOR1 - Ascension du Mont-Dore",
        "house_number": null,
        "neighbourhood": null,
        "suburb": null,
        "city_district": null,
        "city": "Mont Dore",
        "state": null,
        "postcode": "98808",
        "country": "France",
        "country_code": "fr"
      },
      "address": "PR-DOR1 - Ascension du Mont-Dore, 98808 Mont-Dore, New Caledonia"
    },
    {
      "lat": -22.250863406860624,
      "lon": 166.60027451671672,
      "geoinfo": {
        "display_name": "jonction Trail de la Rentrée, Mont Dore, South Province, New Caledonia, 98808, France",
        "road": "jonction Trail de la Rentrée",
        "house_number": null,
        "neighbourhood": null,
        "suburb": null,
        "city_district": null,
        "city": "Mont Dore",
        "state": null,
        "postcode": "98808",
        "country": "France",
        "country_code": "fr"
      },
      "address": "607, jonction Trail de la Rentrée, 98808 Mont-Dore, New Caledonia"
    },
    {
      "lat": -22.252518049970657,
      "lon": 166.53714409383554,
      "geoinfo": {
        "display_name": "Saint-Michel, Mont Dore, South Province, New Caledonia, 89809, France",
        "road": null,
        "house_number": null,
        "neighbourhood": null,
        "suburb": "Saint-Michel",
        "city_district": null,
        "city": "Mont Dore",
        "state": null,
        "postcode": "89809",
        "country": "France",
        "country_code": "fr"
      },
      "address": "979, Saint-Michel, 89809 Mont-Dore, New Caledonia"
    },
    {
      "lat": -22.283758360335074,
      "lon": 166.55205726472897,
      "geoinfo": {
        "display_name": "Vallon Dore, Mont Dore, South Province, New Caledonia, 98810, France",
        "road": null,
        "house_number": null,
        "neighbourhood": null,
        "suburb": "Vallon Dore",
        "city_district": null,
        "city": "Mont Dore",
        "state": null,
        "postcode": "98810",
        "country": "France",
        "country_code": "fr"
      },
      "address": "199, Vallon Dore, 98810 Mont-Dore, New Caledonia"
    },
    {
      "lat": -22.260093357860974,
      "lon": 166.5824889264466,
      "geoinfo": {
        "display_name": "Sentier muletier du mont dore, Mont Dore, South Province, New Caledonia, 98808, France",
        "road": "Sentier muletier du mont dore",
        "house_number": null,
        "neighbourhood": null,
        "suburb": null,
        "city_district": null,
        "city": "Mont Dore",
        "state": null,
        "postcode": "98808",
        "country": "France",
        "country_code": "fr"
      },
      "address": "670, Sentier muletier du mont dore, 98808 Mont-Dore, New Caledonia"
    },
    {
      "lat": -22.24249934218105,
      "lon": 166.60006920659765,
      "geoinfo": {
        "display_name": "Sentier, Mont Dore, South Province, New Caledonia, 98808, France",
        "road": "Sentier",
        "house_number": null,
        "neighbourhood": null,
        "suburb": null,
        "city_district": null,
        "city": "Mont Dore",
        "state": null,
        "postcode": "98808",
        "country": "France",
        "country_code": "fr"
      },
      "address": "900, Sentier, 98808 Mont-Dore, New Caledonia"
    },
    {
      "lat": -22.236846674124184,
      "lon": 166.586532265547,
      "geoinfo": {
        "display_name": "Route du Sud, La Coulée, Mont Dore, South Province, New Caledonia, 98808, France",
        "road": "Route du Sud",
        "house_number": null,
        "neighbourhood": null,
        "suburb": null,
        "city_district": null,
        "city": "Mont Dore",
        "state": null,
        "postcode": "98808",
        "country": "France",
        "country_code": "fr"
      },
      "address": "861, Route du Sud, 98808 Mont-Dore, New Caledonia"
    },
    {
      "lat": -22.26955451433258,
      "lon": 166.54616908393982,
      "geoinfo": {
        "display_name": "Vallon Dore, Mont Dore, South Province, New Caledonia, 98810, France",
        "road": null,
        "house_number": null,
        "neighbourhood": null,
        "suburb": "Vallon Dore",
        "city_district": null,
        "city": "Mont Dore",
        "state": null,
        "postcode": "98810",
        "country": "France",
        "country_code": "fr"
      },
      "address": "734, Vallon Dore, 98810 Mont-Dore, New Caledonia"
    },
    {
      "lat": -22.29728179642915,
      "lon": 166.56855529786927,
      "geoinfo": {
        "display_name": "La Corniche, Mont Dore, South Province, New Caledonia, 98808, France",
        "road": null,
        "house_number": null,
        "neighbourhood": null,
        "suburb": "La Corniche",
        "city_district": null,
        "city": "Mont Dore",
        "state": null,
        "postcode": "98808",
        "country": "France",
        "country_code": "fr"
      },
      "address": "526, La Corniche, 98808 Mont-Dore, New Caledonia"
    },
    {
      "lat": -22.228541172448463,
      "lon": 166.54393271697063,
      "geoinfo": {
        "display_name": "Ecole maternelle et primaire de Saint-Louis, Route de l'Église de Saint-Louis, Saint-Louis, Mont Dore, South Province, New Caledonia, 98809, France",
        "road": "Route de l'Église de Saint-Louis",
        "house_number": null,
        "neighbourhood": null,
        "suburb": null,
        "city_district": null,
        "city": "Mont Dore",
        "state": null,
        "postcode": "98809",
        "country": "France",
        "country_code": "fr"
      },
      "address": "585, Route de l'Église de Saint-Louis, 98809 Mont-Dore, New Caledonia"
    },
    {
      "lat": -22.283605121706838,
      "lon": 166.55524407357956,
      "geoinfo": {
        "display_name": "Vallon Dore, Mont Dore, South Province, New Caledonia, 98810, France",
        "road": null,
        "house_number": null,
        "neighbourhood": null,
        "suburb": "Vallon Dore",
        "city_district": null,
        "city": "Mont Dore",
        "state": null,
        "postcode": "98810",
        "country": "France",
        "country_code": "fr"
      },
      "address": "316, Vallon Dore, 98810 Mont-Dore, New Caledonia"
    },
    {
      "lat": -22.23676364184606,
      "lon": 166.53576189598323,
      "geoinfo": {
        "display_name": "Chemin de la vilette, Saint-Michel, Mont Dore, South Province, New Caledonia, 89809, France",
        "road": "Chemin de la vilette",
        "house_number": null,
        "neighbourhood": null,
        "suburb": "Saint-Michel",
        "city_district": null,
        "city": "Mont Dore",
        "state": null,
        "postcode": "89809",
        "country": "France",
        "country_code": "fr"
      },
      "address": "587, Chemin de la vilette, 89809 Mont-Dore, New Caledonia"
    },
    {
      "lat": -22.267114469011144,
      "lon": 166.52733235406706,
      "geoinfo": {
        "display_name": "Vallon Dore, Mont Dore, South Province, New Caledonia, 98810, France",
        "road": null,
        "house_number": null,
        "neighbourhood": null,
        "suburb": "Vallon Dore",
        "city_district": null,
        "city": "Mont Dore",
        "state": null,
        "postcode": "98810",
        "country": "France",
        "country_code": "fr"
      },
      "address": "954, Vallon Dore, 98810 Mont-Dore, New Caledonia"
    },
    {
      "lat": -22.263395703221143,
      "lon": 166.5180143771763,
      "geoinfo": {
        "display_name": "Boulari, Mont Dore, South Province, New Caledonia, 89809, France",
        "road": null,
        "house_number": null,
        "neighbourhood": null,
        "suburb": "Boulari",
        "city_district": null,
        "city": "Mont Dore",
        "state": null,
        "postcode": "89809",
        "country": "France",
        "country_code": "fr"
      },
      "address": "654, Boulari, 89809 Mont-Dore, New Caledonia"
    },
    {
      "lat": -22.30140626787474,
      "lon": 166.5556985003825,
      "geoinfo": {
        "display_name": "Vallon Dore, Mont Dore, South Province, New Caledonia, 98810, France",
        "road": null,
        "house_number": null,
        "neighbourhood": null,
        "suburb": "Vallon Dore",
        "city_district": null,
        "city": "Mont Dore",
        "state": null,
        "postcode": "98810",
        "country": "France",
        "country_code": "fr"
      },
      "address": "761, Vallon Dore, 98810 Mont-Dore, New Caledonia"
    },
    {
      "lat": -22.275035614570054,
      "lon": 166.549431276941,
      "geoinfo": {
        "display_name": "Vallon Dore, Mont Dore, South Province, New Caledonia, 98810, France",
        "road": null,
        "house_number": null,
        "neighbourhood": null,
        "suburb": "Vallon Dore",
        "city_district": null,
        "city": "Mont Dore",
        "state": null,
        "postcode": "98810",
        "country": "France",
        "country_code": "fr"
      },
      "address": "848, Vallon Dore, 98810 Mont-Dore, New Caledonia"
    },
    {
      "lat": -22.25441173326175,
      "lon": 166.5495850202634,
      "geoinfo": {
        "display_name": "Rue de la Pointe d'Och, Vallon Dore, Mont Dore, South Province, New Caledonia, 98810, France",
        "road": "Rue de la Pointe d'Och",
        "house_number": null,
        "neighbourhood": null,
        "suburb": "Vallon Dore",
        "city_district": null,
        "city": "Mont Dore",
        "state": null,
        "postcode": "98810",
        "country": "France",
        "country_code": "fr"
      },
      "address": "116, Rue de la Pointe d'Och, 98810 Mont-Dore, New Caledonia"
    },
    {
      "lat": -22.271010479579065,
      "lon": 166.56303077089677,
      "geoinfo": {
        "display_name": "Parc Street Workout, Rue du Vallon Dore, Vallon Dore, Mont Dore, South Province, New Caledonia, 98810, France",
        "road": "Rue du Vallon Dore",
        "house_number": null,
        "neighbourhood": null,
        "suburb": "Vallon Dore",
        "city_district": null,
        "city": "Mont Dore",
        "state": null,
        "postcode": "98810",
        "country": "France",
        "country_code": "fr"
      },
      "address": "098, Rue du Vallon Dore, 98810 Mont-Dore, New Caledonia"
    },
    {
      "lat": -22.244844370832627,
      "lon": 166.56911332963094,
      "geoinfo": {
        "display_name": "Accès Dépotoir, Mont Dore, South Province, New Caledonia, 98810, France",
        "road": "Accès Dépotoir",
        "house_number": null,
        "neighbourhood": null,
        "suburb": null,
        "city_district": null,
        "city": "Mont Dore",
        "state": null,
        "postcode": "98810",
        "country": "France",
        "country_code": "fr"
      },
      "address": "813, Accès Dépotoir, 98810 Mont-Dore, New Caledonia"
    },
    {
      "lat": -22.235520834496032,
      "lon": 166.53337170190048,
      "geoinfo": {
        "display_name": "Chemin de la vilette, Saint-Michel, Mont Dore, South Province, New Caledonia, 89809, France",
        "road": "Chemin de la vilette",
        "house_number": null,
        "neighbourhood": null,
        "suburb": "Saint-Michel",
        "city_district": null,
        "city": "Mont Dore",
        "state": null,
        "postcode": "89809",
        "country": "France",
        "country_code": "fr"
      },
      "address": "993, Chemin de la vilette, 89809 Mont-Dore, New Caledonia"
    },
    {
      "lat": -22.27814721106323,
      "lon": 166.53965429114706,
      "geoinfo": {
        "display_name": "Vallon Dore, Mont Dore, South Province, New Caledonia, 98810, France",
        "road": null,
        "house_number": null,
        "neighbourhood": null,
        "suburb": "Vallon Dore",
        "city_district": null,
        "city": "Mont Dore",
        "state": null,
        "postcode": "98810",
        "country": "France",
        "country_code": "fr"
      },
      "address": "641, Vallon Dore, 98810 Mont-Dore, New Caledonia"
    },
    {
      "lat": -22.23183544141196,
      "lon": 166.53605534554686,
      "geoinfo": {
        "display_name": "Centre de formation professionnel et de formation agricole, Route du Sud, Saint-Louis, Mont Dore, South Province, New Caledonia, 89809, France",
        "road": "Route du Sud",
        "house_number": null,
        "neighbourhood": null,
        "suburb": null,
        "city_district": null,
        "city": "Mont Dore",
        "state": null,
        "postcode": "89809",
        "country": "France",
        "country_code": "fr"
      },
      "address": "277, Route du Sud, 89809 Mont-Dore, New Caledonia"
    },
    {
      "lat": -22.297537616208142,
      "lon": 166.58072220587704,
      "geoinfo": {
        "display_name": "La Corniche, Mont Dore, South Province, New Caledonia, 98808, France",
        "road": null,
        "house_number": null,
        "neighbourhood": null,
        "suburb": "La Corniche",
        "city_district": null,
        "city": "Mont Dore",
        "state": null,
        "postcode": "98808",
        "country": "France",
        "country_code": "fr"
      },
      "address": "569, La Corniche, 98808 Mont-Dore, New Caledonia"
    },
    {
      "lat": -22.287824231077426,
      "lon": 166.56238144074197,
      "geoinfo": {
        "display_name": "Vallon Dore, Mont Dore, South Province, New Caledonia, 98810, France",
        "road": null,
        "house_number": null,
        "neighbourhood": null,
        "suburb": "Vallon Dore",
        "city_district": null,
        "city": "Mont Dore",
        "state": null,
        "postcode": "98810",
        "country": "France",
        "country_code": "fr"
      },
      "address": "687, Vallon Dore, 98810 Mont-Dore, New Caledonia"
    },
    {
      "lat": -22.250742246601018,
      "lon": 166.56687732164534,
      "geoinfo": {
        "display_name": "Rue Louis Thédore Bérard, Mont Dore, South Province, New Caledonia, 98810, France",
        "road": "Rue Louis Thédore Bérard",
        "house_number": null,
        "neighbourhood": null,
        "suburb": null,
        "city_district": null,
        "city": "Mont Dore",
        "state": null,
        "postcode": "98810",
        "country": "France",
        "country_code": "fr"
      },
      "address": "475, Rue Louis Thédore Bérard, 98810 Mont-Dore, New Caledonia"
    }
  ],
  "updated_at": "2025-10-19T06:13:47.514317+00:00",
  "_kind": "geo_samples"
}