{
  "country_code": "LV",
  "country": "Latvia",
  "city": "Daugavpils",
  "geonameid": 460413,
  "target_addresses": 8,
  "samples": [
    {
      "lat": 55.86892618778993,
      "lon": 26.50997094317472,
      "geoinfo": {
        "display_name": "Augšdaugavas novada pašvaldības domes centrālā administrācija, 2, Rīgas iela, Centre, Daugavpils, LV-5401, Latvia",
        "road": "Rīgas iela",
        "house_number": "2",
        "neighbourhood": null,
        "suburb": "Centre",
        "city_district": null,
        "city": "Daugavpils",
        "state": null,
        "postcode": "LV-5401",
        "country": "Latvia",
        "country_code": "lv"
      },
      "address": "2 Rīgas iela, Daugavpils, Latvia"
    },
    {
      "lat": 55.85169808021135,
      "lon": 26.57052859037792,
      "geoinfo": {
        "display_name": "Tīreļi 1, P68, Dubovka, Laucesas pagasts, Augšdaugavas novads, LV-5461, Latvia",
        "road": "P68",
        "house_number": null,
        "neighbourhood": null,
        "suburb": null,
        "city_district": null,
        "city": "Laucesas pagasts",
        "state": null,
        "postcode": "LV-5461",
        "country": "Latvia",
        "country_code": "lv"
      },
      "address": "P68, Daugavpils, Latvia"
    },
    {
      "lat": 55.90484304530842,
      "lon": 26.58952357459966,
      "geoinfo": {
        "display_name": "Glābšanas stacija, Stropu peldošais baseins, Daugavpils, LV-5417, Latvia",
        "road": "Stropu peldošais baseins",
        "house_number": null,
        "neighbourhood": null,
        "suburb": null,
        "city_district": null,
        "city": "Daugavpils",
        "state": null,
        "postcode": "LV-5417",
        "country": "Latvia",
        "country_code": "lv"
      },
      "address": "Stropu peldošais baseins, Daugavpils, Latvia"
    },
    {
      "lat": 55.90908334524619,
      "lon": 26.476665990492762,
      "geoinfo": {
        "display_name": "11A, Silu iela, Vizbuļi, Daugavpils, LV-5401, Latvia",
        "road": "Silu iela",
        "house_number": "11A",
        "neighbourhood": null,
        "suburb": "Vizbuļi",
        "city_district": null,
        "city": "Daugavpils",
        "state": null,
        "postcode": "LV-5401",
        "country": "Latvia",
        "country_code": "lv"
      },
      "address": "11A Silu iela, Daugavpils, Latvia"
    },
    {
      "lat": 55.87884277604106,
      "lon": 26.58453382281879,
      "geoinfo": {
        "display_name": "Komunālie kapi, 18. novembra iela, Jaunie Stropi, Daugavpils, LV-5417, Latvia",
        "road": "18. novembra iela",
        "house_number": null,
        "neighbourhood": null,
        "suburb": "Jaunie Stropi",
        "city_district": null,
        "city": "Daugavpils",
        "state": null,
        "postcode": "LV-5417",
        "country": "Latvia",
        "country_code": "lv"
      },
      "address": "18. novembra iela, Daugavpils, Latvia"
    },
    {
      "lat": 55.86406630772008,
      "lon": 26.570464268430367,
      "geoinfo": {
        "display_name": "Nometņu iela, Gajoks, Daugavpils, LV-5404, Latvia",
        "road": "Nometņu iela",
        "house_number": null,
        "neighbourhood": null,
        "suburb": "Gajoks",
        "city_district": null,
        "city": "Daugavpils",
        "state": null,
        "postcode": "LV-5404",
        "country": "Latvia",
        "country_code": "lv"
      },
      "address": "Nometņu iela, Daugavpils, Latvia"
    },
    {
      "lat": 55.88334420192524,
      "lon": 26.477482964715676,
      "geoinfo": {
        "display_name": "Ilūkste — Rubanišķi — Daugavpils, Grīva, Kalkūnes pagasts, Augšdaugavas novads, LV-5418, Latvia",
        "road": "Ilūkste — Rubanišķi — Daugavpils",
        "house_number": null,
        "neighbourhood": null,
        "suburb": "Grīva",
        "city_district": null,
        "city": "Kalkūnes pagasts",
        "state": null,
        "postcode": "LV-5418",
        "country": "Latvia",
        "country_code": "lv"
      },
      "address": "Ilūkste — Rubanišķi — Daugavpils, Daugavpils, Latvia"
    },
    {
      "lat": 55.86988852237061,
      "lon": 26.56463930922128,
      "geoinfo": {
        "display_name": "2A, Jelgavas iela, Čerepova, Daugavpils, LV-5404, Latvia",
        "road": "Jelgavas iela",
        "house_number": "2A",
        "neighbourhood": null,
        "suburb": "Čerepova",
        "city_district": null,
        "city": "Daugavpils",
        "state": null,
        "postcode": "LV-5404",
        "country": "Latvia",
        "country_code": "lv"
      },
      "address": "2A Jelgavas iela, Daugavpils, Latvia"
    },
    {
      "lat": 55.90797151958038,
      "lon": 26.48127707357083,
      "geoinfo": {
        "display_name": "17, Astilbju iela, Vizbuļi, Daugavpils, LV-5401, Latvia",
        "road": "Astilbju iela",
        "house_number": "17",
        "neighbourhood": null,
        "suburb": "Vizbuļi",
        "city_district": null,
        "city": "Daugavpils",
        "state": null,
        "postcode": "LV-5401",
        "country": "Latvia",
        "country_code": "lv"
      },
      "address": "17, Astilbju iela, Vizbuļi, Daugavpils, LV-5401, Latvia"
    },
    {
      "lat": 55.89568662329852,
      "lon": 26.529956335204762,
      "geoinfo": {
        "display_name": "2, Piekrastes iela, Jaunā Forštadte, Dzelzceļnieks, Daugavpils, LV-5422, Latvia",
        "road": "Piekrastes iela",
        "house_number": "2",
        "neighbourhood": null,
        "suburb": "Jaunā Forštadte",
        "city_district": null,
        "city": "Daugavpils",
        "state": null,
        "postcode": "LV-5422",
        "country": "Latvia",
        "country_code": "lv"
      },
      "address": "2, Piekrastes iela, Jaunā Forštadte, Dzelzceļnieks, Daugavpils, LV-5422, Latvia"
    },
    {
      "lat": 55.89618294053791,
      "lon": 26.459493802474775,
      "geoinfo": {
        "display_name": "Ilūkste — Rubanišķi — Daugavpils, Grīva, Kalkūnes pagasts, Augšdaugavas novads, LV-5418, Latvia",
        "road": "Ilūkste — Rubanišķi — Daugavpils",
        "house_number": null,
        "neighbourhood": null,
        "suburb": "Grīva",
        "city_district": null,
        "city": "Kalkūnes pagasts",
        "state": null,
        "postcode": "LV-5418",
        "country": "Latvia",
        "country_code": "lv"
      },
      "address": "269, Ilūkste — Rubanišķi — Daugavpils, Grīva, Kalkūnes pagasts, Augšdaugavas novads, LV-5418, Latvia"
    },
    {
      "lat": 55.847601799910144,
      "lon": 26.54488476310201,
      "geoinfo": {
        "display_name": "23, Blāzmas iela, Liginiški, Daugavpils, Augšdaugavas novads, LV-5415, Latvia",
        "road": "Blāzmas iela",
        "house_number": "23",
        "neighbourhood": null,
        "suburb": "Liginiški",
        "city_district": null,
        "city": "Daugavpils",
        "state": null,
        "postcode": "LV-5415",
        "country": "Latvia",
        "country_code": "lv"
      },
      "address": "23, Blāzmas iela, Liginiški, Daugavpils, Augšdaugavas novads, LV-5415, Latvia"
    },
    {
      "lat": 55.8829061702918,
      "lon": 26.55149894898626,
      "geoinfo": {
        "display_name": "125, Miera iela, Кожзавод, Jaunbūve, Daugavpils, LV-5417, Latvia",
        "road": "Miera iela",
        "house_number": "125",
        "neighbourhood": "Кожзавод",
        "suburb": "Jaunbūve",
        "city_district": null,
        "city": "Daugavpils",
        "state": null,
        "postcode": "LV-5417",
        "country": "Latvia",
        "country_code": "lv"
      },
      "address": "125, Miera iela, Кожзавод, Jaunbūve, Daugavpils, LV-5417, Latvia"
    },
    {
      "lat": 55.87704541571022,
      "lon": 26.534282259485703,
      "geoinfo": {
        "display_name": "1, Arodu iela, Jaunbūve, Daugavpils, LV-5404, Latvia",
        "road": "Arodu iela",
        "house_number": "1",
        "neighbourhood": null,
        "suburb": "Jaunbūve",
        "city_district": null,
        "city": "Daugavpils",
        "state": null,
        "postcode": "LV-5404",
        "country": "Latvia",
        "country_code": "lv"
      },
      "address": "1, Arodu iela, Jaunbūve, Daugavpils, LV-5404, Latvia"
    },
    {
      "lat": 55.856520599883076,
      "lon": 26.59246817623827,
      "geoinfo": {
        "display_name": "Lasenberga 13, Daugavpils — Elerne — Lielborne, Lazovka, Cīrulīši, Tabores pagasts, Augšdaugavas novads, LV-5465, Latvia",
        "road": "Daugavpils — Elerne — Lielborne",
        "house_number": null,
        "neighbourhood": null,
        "suburb": null,
        "city_district": null,
        "city": "Tabores pagasts",
        "state": null,
        "postcode": "LV-5465",
        "country": "Latvia",
        "country_code": "lv"
      },
      "address": "Lasenberga 13, Daugavpils — Elerne — Lielborne, Lazovka, Cīrulīši, Tabores pagasts, Augšdaugavas novads, LV-5465, Latvia"
    },
    {
      "lat": 55.89450224450322,
      "lon": 26.532481463578115,
      "geoinfo": {
        "display_name": "Latvijas Maiznieks, 9, Mazā Viļņas iela, Jaunbūve, Daugavpils, LV-5404, Latvia",
        "road": "Mazā Viļņas iela",
        "house_number": "9",
        "neighbourhood": null,
        "suburb": "Jaunbūve",
        "city_district": null,
        "city": "Daugavpils",
        "state": null,
        "postcode": "LV-5404",
        "country": "Latvia",
        "country_code": "lv"
      },
      "address": "Latvijas Maiznieks, 9, Mazā Viļņas iela, Jaunbūve, Daugavpils, LV-5404, Latvia"
    }
  ],
  "updated_at": "2025-10-19T03:46:31.679187+00:00",
  "_kind": "geo_samples"
}