{
  "country_code": "LV",
  "country": "Latvia",
  "city": "Dārzciems",
  "geonameid": 13192644,
  "target_addresses": 8,
  "samples": [
    {
      "lat": 56.93592160085388,
      "lon": 24.215162943544,
      "geoinfo": {
        "display_name": "Brāļu Kaudzīšu iela, Pļavnieki, Latgales apkaime, Riga, LV-1021, Latvia",
        "road": "Brāļu Kaudzīšu iela",
        "house_number": null,
        "neighbourhood": null,
        "suburb": "Pļavnieki",
        "city_district": "Latgales apkaime",
        "city": "Riga",
        "state": null,
        "postcode": "LV-1021",
        "country": "Latvia",
        "country_code": "lv"
      },
      "address": "Brāļu Kaudzīšu iela, Dārzciems, Latvia"
    },
    {
      "lat": 56.945987246448574,
      "lon": 24.18382913006542,
      "geoinfo": {
        "display_name": "21, Dārzciema iela, Dārzciems, Latgales apkaime, Riga, LV-1082, Latvia",
        "road": "Dārzciema iela",
        "house_number": "21",
        "neighbourhood": null,
        "suburb": "Dārzciems",
        "city_district": "Latgales apkaime",
        "city": "Riga",
        "state": null,
        "postcode": "LV-1082",
        "country": "Latvia",
        "country_code": "lv"
      },
      "address": "21 Dārzciema iela, Dārzciems, Latvia"
    },
    {
      "lat": 56.94256018528956,
      "lon": 24.181807096073506,
      "geoinfo": {
        "display_name": "48A, Dārzciema iela, Dārzciems, Latgales apkaime, Riga, LV-1035, Latvia",
        "road": "Dārzciema iela",
        "house_number": "48A",
        "neighbourhood": null,
        "suburb": "Dārzciems",
        "city_district": "Latgales apkaime",
        "city": "Riga",
        "state": null,
        "postcode": "LV-1035",
        "country": "Latvia",
        "country_code": "lv"
      },
      "address": "48A Dārzciema iela, Dārzciems, Latvia"
    },
    {
      "lat": 56.94187388993285,
      "lon": 24.20212649720347,
      "geoinfo": {
        "display_name": "17, Zemes iela, Pļavnieki, Latgales apkaime, Riga, LV-1082, Latvia",
        "road": "Zemes iela",
        "house_number": "17",
        "neighbourhood": null,
        "suburb": "Pļavnieki",
        "city_district": "Latgales apkaime",
        "city": "Riga",
        "state": null,
        "postcode": "LV-1082",
        "country": "Latvia",
        "country_code": "lv"
      },
      "address": "17, Zemes iela, Pļavnieki, Latgales apkaime, Riga, LV-1082, Latvia"
    },
    {
      "lat": 56.93434046369573,
      "lon": 24.159135662194025,
      "geoinfo": {
        "display_name": "185, Latgales iela, Krasta masīvs, Latgale neighborhood, Latgales apkaime, Riga, LV-1019, Latvia",
        "road": "Latgales iela",
        "house_number": "185",
        "neighbourhood": "Krasta masīvs",
        "suburb": "Latgale neighborhood",
        "city_district": "Latgales apkaime",
        "city": "Riga",
        "state": null,
        "postcode": "LV-1019",
        "country": "Latvia",
        "country_code": "lv"
      },
      "address": "185, Latgales iela, Krasta masīvs, Latgale neighborhood, Latgales apkaime, Riga, LV-1019, Latvia"
    },
    {
      "lat": 56.96490493227198,
      "lon": 24.195405871938675,
      "geoinfo": {
        "display_name": "43A, Ķeguma iela, Purvciems, Teikas apkaime, Riga, LV-1084, Latvia",
        "road": "Ķeguma iela",
        "house_number": "43A",
        "neighbourhood": null,
        "suburb": "Purvciems",
        "city_district": "Teikas apkaime",
        "city": "Riga",
        "state": null,
        "postcode": "LV-1084",
        "country": "Latvia",
        "country_code": "lv"
      },
      "address": "43A, Ķeguma iela, Purvciems, Teikas apkaime, Riga, LV-1084, Latvia"
    },
    {
      "lat": 56.9590846610834,
      "lon": 24.21900316420355,
      "geoinfo": {
        "display_name": "Biķernieku iela, Mežciems, Teikas apkaime, Riga, LV-1021, Latvia",
        "road": "Biķernieku iela",
        "house_number": null,
        "neighbourhood": null,
        "suburb": "Mežciems",
        "city_district": "Teikas apkaime",
        "city": "Riga",
        "state": null,
        "postcode": "LV-1021",
        "country": "Latvia",
        "country_code": "lv"
      },
      "address": "512, Biķernieku iela, Mežciems, Teikas apkaime, Riga, LV-1021, Latvia"
    },
    {
      "lat": 56.95825216415537,
      "lon": 24.2415674562895,
      "geoinfo": {
        "display_name": "7, Vecā Biķernieku iela, Mežciems, Teikas apkaime, Riga, LV-1079, Latvia",
        "road": "Vecā Biķernieku iela",
        "house_number": "7",
        "neighbourhood": null,
        "suburb": "Mežciems",
        "city_district": "Teikas apkaime",
        "city": "Riga",
        "state": null,
        "postcode": "LV-1079",
        "country": "Latvia",
        "country_code": "lv"
      },
      "address": "7, Vecā Biķernieku iela, Mežciems, Teikas apkaime, Riga, LV-1079, Latvia"
    },
    {
      "lat": 56.93768699636558,
      "lon": 24.19042075708927,
      "geoinfo": {
        "display_name": "9, Plaužu iela, Dārzciems, Latgales apkaime, Riga, LV-1073, Latvia",
        "road": "Plaužu iela",
        "house_number": "9",
        "neighbourhood": null,
        "suburb": "Dārzciems",
        "city_district": "Latgales apkaime",
        "city": "Riga",
        "state": null,
        "postcode": "LV-1073",
        "country": "Latvia",
        "country_code": "lv"
      },
      "address": "9, Plaužu iela, Dārzciems, Latgales apkaime, Riga, LV-1073, Latvia"
    },
    {
      "lat": 56.95380374731506,
      "lon": 24.16672352028628,
      "geoinfo": {
        "display_name": "8, Mārcienas iela, Purvciems, Teikas apkaime, Riga, LV-1035, Latvia",
        "road": "Mārcienas iela",
        "house_number": "8",
        "neighbourhood": null,
        "suburb": "Purvciems",
        "city_district": "Teikas apkaime",
        "city": "Riga",
        "state": null,
        "postcode": "LV-1035",
        "country": "Latvia",
        "country_code": "lv"
      },
      "address": "8, Mārcienas iela, Purvciems, Teikas apkaime, Riga, LV-1035, Latvia"
    },
    {
      "lat": 56.90589265117338,
      "lon": 24.140575705248793,
      "geoinfo": {
        "display_name": "TP240, 7, Svīres iela, Bišumuiža, Āgenskalna apkaime, Riga, LV-1076, Latvia",
        "road": "Svīres iela",
        "house_number": "7",
        "neighbourhood": null,
        "suburb": "Bišumuiža",
        "city_district": "Āgenskalna apkaime",
        "city": "Riga",
        "state": null,
        "postcode": "LV-1076",
        "country": "Latvia",
        "country_code": "lv"
      },
      "address": "TP240, 7, Svīres iela, Bišumuiža, Āgenskalna apkaime, Riga, LV-1076, Latvia"
    }
  ],
  "updated_at": "2025-10-19T04:11:08.362897+00:00",
  "_kind": "geo_samples"
}