{
  "country_code": "LV",
  "country": "Latvia",
  "city": "Jelgava",
  "geonameid": 459279,
  "target_addresses": 8,
  "samples": [
    {
      "lat": 56.64040778893396,
      "lon": 23.787242935312417,
      "geoinfo": {
        "display_name": "Ataugas, A8, Bajāri, Jaunsvirlaukas pagasts, Jelgavas novads, LV-3031, Latvia",
        "road": "A8",
        "house_number": null,
        "neighbourhood": null,
        "suburb": null,
        "city_district": null,
        "city": "Jaunsvirlaukas pagasts",
        "state": null,
        "postcode": "LV-3031",
        "country": "Latvia",
        "country_code": "lv"
      },
      "address": "A8, Jelgava, Latvia"
    },
    {
      "lat": 56.62829390522974,
      "lon": 23.731571291709383,
      "geoinfo": {
        "display_name": "3A, Zemeņu iela, Aveņu ciems, Romas ielas mikrorajons, Jelgava, LV-3001, Latvia",
        "road": "Zemeņu iela",
        "house_number": "3A",
        "neighbourhood": "Aveņu ciems",
        "suburb": "Romas ielas mikrorajons",
        "city_district": null,
        "city": "Jelgava",
        "state": null,
        "postcode": "LV-3001",
        "country": "Latvia",
        "country_code": "lv"
      },
      "address": "3A Zemeņu iela, Jelgava, Latvia"
    },
    {
      "lat": 56.65898814799749,
      "lon": 23.698727280781753,
      "geoinfo": {
        "display_name": "80, Atmodas iela, Meijas, Lapskalns, Jelgava, LV-3007, Latvia",
        "road": "Atmodas iela",
        "house_number": "80",
        "neighbourhood": "Meijas",
        "suburb": "Lapskalns",
        "city_district": null,
        "city": "Jelgava",
        "state": null,
        "postcode": "LV-3007",
        "country": "Latvia",
        "country_code": "lv"
      },
      "address": "80 Atmodas iela, Jelgava, Latvia"
    },
    {
      "lat": 56.6477351892753,
      "lon": 23.712494981955523,
      "geoinfo": {
        "display_name": "14, Jāņa Asara iela, Vecais gals, Jelgava, LV-3001, Latvia",
        "road": "Jāņa Asara iela",
        "house_number": "14",
        "neighbourhood": null,
        "suburb": "Vecais gals",
        "city_district": null,
        "city": "Jelgava",
        "state": null,
        "postcode": "LV-3001",
        "country": "Latvia",
        "country_code": "lv"
      },
      "address": "14 Jāņa Asara iela, Jelgava, Latvia"
    },
    {
      "lat": 56.60898701337392,
      "lon": 23.744552115161277,
      "geoinfo": {
        "display_name": "Platones pagasts, Jelgavas novads, LV-3001, Latvia",
        "road": null,
        "house_number": null,
        "neighbourhood": null,
        "suburb": null,
        "city_district": null,
        "city": "Platones pagasts",
        "state": null,
        "postcode": "LV-3001",
        "country": "Latvia",
        "country_code": "lv"
      },
      "address": "Jelgava, Latvia"
    },
    {
      "lat": 56.65581315406179,
      "lon": 23.696624255526345,
      "geoinfo": {
        "display_name": "58A, Ganību iela, Lapskalns, Jelgava, LV-3007, Latvia",
        "road": "Ganību iela",
        "house_number": "58A",
        "neighbourhood": null,
        "suburb": "Lapskalns",
        "city_district": null,
        "city": "Jelgava",
        "state": null,
        "postcode": "LV-3007",
        "country": "Latvia",
        "country_code": "lv"
      },
      "address": "58A Ganību iela, Jelgava, Latvia"
    },
    {
      "lat": 56.68644681273999,
      "lon": 23.74431948588589,
      "geoinfo": {
        "display_name": "Klijēnu ceļš, Ozolpils, Jelgava, LV-3004, Latvia",
        "road": "Klijēnu ceļš",
        "house_number": null,
        "neighbourhood": null,
        "suburb": "Ozolpils",
        "city_district": null,
        "city": "Jelgava",
        "state": null,
        "postcode": "LV-3004",
        "country": "Latvia",
        "country_code": "lv"
      },
      "address": "Klijēnu ceļš, Jelgava, Latvia"
    },
    {
      "lat": 56.62609012407181,
      "lon": 23.670508531773244,
      "geoinfo": {
        "display_name": "Vilpleķu ceļš, Svētes pagasts, Jelgavas novads, LV-3008, Latvia",
        "road": "Vilpleķu ceļš",
        "house_number": null,
        "neighbourhood": null,
        "suburb": null,
        "city_district": null,
        "city": "Svētes pagasts",
        "state": null,
        "postcode": "LV-3008",
        "country": "Latvia",
        "country_code": "lv"
      },
      "address": "Vilpleķu ceļš, Jelgava, Latvia"
    },
    {
      "lat": 56.663540968197985,
      "lon": 23.65091104291269,
      "geoinfo": {
        "display_name": "34A, 5. līnija, Miezītes pļavas, Līnijas, Jelgava, LV-3003, Latvia",
        "road": "5. līnija",
        "house_number": "34A",
        "neighbourhood": "Miezītes pļavas",
        "suburb": "Līnijas",
        "city_district": null,
        "city": "Jelgava",
        "state": null,
        "postcode": "LV-3003",
        "country": "Latvia",
        "country_code": "lv"
      },
      "address": "34A, 5. līnija, Miezītes pļavas, Līnijas, Jelgava, LV-3003, Latvia"
    },
    {
      "lat": 56.63380021657088,
      "lon": 23.69828464618674,
      "geoinfo": {
        "display_name": "Putnu iela, Pogu lauki, Ģintermuiža, Jelgava, LV-3008, Latvia",
        "road": "Putnu iela",
        "house_number": null,
        "neighbourhood": "Pogu lauki",
        "suburb": "Ģintermuiža",
        "city_district": null,
        "city": "Jelgava",
        "state": null,
        "postcode": "LV-3008",
        "country": "Latvia",
        "country_code": "lv"
      },
      "address": "374, Putnu iela, Pogu lauki, Ģintermuiža, Jelgava, LV-3008, Latvia"
    },
    {
      "lat": 56.6618865899808,
      "lon": 23.740083622793716,
      "geoinfo": {
        "display_name": "20, Teodora Grothusa iela, Pārlielupe, Rafs, Jelgava, LV-3002, Latvia",
        "road": "Teodora Grothusa iela",
        "house_number": "20",
        "neighbourhood": "Pārlielupe",
        "suburb": "Rafs",
        "city_district": null,
        "city": "Jelgava",
        "state": null,
        "postcode": "LV-3002",
        "country": "Latvia",
        "country_code": "lv"
      },
      "address": "20, Teodora Grothusa iela, Pārlielupe, Rafs, Jelgava, LV-3002, Latvia"
    },
    {
      "lat": 56.681361691029274,
      "lon": 23.7320573976135,
      "geoinfo": {
        "display_name": "5C, Rogu ceļš, Ozolpils, Jelgava, LV-3004, Latvia",
        "road": "Rogu ceļš",
        "house_number": "5C",
        "neighbourhood": null,
        "suburb": "Ozolpils",
        "city_district": null,
        "city": "Jelgava",
        "state": null,
        "postcode": "LV-3004",
        "country": "Latvia",
        "country_code": "lv"
      },
      "address": "5C, Rogu ceļš, Ozolpils, Jelgava, LV-3004, Latvia"
    },
    {
      "lat": 56.657963113882246,
      "lon": 23.700788935385123,
      "geoinfo": {
        "display_name": "43, Satiksmes iela, Lapskalns, Jelgava, LV-3007, Latvia",
        "road": "Satiksmes iela",
        "house_number": "43",
        "neighbourhood": null,
        "suburb": "Lapskalns",
        "city_district": null,
        "city": "Jelgava",
        "state": null,
        "postcode": "LV-3007",
        "country": "Latvia",
        "country_code": "lv"
      },
      "address": "43, Satiksmes iela, Lapskalns, Jelgava, LV-3007, Latvia"
    },
    {
      "lat": 56.65380916293433,
      "lon": 23.63869700579402,
      "geoinfo": {
        "display_name": "21, 6. līnija, Bemberi, Līnijas, Jelgava, LV-3003, Latvia",
        "road": "6. līnija",
        "house_number": "21",
        "neighbourhood": "Bemberi",
        "suburb": "Līnijas",
        "city_district": null,
        "city": "Jelgava",
        "state": null,
        "postcode": "LV-3003",
        "country": "Latvia",
        "country_code": "lv"
      },
      "address": "21, 6. līnija, Bemberi, Līnijas, Jelgava, LV-3003, Latvia"
    },
    {
      "lat": 56.66873849892771,
      "lon": 23.65521989854291,
      "geoinfo": {
        "display_name": "Meža ceļš, Bemberi, Līnijas, Jelgava, LV-3003, Latvia",
        "road": "Meža ceļš",
        "house_number": null,
        "neighbourhood": "Bemberi",
        "suburb": "Līnijas",
        "city_district": null,
        "city": "Jelgava",
        "state": null,
        "postcode": "LV-3003",
        "country": "Latvia",
        "country_code": "lv"
      },
      "address": "257, Meža ceļš, Bemberi, Līnijas, Jelgava, LV-3003, Latvia"
    },
    {
      "lat": 56.63559472824715,
      "lon": 23.677335668074047,
      "geoinfo": {
        "display_name": "2, Malienas iela, Būriņu dārzi, Jelgava, LV-3008, Latvia",
        "road": "Malienas iela",
        "house_number": "2",
        "neighbourhood": null,
        "suburb": "Būriņu dārzi",
        "city_district": null,
        "city": "Jelgava",
        "state": null,
        "postcode": "LV-3008",
        "country": "Latvia",
        "country_code": "lv"
      },
      "address": "2, Malienas iela, Būriņu dārzi, Jelgava, LV-3008, Latvia"
    }
  ],
  "updated_at": "2025-10-19T05:52:06.503261+00:00",
  "_kind": "geo_samples"
}