{
  "country_code": "LV",
  "country": "Latvia",
  "city": "Jūrmala",
  "geonameid": 459201,
  "target_addresses": 8,
  "samples": [
    {
      "lat": 56.94889107039396,
      "lon": 23.834288646861253,
      "geoinfo": {
        "display_name": "Peonijas, Varkaļi, Salas pagasts, Mārupes novads, LV-2015, Latvia",
        "road": null,
        "house_number": null,
        "neighbourhood": null,
        "suburb": null,
        "city_district": null,
        "city": "Salas pagasts",
        "state": null,
        "postcode": "LV-2015",
        "country": "Latvia",
        "country_code": "lv"
      },
      "address": "Jūrmala, Latvia"
    },
    {
      "lat": 56.98260243532465,
      "lon": 23.813680103090256,
      "geoinfo": {
        "display_name": "Dzintaru koncertzāles parks, Smiltenes iela, Majori, Jūrmala, LV-2015, Latvia",
        "road": "Smiltenes iela",
        "house_number": null,
        "neighbourhood": null,
        "suburb": "Majori",
        "city_district": null,
        "city": "Jūrmala",
        "state": null,
        "postcode": "LV-2015",
        "country": "Latvia",
        "country_code": "lv"
      },
      "address": "Smiltenes iela, Jūrmala, Latvia"
    },
    {
      "lat": 56.96401968313438,
      "lon": 23.79995424256808,
      "geoinfo": {
        "display_name": "Brenči, Lienes iela, Majori, Jūrmala, Mārupes novads, LV-2105, Latvia",
        "road": "Lienes iela",
        "house_number": null,
        "neighbourhood": null,
        "suburb": "Majori",
        "city_district": null,
        "city": "Jūrmala",
        "state": null,
        "postcode": "LV-2105",
        "country": "Latvia",
        "country_code": "lv"
      },
      "address": "Lienes iela, Jūrmala, Latvia"
    },
    {
      "lat": 56.976415483270394,
      "lon": 23.817835085598972,
      "geoinfo": {
        "display_name": "Dzintari 1510, Skrituļošanas trase, Dzintari, Jūrmala, LV-2015, Latvia",
        "road": "Skrituļošanas trase",
        "house_number": null,
        "neighbourhood": null,
        "suburb": "Dzintari",
        "city_district": null,
        "city": "Jūrmala",
        "state": null,
        "postcode": "LV-2015",
        "country": "Latvia",
        "country_code": "lv"
      },
      "address": "Skrituļošanas trase, Jūrmala, Latvia"
    },
    {
      "lat": 56.94934427245804,
      "lon": 23.772942770362825,
      "geoinfo": {
        "display_name": "Salas iela, Dubulti, Jūrmala, LV-2015, Latvia",
        "road": "Salas iela",
        "house_number": null,
        "neighbourhood": null,
        "suburb": "Dubulti",
        "city_district": null,
        "city": "Jūrmala",
        "state": null,
        "postcode": "LV-2015",
        "country": "Latvia",
        "country_code": "lv"
      },
      "address": "Salas iela, Jūrmala, Latvia"
    },
    {
      "lat": 56.95371520744106,
      "lon": 23.735399530745017,
      "geoinfo": {
        "display_name": "Skuju iela, Druvciems, Jūrmala, LV-2008, Latvia",
        "road": "Skuju iela",
        "house_number": null,
        "neighbourhood": null,
        "suburb": "Druvciems",
        "city_district": null,
        "city": "Jūrmala",
        "state": null,
        "postcode": "LV-2008",
        "country": "Latvia",
        "country_code": "lv"
      },
      "address": "Skuju iela, Jūrmala, Latvia"
    },
    {
      "lat": 56.92854441365084,
      "lon": 23.751269980096982,
      "geoinfo": {
        "display_name": "Jaunspunnīši, Rīga — Ventspils, Varkaļi, Salas pagasts, Mārupes novads, LV-2105, Latvia",
        "road": "Rīga — Ventspils",
        "house_number": null,
        "neighbourhood": null,
        "suburb": null,
        "city_district": null,
        "city": "Salas pagasts",
        "state": null,
        "postcode": "LV-2105",
        "country": "Latvia",
        "country_code": "lv"
      },
      "address": "Rīga — Ventspils, Jūrmala, Latvia"
    },
    {
      "lat": 56.953625790515524,
      "lon": 23.71612358673961,
      "geoinfo": {
        "display_name": "43, Kanālu iela, Melluži, Jūrmala, LV-2008, Latvia",
        "road": "Kanālu iela",
        "house_number": "43",
        "neighbourhood": null,
        "suburb": "Melluži",
        "city_district": null,
        "city": "Jūrmala",
        "state": null,
        "postcode": "LV-2008",
        "country": "Latvia",
        "country_code": "lv"
      },
      "address": "43 Kanālu iela, Jūrmala, Latvia"
    }
  ],
  "updated_at": "2025-10-16T18:37:50.465993+00:00",
  "_kind": "geo_samples"
}