{
  "country_code": "LV",
  "country": "Latvia",
  "city": "Liepāja",
  "geonameid": 457954,
  "target_addresses": 8,
  "samples": [
    {
      "lat": 56.52250326207198,
      "lon": 20.93972977728543,
      "geoinfo": {
        "display_name": "Latvia",
        "road": null,
        "house_number": null,
        "neighbourhood": null,
        "suburb": null,
        "city_district": null,
        "city": null,
        "state": null,
        "postcode": null,
        "country": "Latvia",
        "country_code": "lv"
      },
      "address": "Liepāja, Latvia"
    },
    {
      "lat": 56.488247599646215,
      "lon": 20.978657999737766,
      "geoinfo": {
        "display_name": "Southwestern district, Liepaja, LV-3416, Latvia",
        "road": null,
        "house_number": null,
        "neighbourhood": null,
        "suburb": "Southwestern district",
        "city_district": null,
        "city": "Liepaja",
        "state": null,
        "postcode": "LV-3416",
        "country": "Latvia",
        "country_code": "lv"
      },
      "address": "Southwestern district, Liepāja, Latvia"
    },
    {
      "lat": 56.49302969494471,
      "lon": 21.00822794563425,
      "geoinfo": {
        "display_name": "37, Cenkones iela, Southwestern district, Liepaja, LV-3411, Latvia",
        "road": "Cenkones iela",
        "house_number": "37",
        "neighbourhood": null,
        "suburb": "Southwestern district",
        "city_district": null,
        "city": "Liepaja",
        "state": null,
        "postcode": "LV-3411",
        "country": "Latvia",
        "country_code": "lv"
      },
      "address": "37 Cenkones iela, Liepāja, Latvia"
    },
    {
      "lat": 56.532778572720844,
      "lon": 21.059474421830707,
      "geoinfo": {
        "display_name": "Cukura iela, Jaunā pasaule, Liepaja, LV-3414, Latvia",
        "road": "Cukura iela",
        "house_number": null,
        "neighbourhood": null,
        "suburb": "Jaunā pasaule",
        "city_district": null,
        "city": "Liepaja",
        "state": null,
        "postcode": "LV-3414",
        "country": "Latvia",
        "country_code": "lv"
      },
      "address": "Cukura iela, Liepāja, Latvia"
    },
    {
      "lat": 56.52740050462577,
      "lon": 21.054097764142828,
      "geoinfo": {
        "display_name": "Dzelzsgriezēja iela, Liepājas Industriālais parks, Jaunā pasaule, Liepaja, LV-3414, Latvia",
        "road": "Dzelzsgriezēja iela",
        "house_number": null,
        "neighbourhood": null,
        "suburb": "Jaunā pasaule",
        "city_district": null,
        "city": "Liepaja",
        "state": null,
        "postcode": "LV-3414",
        "country": "Latvia",
        "country_code": "lv"
      },
      "address": "Dzelzsgriezēja iela, Liepāja, Latvia"
    },
    {
      "lat": 56.52623863735301,
      "lon": 21.06051460440571,
      "geoinfo": {
        "display_name": "11, Meldru iela, Jaunā pasaule, Liepaja, LV-3401, Latvia",
        "road": "Meldru iela",
        "house_number": "11",
        "neighbourhood": null,
        "suburb": "Jaunā pasaule",
        "city_district": null,
        "city": "Liepaja",
        "state": null,
        "postcode": "LV-3401",
        "country": "Latvia",
        "country_code": "lv"
      },
      "address": "11 Meldru iela, Liepāja, Latvia"
    },
    {
      "lat": 56.49659585159551,
      "lon": 21.01883418102384,
      "geoinfo": {
        "display_name": "118A, Zirņu iela, Ezerkrasts, Liepaja, LV-3411, Latvia",
        "road": "Zirņu iela",
        "house_number": "118A",
        "neighbourhood": null,
        "suburb": "Ezerkrasts",
        "city_district": null,
        "city": "Liepaja",
        "state": null,
        "postcode": "LV-3411",
        "country": "Latvia",
        "country_code": "lv"
      },
      "address": "118A Zirņu iela, Liepāja, Latvia"
    },
    {
      "lat": 56.51315717035565,
      "lon": 21.04065805467073,
      "geoinfo": {
        "display_name": "Zirgu sala, Jaunā pasaule, Liepaja, LV-3405, Latvia",
        "road": "Zirgu sala",
        "house_number": null,
        "neighbourhood": null,
        "suburb": "Jaunā pasaule",
        "city_district": null,
        "city": "Liepaja",
        "state": null,
        "postcode": "LV-3405",
        "country": "Latvia",
        "country_code": "lv"
      },
      "address": "Zirgu sala, Liepāja, Latvia"
    },
    {
      "lat": 56.5159812057141,
      "lon": 21.053082968355955,
      "geoinfo": {
        "display_name": "Jaunā pasaule, Liepaja, LV-3414, Latvia",
        "road": null,
        "house_number": null,
        "neighbourhood": null,
        "suburb": "Jaunā pasaule",
        "city_district": null,
        "city": "Liepaja",
        "state": null,
        "postcode": "LV-3414",
        "country": "Latvia",
        "country_code": "lv"
      },
      "address": "111, Jaunā pasaule, LV-3414 Liepāja, Latvia"
    },
    {
      "lat": 56.51948367769287,
      "lon": 21.05827308319385,
      "geoinfo": {
        "display_name": "11, Meldru iela, Jaunā pasaule, Liepaja, LV-3401, Latvia",
        "road": "Meldru iela",
        "house_number": "11",
        "neighbourhood": null,
        "suburb": "Jaunā pasaule",
        "city_district": null,
        "city": "Liepaja",
        "state": null,
        "postcode": "LV-3401",
        "country": "Latvia",
        "country_code": "lv"
      },
      "address": "11, Meldru iela, LV-3401 Liepāja, Latvia"
    },
    {
      "lat": 56.499059653433584,
      "lon": 20.969451840725217,
      "geoinfo": {
        "display_name": "Southwestern district, Liepaja, LV-3416, Latvia",
        "road": null,
        "house_number": null,
        "neighbourhood": null,
        "suburb": "Southwestern district",
        "city_district": null,
        "city": "Liepaja",
        "state": null,
        "postcode": "LV-3416",
        "country": "Latvia",
        "country_code": "lv"
      },
      "address": "099, Southwestern district, LV-3416 Liepāja, Latvia"
    },
    {
      "lat": 56.523228497840265,
      "lon": 20.974220943120525,
      "geoinfo": {
        "display_name": "Roņu iela, Liepaja, LV-3401, Latvia",
        "road": "Roņu iela",
        "house_number": null,
        "neighbourhood": null,
        "suburb": null,
        "city_district": null,
        "city": "Liepaja",
        "state": null,
        "postcode": "LV-3401",
        "country": "Latvia",
        "country_code": "lv"
      },
      "address": "401, Roņu iela, LV-3401 Liepāja, Latvia"
    },
    {
      "lat": 56.4826503039696,
      "lon": 21.040463068262216,
      "geoinfo": {
        "display_name": "Ezerkrasts, Liepaja, LV-3407, Latvia",
        "road": null,
        "house_number": null,
        "neighbourhood": null,
        "suburb": "Ezerkrasts",
        "city_district": null,
        "city": "Liepaja",
        "state": null,
        "postcode": "LV-3407",
        "country": "Latvia",
        "country_code": "lv"
      },
      "address": "202, Ezerkrasts, LV-3407 Liepāja, Latvia"
    },
    {
      "lat": 56.52955540856849,
      "lon": 21.012308136452855,
      "geoinfo": {
        "display_name": "32, Krūmu iela, Ziemeļu priekšpilsēta, Liepaja, LV-3405, Latvia",
        "road": "Krūmu iela",
        "house_number": "32",
        "neighbourhood": null,
        "suburb": "Ziemeļu priekšpilsēta",
        "city_district": null,
        "city": "Liepaja",
        "state": null,
        "postcode": "LV-3405",
        "country": "Latvia",
        "country_code": "lv"
      },
      "address": "32, Krūmu iela, LV-3405 Liepāja, Latvia"
    },
    {
      "lat": 56.5408740503214,
      "lon": 21.026113113426216,
      "geoinfo": {
        "display_name": "Pulvera iela, Ziemeļu priekšpilsēta, Liepaja, LV-3405, Latvia",
        "road": "Pulvera iela",
        "house_number": null,
        "neighbourhood": null,
        "suburb": "Ziemeļu priekšpilsēta",
        "city_district": null,
        "city": "Liepaja",
        "state": null,
        "postcode": "LV-3405",
        "country": "Latvia",
        "country_code": "lv"
      },
      "address": "658, Pulvera iela, LV-3405 Liepāja, Latvia"
    },
    {
      "lat": 56.536168288636176,
      "lon": 21.014522274036,
      "geoinfo": {
        "display_name": "Lauma, 19, Ziemeļu iela, Ziemeļu priekšpilsēta, Liepaja, LV-3405, Latvia",
        "road": "Ziemeļu iela",
        "house_number": "19",
        "neighbourhood": null,
        "suburb": "Ziemeļu priekšpilsēta",
        "city_district": null,
        "city": "Liepaja",
        "state": null,
        "postcode": "LV-3405",
        "country": "Latvia",
        "country_code": "lv"
      },
      "address": "19, Ziemeļu iela, LV-3405 Liepāja, Latvia"
    }
  ],
  "updated_at": "2025-10-19T04:10:41.441410+00:00",
  "_kind": "geo_samples"
}