{
  "country_code": "LV",
  "country": "Latvia",
  "city": "Riga",
  "geonameid": 456172,
  "target_addresses": 8,
  "samples": [
    {
      "lat": 56.9452803296346,
      "lon": 24.031959424859895,
      "geoinfo": {
        "display_name": "6 k-3, Jūrkalnes iela, Šampēteris, Imantas apkaime, Riga, LV-1046, Latvia",
        "road": "Jūrkalnes iela",
        "house_number": "6 k-3",
        "neighbourhood": null,
        "suburb": "Šampēteris",
        "city_district": "Imantas apkaime",
        "city": "Riga",
        "state": null,
        "postcode": "LV-1046",
        "country": "Latvia",
        "country_code": "lv"
      },
      "address": "6 k-3, Jūrkalnes iela, Šampēteris, Imantas apkaime, Riga, LV-1046, Latvia"
    },
    {
      "lat": 56.92662923900727,
      "lon": 24.070556809572636,
      "geoinfo": {
        "display_name": "15, Gardenes iela, Āgenskalns, Āgenskalna apkaime, Riga, LV-1002, Latvia",
        "road": "Gardenes iela",
        "house_number": "15",
        "neighbourhood": null,
        "suburb": "Āgenskalns",
        "city_district": "Āgenskalna apkaime",
        "city": "Riga",
        "state": null,
        "postcode": "LV-1002",
        "country": "Latvia",
        "country_code": "lv"
      },
      "address": "15, Gardenes iela, Āgenskalns, Āgenskalna apkaime, Riga, LV-1002, Latvia"
    },
    {
      "lat": 56.95625156887585,
      "lon": 24.166713015343323,
      "geoinfo": {
        "display_name": "2, Vējavas iela, Purvciems, Teikas apkaime, Riga, LV-1035, Latvia",
        "road": "Vējavas iela",
        "house_number": "2",
        "neighbourhood": null,
        "suburb": "Purvciems",
        "city_district": "Teikas apkaime",
        "city": "Riga",
        "state": null,
        "postcode": "LV-1035",
        "country": "Latvia",
        "country_code": "lv"
      },
      "address": "2, Vējavas iela, Purvciems, Teikas apkaime, Riga, LV-1035, Latvia"
    },
    {
      "lat": 56.91636730080375,
      "lon": 24.07057057881178,
      "geoinfo": {
        "display_name": "1A, Imulas iela, Bieriņi, Āgenskalna apkaime, Riga, LV-1058, Latvia",
        "road": "Imulas iela",
        "house_number": "1A",
        "neighbourhood": null,
        "suburb": "Bieriņi",
        "city_district": "Āgenskalna apkaime",
        "city": "Riga",
        "state": null,
        "postcode": "LV-1058",
        "country": "Latvia",
        "country_code": "lv"
      },
      "address": "1A, Imulas iela, Bieriņi, Āgenskalna apkaime, Riga, LV-1058, Latvia"
    },
    {
      "lat": 56.92644348025107,
      "lon": 24.14216245402492,
      "geoinfo": {
        "display_name": "Saulrieta krastmala, Latgale neighborhood, Latgales apkaime, Riga, LV-1003, Latvia",
        "road": "Saulrieta krastmala",
        "house_number": null,
        "neighbourhood": null,
        "suburb": "Latgale neighborhood",
        "city_district": "Latgales apkaime",
        "city": "Riga",
        "state": null,
        "postcode": "LV-1003",
        "country": "Latvia",
        "country_code": "lv"
      },
      "address": "961, Saulrieta krastmala, Latgale neighborhood, Latgales apkaime, Riga, LV-1003, Latvia"
    },
    {
      "lat": 56.96040042369509,
      "lon": 24.182696259339846,
      "geoinfo": {
        "display_name": "82A, Ūnijas iela, Purvciems, Teikas apkaime, Riga, LV-1084, Latvia",
        "road": "Ūnijas iela",
        "house_number": "82A",
        "neighbourhood": null,
        "suburb": "Purvciems",
        "city_district": "Teikas apkaime",
        "city": "Riga",
        "state": null,
        "postcode": "LV-1084",
        "country": "Latvia",
        "country_code": "lv"
      },
      "address": "82A, Ūnijas iela, Purvciems, Teikas apkaime, Riga, LV-1084, Latvia"
    },
    {
      "lat": 56.96736655047726,
      "lon": 24.12137737379882,
      "geoinfo": {
        "display_name": "Xiaomi Arēna, 21, Skanstes iela, Skanste, Centra apkaime, Riga, LV-1013, Latvia",
        "road": "Skanstes iela",
        "house_number": "21",
        "neighbourhood": null,
        "suburb": "Skanste",
        "city_district": "Centra apkaime",
        "city": "Riga",
        "state": null,
        "postcode": "LV-1013",
        "country": "Latvia",
        "country_code": "lv"
      },
      "address": "Xiaomi Arēna, 21, Skanstes iela, Skanste, Centra apkaime, Riga, LV-1013, Latvia"
    },
    {
      "lat": 56.92376542438238,
      "lon": 24.063472201791704,
      "geoinfo": {
        "display_name": "16A, Ugāles iela, Petriņciems, Bieriņi, Āgenskalna apkaime, Riga, LV-1002, Latvia",
        "road": "Ugāles iela",
        "house_number": "16A",
        "neighbourhood": "Petriņciems",
        "suburb": "Bieriņi",
        "city_district": "Āgenskalna apkaime",
        "city": "Riga",
        "state": null,
        "postcode": "LV-1002",
        "country": "Latvia",
        "country_code": "lv"
      },
      "address": "16A, Ugāles iela, Petriņciems, Bieriņi, Āgenskalna apkaime, Riga, LV-1002, Latvia"
    }
  ],
  "updated_at": "2025-10-19T05:11:50.120804+00:00",
  "_kind": "geo_samples"
}