{
  "country_code": "LV",
  "country": "Latvia",
  "city": "Ventspils",
  "geonameid": 454310,
  "target_addresses": 39,
  "samples": [
    {
      "lat": 57.37487248790317,
      "lon": 21.626102358465342,
      "geoinfo": {
        "display_name": "Krievlauki, Tārgales pagasts, Ventspils novads, LV-3621, Latvia",
        "road": null,
        "house_number": null,
        "neighbourhood": null,
        "suburb": null,
        "city_district": null,
        "city": "Tārgales pagasts",
        "state": null,
        "postcode": "LV-3621",
        "country": "Latvia",
        "country_code": "lv"
      },
      "address": "Ventspils, Latvia"
    },
    {
      "lat": 57.40873712362811,
      "lon": 21.633096079232683,
      "geoinfo": {
        "display_name": "Mauru ceļš, Maurciems, Ventspils, LV-3601, Latvia",
        "road": "Mauru ceļš",
        "house_number": null,
        "neighbourhood": null,
        "suburb": "Maurciems",
        "city_district": null,
        "city": "Ventspils",
        "state": null,
        "postcode": "LV-3601",
        "country": "Latvia",
        "country_code": "lv"
      },
      "address": "Mauru ceļš, Ventspils, Latvia"
    },
    {
      "lat": 57.38522272958566,
      "lon": 21.531719464010315,
      "geoinfo": {
        "display_name": "8, Vasarnīcu rajons, Ventspils, Latvia",
        "road": "8",
        "house_number": null,
        "neighbourhood": null,
        "suburb": "Vasarnīcu rajons",
        "city_district": null,
        "city": "Ventspils",
        "state": null,
        "postcode": null,
        "country": "Latvia",
        "country_code": "lv"
      },
      "address": "8, Ventspils, Latvia"
    },
    {
      "lat": 57.42083284947665,
      "lon": 21.537101979106485,
      "geoinfo": {
        "display_name": "Ostgals, Ventspils, Latvia",
        "road": null,
        "house_number": null,
        "neighbourhood": null,
        "suburb": "Ostgals",
        "city_district": null,
        "city": "Ventspils",
        "state": null,
        "postcode": null,
        "country": "Latvia",
        "country_code": "lv"
      },
      "address": "Ostgals, Ventspils, Latvia"
    },
    {
      "lat": 57.40127420412244,
      "lon": 21.540661203257887,
      "geoinfo": {
        "display_name": "Dzintaru iela, Ostgals, Ventspils, LV-3602, Latvia",
        "road": "Dzintaru iela",
        "house_number": null,
        "neighbourhood": null,
        "suburb": "Ostgals",
        "city_district": null,
        "city": "Ventspils",
        "state": null,
        "postcode": "LV-3602",
        "country": "Latvia",
        "country_code": "lv"
      },
      "address": "Dzintaru iela, Ventspils, Latvia"
    },
    {
      "lat": 57.35772582568534,
      "lon": 21.55366031757482,
      "geoinfo": {
        "display_name": "88A, Zvaigžņu iela, Dampeļi, Ventspils, LV-3601, Latvia",
        "road": "Zvaigžņu iela",
        "house_number": "88A",
        "neighbourhood": null,
        "suburb": "Dampeļi",
        "city_district": null,
        "city": "Ventspils",
        "state": null,
        "postcode": "LV-3601",
        "country": "Latvia",
        "country_code": "lv"
      },
      "address": "88A Zvaigžņu iela, Ventspils, Latvia"
    },
    {
      "lat": 57.39622824640177,
      "lon": 21.508370094331713,
      "geoinfo": {
        "display_name": "Vasarnīcu rajons, Ventspils, Latvia",
        "road": null,
        "house_number": null,
        "neighbourhood": null,
        "suburb": "Vasarnīcu rajons",
        "city_district": null,
        "city": "Ventspils",
        "state": null,
        "postcode": null,
        "country": "Latvia",
        "country_code": "lv"
      },
      "address": "Vasarnīcu rajons, Ventspils, Latvia"
    },
    {
      "lat": 57.41458547643825,
      "lon": 21.602515820103402,
      "geoinfo": {
        "display_name": "71A, Talsu iela, Jukumciems, Ventspils, LV-3602, Latvia",
        "road": "Talsu iela",
        "house_number": "71A",
        "neighbourhood": null,
        "suburb": "Jukumciems",
        "city_district": null,
        "city": "Ventspils",
        "state": null,
        "postcode": "LV-3602",
        "country": "Latvia",
        "country_code": "lv"
      },
      "address": "71A Talsu iela, Ventspils, Latvia"
    },
    {
      "lat": 57.37385605167346,
      "lon": 21.509620435870705,
      "geoinfo": {
        "display_name": "Cirpstene, Vārves pagasts, Ventspils novads, Latvia",
        "road": null,
        "house_number": null,
        "neighbourhood": null,
        "suburb": null,
        "city_district": null,
        "city": "Vārves pagasts",
        "state": null,
        "postcode": null,
        "country": "Latvia",
        "country_code": "lv"
      },
      "address": "Cirpstene, Vārves pagasts, 86834 Ventspils novads, Latvia"
    },
    {
      "lat": 57.40193994196285,
      "lon": 21.55600950676843,
      "geoinfo": {
        "display_name": "Dzintaru iela, Ostgals, Ventspils, LV-3602, Latvia",
        "road": "Dzintaru iela",
        "house_number": null,
        "neighbourhood": null,
        "suburb": "Ostgals",
        "city_district": null,
        "city": "Ventspils",
        "state": null,
        "postcode": "LV-3602",
        "country": "Latvia",
        "country_code": "lv"
      },
      "address": "Dzintaru iela, Ostgals, Ventspils, LV-3602, Latvia"
    },
    {
      "lat": 57.39097104950711,
      "lon": 21.55693967236824,
      "geoinfo": {
        "display_name": "29, Meža iela, Jaunpilsēta, Ventspils, LV-3601, Latvia",
        "road": "Meža iela",
        "house_number": "29",
        "neighbourhood": null,
        "suburb": "Jaunpilsēta",
        "city_district": null,
        "city": "Ventspils",
        "state": null,
        "postcode": "LV-3601",
        "country": "Latvia",
        "country_code": "lv"
      },
      "address": "29, Meža iela, Jaunpilsēta, Ventspils, LV-3601, Latvia"
    },
    {
      "lat": 57.421032703098795,
      "lon": 21.59125074079866,
      "geoinfo": {
        "display_name": "75F, Talsu iela, Jukumciems, Ventspils, LV-3602, Latvia",
        "road": "Talsu iela",
        "house_number": "75F",
        "neighbourhood": null,
        "suburb": "Jukumciems",
        "city_district": null,
        "city": "Ventspils",
        "state": null,
        "postcode": "LV-3602",
        "country": "Latvia",
        "country_code": "lv"
      },
      "address": "75F, Talsu iela, Jukumciems, Ventspils, LV-3602, Latvia"
    },
    {
      "lat": 57.39748673566385,
      "lon": 21.62810439064867,
      "geoinfo": {
        "display_name": "79, Kurzemes iela, Maurciems, Ventspils, LV-3601, Latvia",
        "road": "Kurzemes iela",
        "house_number": "79",
        "neighbourhood": null,
        "suburb": "Maurciems",
        "city_district": null,
        "city": "Ventspils",
        "state": null,
        "postcode": "LV-3601",
        "country": "Latvia",
        "country_code": "lv"
      },
      "address": "79, Kurzemes iela, Maurciems, Ventspils, LV-3601, Latvia"
    },
    {
      "lat": 57.42146983203864,
      "lon": 21.589908158477726,
      "geoinfo": {
        "display_name": "75F, Talsu iela, Jukumciems, Ventspils, LV-3602, Latvia",
        "road": "Talsu iela",
        "house_number": "75F",
        "neighbourhood": null,
        "suburb": "Jukumciems",
        "city_district": null,
        "city": "Ventspils",
        "state": null,
        "postcode": "LV-3602",
        "country": "Latvia",
        "country_code": "lv"
      },
      "address": "75F, Talsu iela, Jukumciems, Ventspils, LV-3602, Latvia"
    },
    {
      "lat": 57.36915787031685,
      "lon": 21.568534665919074,
      "geoinfo": {
        "display_name": "189, Kuldīgas iela, Gāliņciems, Ventspils, LV-3601, Latvia",
        "road": "Kuldīgas iela",
        "house_number": "189",
        "neighbourhood": null,
        "suburb": "Gāliņciems",
        "city_district": null,
        "city": "Ventspils",
        "state": null,
        "postcode": "LV-3601",
        "country": "Latvia",
        "country_code": "lv"
      },
      "address": "189, Kuldīgas iela, Gāliņciems, Ventspils, LV-3601, Latvia"
    },
    {
      "lat": 57.42079272926567,
      "lon": 21.593987528682053,
      "geoinfo": {
        "display_name": "Vecais Staldzenes ceļš, Ventspils Nafta, Jukumciems, Ventspils, LV-3602, Latvia",
        "road": "Vecais Staldzenes ceļš",
        "house_number": null,
        "neighbourhood": null,
        "suburb": "Jukumciems",
        "city_district": null,
        "city": "Ventspils",
        "state": null,
        "postcode": "LV-3602",
        "country": "Latvia",
        "country_code": "lv"
      },
      "address": "402, Vecais Staldzenes ceļš, Ventspils Nafta, Jukumciems, Ventspils, LV-3602, Latvia"
    },
    {
      "lat": 57.41660495031215,
      "lon": 21.599928360807812,
      "geoinfo": {
        "display_name": "69A, Talsu iela, Jukumciems, Ventspils, LV-3602, Latvia",
        "road": "Talsu iela",
        "house_number": "69A",
        "neighbourhood": null,
        "suburb": "Jukumciems",
        "city_district": null,
        "city": "Ventspils",
        "state": null,
        "postcode": "LV-3602",
        "country": "Latvia",
        "country_code": "lv"
      },
      "address": "69A, Talsu iela, Jukumciems, Ventspils, LV-3602, Latvia"
    },
    {
      "lat": 57.37732896898273,
      "lon": 21.592630918459342,
      "geoinfo": {
        "display_name": "Virves iela, Krasta Street, Krēķciems, Ventspils, LV-3601, Latvia",
        "road": "Krasta Street",
        "house_number": null,
        "neighbourhood": "Krēķciems",
        "suburb": "Krēķciems",
        "city_district": null,
        "city": "Ventspils",
        "state": null,
        "postcode": "LV-3601",
        "country": "Latvia",
        "country_code": "lv"
      },
      "address": "299, Krasta Street, LV-3601 Ventspils, Latvia"
    },
    {
      "lat": 57.402736895614694,
      "lon": 21.561636199206237,
      "geoinfo": {
        "display_name": "39A, Dzintaru iela, Vecpilsēta, Ventspils, LV-3602, Latvia",
        "road": "Dzintaru iela",
        "house_number": "39A",
        "neighbourhood": null,
        "suburb": "Vecpilsēta",
        "city_district": null,
        "city": "Ventspils",
        "state": null,
        "postcode": "LV-3602",
        "country": "Latvia",
        "country_code": "lv"
      },
      "address": "39A, Dzintaru iela, Vecpilsēta, Ventspils, LV-3602, Latvia"
    },
    {
      "lat": 57.36993799677637,
      "lon": 21.605671922971542,
      "geoinfo": {
        "display_name": "19 k-290, Kraujas iela, Packule, Ventspils, LV-3601, Latvia",
        "road": "Kraujas iela",
        "house_number": "19 k-290",
        "neighbourhood": null,
        "suburb": "Packule",
        "city_district": null,
        "city": "Ventspils",
        "state": null,
        "postcode": "LV-3601",
        "country": "Latvia",
        "country_code": "lv"
      },
      "address": "19 k-290, Kraujas iela, Packule, Ventspils, LV-3601, Latvia"
    },
    {
      "lat": 57.40763395414402,
      "lon": 21.615752391415054,
      "geoinfo": {
        "display_name": "Ventspils Augsto tehnoloģiju parks, Zaķciems, Ventspils, LV-3602, Latvia",
        "road": "Ventspils Augsto tehnoloģiju parks",
        "house_number": null,
        "neighbourhood": null,
        "suburb": "Zaķciems",
        "city_district": null,
        "city": "Ventspils",
        "state": null,
        "postcode": "LV-3602",
        "country": "Latvia",
        "country_code": "lv"
      },
      "address": "674, Ventspils Augsto tehnoloģiju parks, Zaķciems, Ventspils, LV-3602, Latvia"
    },
    {
      "lat": 57.373265426301515,
      "lon": 21.598176046024562,
      "geoinfo": {
        "display_name": "9, Pīlādžu iela, Krēķciems, Ventspils, LV-3601, Latvia",
        "road": "Pīlādžu iela",
        "house_number": "9",
        "neighbourhood": "Krēķciems",
        "suburb": "Krēķciems",
        "city_district": null,
        "city": "Ventspils",
        "state": null,
        "postcode": "LV-3601",
        "country": "Latvia",
        "country_code": "lv"
      },
      "address": "9, Pīlādžu iela, Krēķciems, Ventspils, LV-3601, Latvia"
    },
    {
      "lat": 57.36049710106916,
      "lon": 21.512387462264552,
      "geoinfo": {
        "display_name": "Cirpstenes ceļš 2, Cirpstene, Vārves pagasts, Ventspils novads, Latvia",
        "road": "Cirpstenes ceļš 2",
        "house_number": null,
        "neighbourhood": null,
        "suburb": null,
        "city_district": null,
        "city": "Vārves pagasts",
        "state": null,
        "postcode": null,
        "country": "Latvia",
        "country_code": "lv"
      },
      "address": "Cirpstenes ceļš 2, Cirpstene, Vārves pagasts, 26258 Ventspils novads, Latvia"
    },
    {
      "lat": 57.43064725906716,
      "lon": 21.597485248833593,
      "geoinfo": {
        "display_name": "Selgas iela, Staldzene, Ventspils, LV-3604, Latvia",
        "road": "Selgas iela",
        "house_number": null,
        "neighbourhood": null,
        "suburb": "Staldzene",
        "city_district": null,
        "city": "Ventspils",
        "state": null,
        "postcode": "LV-3604",
        "country": "Latvia",
        "country_code": "lv"
      },
      "address": "737, Selgas iela, Staldzene, Ventspils, LV-3604, Latvia"
    },
    {
      "lat": 57.3924670955406,
      "lon": 21.552639029645604,
      "geoinfo": {
        "display_name": "Jūras iela, Pilsētas centrs, Ventspils, LV-3602, Latvia",
        "road": "Jūras iela",
        "house_number": null,
        "neighbourhood": null,
        "suburb": "Pilsētas centrs",
        "city_district": null,
        "city": "Ventspils",
        "state": null,
        "postcode": "LV-3602",
        "country": "Latvia",
        "country_code": "lv"
      },
      "address": "902, Jūras iela, Pilsētas centrs, Ventspils, LV-3602, Latvia"
    },
    {
      "lat": 57.4143465938672,
      "lon": 21.51658869353088,
      "geoinfo": {
        "display_name": "Ostgals, Ventspils, Latvia",
        "road": null,
        "house_number": null,
        "neighbourhood": null,
        "suburb": "Ostgals",
        "city_district": null,
        "city": "Ventspils",
        "state": null,
        "postcode": null,
        "country": "Latvia",
        "country_code": "lv"
      },
      "address": "948, Ostgals, 74564 Ventspils, Latvia"
    },
    {
      "lat": 57.391446212366674,
      "lon": 21.56390692590016,
      "geoinfo": {
        "display_name": "43/45, Kuldīgas iela, Pilsētas centrs, Ventspils, LV-3601, Latvia",
        "road": "Kuldīgas iela",
        "house_number": "43/45",
        "neighbourhood": null,
        "suburb": "Pilsētas centrs",
        "city_district": null,
        "city": "Ventspils",
        "state": null,
        "postcode": "LV-3601",
        "country": "Latvia",
        "country_code": "lv"
      },
      "address": "43/45, Kuldīgas iela, Pilsētas centrs, Ventspils, LV-3601, Latvia"
    },
    {
      "lat": 57.354383733622115,
      "lon": 21.58025206279082,
      "geoinfo": {
        "display_name": "Vilki, Līņu iela, Pasiekste, Vārves pagasts, Ventspils novads, LV-3623, Latvia",
        "road": "Līņu iela",
        "house_number": null,
        "neighbourhood": null,
        "suburb": null,
        "city_district": null,
        "city": "Vārves pagasts",
        "state": null,
        "postcode": "LV-3623",
        "country": "Latvia",
        "country_code": "lv"
      },
      "address": "634, Līņu iela, LV-3623 Ventspils, Latvia"
    },
    {
      "lat": 57.41562666722256,
      "lon": 21.51707408941567,
      "geoinfo": {
        "display_name": "Ostgals, Ventspils, Latvia",
        "road": null,
        "house_number": null,
        "neighbourhood": null,
        "suburb": "Ostgals",
        "city_district": null,
        "city": "Ventspils",
        "state": null,
        "postcode": null,
        "country": "Latvia",
        "country_code": "lv"
      },
      "address": "103, Ostgals, 98533 Ventspils, Latvia"
    },
    {
      "lat": 57.389392230749195,
      "lon": 21.631711924380554,
      "geoinfo": {
        "display_name": "Mazskaras, Ventspils pievedceļš, Tārgales pagasts, Ventspils novads, LV-3621, Latvia",
        "road": "Ventspils pievedceļš",
        "house_number": null,
        "neighbourhood": null,
        "suburb": null,
        "city_district": null,
        "city": "Tārgales pagasts",
        "state": null,
        "postcode": "LV-3621",
        "country": "Latvia",
        "country_code": "lv"
      },
      "address": "961, Ventspils pievedceļš, LV-3621 Ventspils, Latvia"
    },
    {
      "lat": 57.42294628030131,
      "lon": 21.593070770366587,
      "geoinfo": {
        "display_name": "Vecais Staldzenes ceļš, Ventspils Nafta, Jukumciems, Ventspils, LV-3602, Latvia",
        "road": "Vecais Staldzenes ceļš",
        "house_number": null,
        "neighbourhood": null,
        "suburb": "Jukumciems",
        "city_district": null,
        "city": "Ventspils",
        "state": null,
        "postcode": "LV-3602",
        "country": "Latvia",
        "country_code": "lv"
      },
      "address": "189, Vecais Staldzenes ceļš, Ventspils Nafta, Jukumciems, Ventspils, LV-3602, Latvia"
    },
    {
      "lat": 57.37934874385112,
      "lon": 21.58020752162241,
      "geoinfo": {
        "display_name": "11, Augusta iela, Kurpniekciems, Ventspils, LV-3601, Latvia",
        "road": "Augusta iela",
        "house_number": "11",
        "neighbourhood": null,
        "suburb": "Kurpniekciems",
        "city_district": null,
        "city": "Ventspils",
        "state": null,
        "postcode": "LV-3601",
        "country": "Latvia",
        "country_code": "lv"
      },
      "address": "11, Augusta iela, Kurpniekciems, Ventspils, LV-3601, Latvia"
    },
    {
      "lat": 57.378302934555876,
      "lon": 21.58992241154674,
      "geoinfo": {
        "display_name": "24B, Rūpniecības iela, Upmalas dienvidu industriālā zona, Krēķciems, Ventspils, LV-3601, Latvia",
        "road": "Rūpniecības iela",
        "house_number": "24B",
        "neighbourhood": null,
        "suburb": "Krēķciems",
        "city_district": null,
        "city": "Ventspils",
        "state": null,
        "postcode": "LV-3601",
        "country": "Latvia",
        "country_code": "lv"
      },
      "address": "24B, Rūpniecības iela, Upmalas dienvidu industriālā zona, Krēķciems, Ventspils, LV-3601, Latvia"
    },
    {
      "lat": 57.39321890277113,
      "lon": 21.543329737332613,
      "geoinfo": {
        "display_name": "6, Zvejnieku iela, Ostgals, Ventspils, LV-3601, Latvia",
        "road": "Zvejnieku iela",
        "house_number": "6",
        "neighbourhood": null,
        "suburb": "Ostgals",
        "city_district": null,
        "city": "Ventspils",
        "state": null,
        "postcode": "LV-3601",
        "country": "Latvia",
        "country_code": "lv"
      },
      "address": "6, Zvejnieku iela, Ostgals, Ventspils, LV-3601, Latvia"
    },
    {
      "lat": 57.358355032719395,
      "lon": 21.556541941405143,
      "geoinfo": {
        "display_name": "88A, Zvaigžņu iela, Dampeļi, Ventspils, LV-3601, Latvia",
        "road": "Zvaigžņu iela",
        "house_number": "88A",
        "neighbourhood": null,
        "suburb": "Dampeļi",
        "city_district": null,
        "city": "Ventspils",
        "state": null,
        "postcode": "LV-3601",
        "country": "Latvia",
        "country_code": "lv"
      },
      "address": "88A, Zvaigžņu iela, LV-3601 Ventspils, Latvia"
    },
    {
      "lat": 57.39182297429975,
      "lon": 21.599867512597065,
      "geoinfo": {
        "display_name": "6B, Kustes dambis, Zaķciems, Ventspils, LV-3601, Latvia",
        "road": "Kustes dambis",
        "house_number": "6B",
        "neighbourhood": null,
        "suburb": "Zaķciems",
        "city_district": null,
        "city": "Ventspils",
        "state": null,
        "postcode": "LV-3601",
        "country": "Latvia",
        "country_code": "lv"
      },
      "address": "6B, Kustes dambis, Zaķciems, Ventspils, LV-3601, Latvia"
    },
    {
      "lat": 57.43527324829786,
      "lon": 21.579203350042075,
      "geoinfo": {
        "display_name": "Kantsonciems, Ventspils, LV-3602, Latvia",
        "road": null,
        "house_number": null,
        "neighbourhood": null,
        "suburb": "Kantsonciems",
        "city_district": null,
        "city": "Ventspils",
        "state": null,
        "postcode": "LV-3602",
        "country": "Latvia",
        "country_code": "lv"
      },
      "address": "672, Kantsonciems, Ventspils, LV-3602, Latvia"
    },
    {
      "lat": 57.429485254879694,
      "lon": 21.590137590987233,
      "geoinfo": {
        "display_name": "Jukumciems, Ventspils, LV-3602, Latvia",
        "road": null,
        "house_number": null,
        "neighbourhood": null,
        "suburb": "Jukumciems",
        "city_district": null,
        "city": "Ventspils",
        "state": null,
        "postcode": "LV-3602",
        "country": "Latvia",
        "country_code": "lv"
      },
      "address": "947, Jukumciems, Ventspils, LV-3602, Latvia"
    }
  ],
  "updated_at": "2025-10-19T05:38:11.664003+00:00",
  "_kind": "geo_samples"
}