{
  "country_code": "LS",
  "country": "Lesotho",
  "city": "Butha-Buthe",
  "geonameid": 932886,
  "target_addresses": 10,
  "samples": [
    {
      "lat": -28.754293988716977,
      "lon": 28.283482919722168,
      "geoinfo": {
        "display_name": "B103, Ha Mohlanka, Mantlakane, Butha-Buthe District, Lesotho",
        "road": "B103",
        "house_number": null,
        "neighbourhood": null,
        "suburb": null,
        "city_district": null,
        "city": "Mantlakane",
        "state": "Butha-Buthe District",
        "postcode": null,
        "country": "Lesotho",
        "country_code": "ls"
      },
      "address": "B103, Butha-Buthe, Butha-Buthe District, Lesotho"
    },
    {
      "lat": -28.793903481210325,
      "lon": 28.26035640971347,
      "geoinfo": {
        "display_name": "Letsoapong (Tlokoeng), Ha Ramakatana Sephokong, Ha Pampe, Butha-Buthe District, Lesotho",
        "road": null,
        "house_number": null,
        "neighbourhood": "Letsoapong (Tlokoeng)",
        "suburb": null,
        "city_district": null,
        "city": "Ha Pampe",
        "state": "Butha-Buthe District",
        "postcode": null,
        "country": "Lesotho",
        "country_code": "ls"
      },
      "address": "Letsoapong (Tlokoeng), Butha-Buthe, Butha-Buthe District, Lesotho"
    },
    {
      "lat": -28.739377458047716,
      "lon": 28.211584720339417,
      "geoinfo": {
        "display_name": "Leribe District, Lesotho",
        "road": null,
        "house_number": null,
        "neighbourhood": null,
        "suburb": null,
        "city_district": null,
        "city": null,
        "state": "Leribe District",
        "postcode": null,
        "country": "Lesotho",
        "country_code": "ls"
      },
      "address": "Butha-Buthe, Leribe District, Lesotho"
    },
    {
      "lat": -28.77171109101807,
      "lon": 28.273663330966833,
      "geoinfo": {
        "display_name": "Ha Ramakhula Makoabating (Tlokoeng), Makopo, Thabana-Mokhele, Butha-Buthe District, Lesotho",
        "road": null,
        "house_number": null,
        "neighbourhood": "Ha Ramakhula Makoabating (Tlokoeng)",
        "suburb": "Makopo",
        "city_district": null,
        "city": "Thabana-Mokhele",
        "state": "Butha-Buthe District",
        "postcode": null,
        "country": "Lesotho",
        "country_code": "ls"
      },
      "address": "Ha Ramakhula Makoabating (Tlokoeng), Butha-Buthe, Butha-Buthe District, Lesotho"
    },
    {
      "lat": -28.782931209511307,
      "lon": 28.215497470795263,
      "geoinfo": {
        "display_name": "D1012, Matlakeng, Leribe District, Lesotho",
        "road": "D1012",
        "house_number": null,
        "neighbourhood": null,
        "suburb": null,
        "city_district": null,
        "city": "Matlakeng",
        "state": "Leribe District",
        "postcode": null,
        "country": "Lesotho",
        "country_code": "ls"
      },
      "address": "D1012, Butha-Buthe, Leribe District, Lesotho"
    },
    {
      "lat": -28.78764517203134,
      "lon": 28.27563175638186,
      "geoinfo": {
        "display_name": "Mokhoabong (Tlokoeng), Makoaneng, Tlokoeng, Butha-Buthe District, Lesotho",
        "road": null,
        "house_number": null,
        "neighbourhood": "Mokhoabong (Tlokoeng)",
        "suburb": "Makoaneng",
        "city_district": null,
        "city": "Tlokoeng",
        "state": "Butha-Buthe District",
        "postcode": null,
        "country": "Lesotho",
        "country_code": "ls"
      },
      "address": "Mokhoabong (Tlokoeng), Butha-Buthe, Butha-Buthe District, Lesotho"
    },
    {
      "lat": -28.763799263899607,
      "lon": 28.24542290804647,
      "geoinfo": {
        "display_name": "Lethole Road, government residential area, Reserve (Butha Buthe), Butha-Buthe, Butha-Buthe District, Lesotho",
        "road": "Lethole Road",
        "house_number": null,
        "neighbourhood": null,
        "suburb": "Reserve (Butha Buthe)",
        "city_district": null,
        "city": "Butha-Buthe",
        "state": "Butha-Buthe District",
        "postcode": null,
        "country": "Lesotho",
        "country_code": "ls"
      },
      "address": "Lethole Road, Butha-Buthe, Butha-Buthe District, Lesotho"
    },
    {
      "lat": -28.743073288169363,
      "lon": 28.29207628281224,
      "geoinfo": {
        "display_name": "Main North 1, Ha Tukula (Makopo), Phaphama, Butha-Buthe, Butha-Buthe District, Lesotho",
        "road": "Main North 1",
        "house_number": null,
        "neighbourhood": "Ha Tukula (Makopo)",
        "suburb": "Phaphama",
        "city_district": null,
        "city": "Butha-Buthe",
        "state": "Butha-Buthe District",
        "postcode": null,
        "country": "Lesotho",
        "country_code": "ls"
      },
      "address": "Main North 1, Butha-Buthe, Butha-Buthe District, Lesotho"
    },
    {
      "lat": -28.76768599094035,
      "lon": 28.24572132560045,
      "geoinfo": {
        "display_name": "Moeang, Butha-Buthe, Butha-Buthe District, Lesotho",
        "road": null,
        "house_number": null,
        "neighbourhood": null,
        "suburb": "Moeang",
        "city_district": null,
        "city": "Butha-Buthe",
        "state": "Butha-Buthe District",
        "postcode": null,
        "country": "Lesotho",
        "country_code": "ls"
      },
      "address": "Moeang, Butha-Buthe, Butha-Buthe District, Lesotho"
    },
    {
      "lat": -28.768704408489974,
      "lon": 28.266178446641394,
      "geoinfo": {
        "display_name": "Ha Lets'olo / Thabong (Makopo), Makopo, Thabana-Mokhele, Butha-Buthe District, Lesotho",
        "road": null,
        "house_number": null,
        "neighbourhood": "Ha Lets'olo / Thabong (Makopo)",
        "suburb": "Makopo",
        "city_district": null,
        "city": "Thabana-Mokhele",
        "state": "Butha-Buthe District",
        "postcode": null,
        "country": "Lesotho",
        "country_code": "ls"
      },
      "address": "Ha Lets'olo / Thabong (Makopo), Butha-Buthe, Butha-Buthe District, Lesotho"
    },
    {
      "lat": -28.788289662878643,
      "lon": 28.280174483396436,
      "geoinfo": {
        "display_name": "Butha-Buthe District, Lesotho",
        "road": null,
        "house_number": null,
        "neighbourhood": null,
        "suburb": null,
        "city_district": null,
        "city": null,
        "state": "Butha-Buthe District",
        "postcode": null,
        "country": "Lesotho",
        "country_code": "ls"
      },
      "address": "170, Butha-Buthe, 35575 Butha-Buthe District, Lesotho"
    },
    {
      "lat": -28.79187105549593,
      "lon": 28.27931371251303,
      "geoinfo": {
        "display_name": "Sosolo (Tlokoeng), Tlokoeng, Butha-Buthe District, Lesotho",
        "road": null,
        "house_number": null,
        "neighbourhood": "Sosolo (Tlokoeng)",
        "suburb": null,
        "city_district": null,
        "city": "Tlokoeng",
        "state": "Butha-Buthe District",
        "postcode": null,
        "country": "Lesotho",
        "country_code": "ls"
      },
      "address": "873, Sosolo (Tlokoeng), Tlokoeng, 65747 Butha-Buthe District, Lesotho"
    },
    {
      "lat": -28.77638781073147,
      "lon": 28.268558077030228,
      "geoinfo": {
        "display_name": "Ha Ramakhula Makoabating (Tlokoeng), Makopo, Thabana-Mokhele, Butha-Buthe District, Lesotho",
        "road": null,
        "house_number": null,
        "neighbourhood": "Ha Ramakhula Makoabating (Tlokoeng)",
        "suburb": "Makopo",
        "city_district": null,
        "city": "Thabana-Mokhele",
        "state": "Butha-Buthe District",
        "postcode": null,
        "country": "Lesotho",
        "country_code": "ls"
      },
      "address": "971, Ha Ramakhula Makoabating (Tlokoeng), Makopo, Thabana-Mokhele, 14298 Butha-Buthe District, Lesotho"
    },
    {
      "lat": -28.796909960517027,
      "lon": 28.279413017842987,
      "geoinfo": {
        "display_name": "Tlokoeng, Butha-Buthe District, Lesotho",
        "road": null,
        "house_number": null,
        "neighbourhood": null,
        "suburb": null,
        "city_district": null,
        "city": "Tlokoeng",
        "state": "Butha-Buthe District",
        "postcode": null,
        "country": "Lesotho",
        "country_code": "ls"
      },
      "address": "664, Tlokoeng, 69034 Butha-Buthe District, Lesotho"
    },
    {
      "lat": -28.765826158622477,
      "lon": 28.252318121988356,
      "geoinfo": {
        "display_name": "Botha-Bothe Flea Market and Taxi Rank, A13, Likileng(Paballong), Paballong, Butha-Buthe, Butha-Buthe District, Lesotho",
        "road": "A13",
        "house_number": null,
        "neighbourhood": "Likileng(Paballong)",
        "suburb": "Paballong",
        "city_district": null,
        "city": "Butha-Buthe",
        "state": "Butha-Buthe District",
        "postcode": null,
        "country": "Lesotho",
        "country_code": "ls"
      },
      "address": "A13, Butha-Buthe, 22551 Butha-Buthe District, Lesotho"
    },
    {
      "lat": -28.79021055128285,
      "lon": 28.22856248250873,
      "geoinfo": {
        "display_name": "Ha Mapape (Lipelaneng), Matebeleng Ha Lekhooana, Ha Shepheseli, Leribe District, Lesotho",
        "road": null,
        "house_number": null,
        "neighbourhood": "Ha Mapape (Lipelaneng)",
        "suburb": null,
        "city_district": null,
        "city": "Ha Shepheseli",
        "state": "Leribe District",
        "postcode": null,
        "country": "Lesotho",
        "country_code": "ls"
      },
      "address": "286, Ha Mapape (Lipelaneng), Matebeleng Ha Lekhooana, Ha Shepheseli, 99310 Leribe District, Lesotho"
    },
    {
      "lat": -28.756681704780487,
      "lon": 28.279567226431354,
      "geoinfo": {
        "display_name": "Butha-Buthe, Butha-Buthe District, Lesotho",
        "road": null,
        "house_number": null,
        "neighbourhood": null,
        "suburb": null,
        "city_district": null,
        "city": "Butha-Buthe",
        "state": "Butha-Buthe District",
        "postcode": null,
        "country": "Lesotho",
        "country_code": "ls"
      },
      "address": "307, Butha-Buthe, 46610 Butha-Buthe District, Lesotho"
    },
    {
      "lat": -28.76864359679123,
      "lon": 28.27533653742093,
      "geoinfo": {
        "display_name": "Ha Ramakhula Makoabating (Tlokoeng), Makopo, Thabana-Mokhele, Butha-Buthe District, Lesotho",
        "road": null,
        "house_number": null,
        "neighbourhood": "Ha Ramakhula Makoabating (Tlokoeng)",
        "suburb": "Makopo",
        "city_district": null,
        "city": "Thabana-Mokhele",
        "state": "Butha-Buthe District",
        "postcode": null,
        "country": "Lesotho",
        "country_code": "ls"
      },
      "address": "928, Ha Ramakhula Makoabating (Tlokoeng), Makopo, Thabana-Mokhele, 15252 Butha-Buthe District, Lesotho"
    },
    {
      "lat": -28.76615607487111,
      "lon": 28.26957057270433,
      "geoinfo": {
        "display_name": "Ha Lets'olo / Thabong (Makopo), Makopo, Thabana-Mokhele, Butha-Buthe District, Lesotho",
        "road": null,
        "house_number": null,
        "neighbourhood": "Ha Lets'olo / Thabong (Makopo)",
        "suburb": "Makopo",
        "city_district": null,
        "city": "Thabana-Mokhele",
        "state": "Butha-Buthe District",
        "postcode": null,
        "country": "Lesotho",
        "country_code": "ls"
      },
      "address": "197, Ha Lets'olo / Thabong (Makopo), Makopo, Thabana-Mokhele, 04699 Butha-Buthe District, Lesotho"
    },
    {
      "lat": -28.781935293280718,
      "lon": 28.23762716832894,
      "geoinfo": {
        "display_name": "Ha Mapape (Lipelaneng), Matebeleng Ha Lekhooana, Ha Mokete, Leribe District, Lesotho",
        "road": null,
        "house_number": null,
        "neighbourhood": "Ha Mapape (Lipelaneng)",
        "suburb": null,
        "city_district": null,
        "city": "Ha Mokete",
        "state": "Leribe District",
        "postcode": null,
        "country": "Lesotho",
        "country_code": "ls"
      },
      "address": "306, Ha Mapape (Lipelaneng), Matebeleng Ha Lekhooana, Ha Mokete, 53462 Leribe District, Lesotho"
    }
  ],
  "updated_at": "2025-10-19T05:45:33.783580+00:00",
  "_kind": "geo_samples"
}