{
  "country_code": "LS",
  "country": "Lesotho",
  "city": "Maseru",
  "geonameid": 932505,
  "target_addresses": 10,
  "samples": [
    {
      "lat": -29.356000014628275,
      "lon": 27.45999191310947,
      "geoinfo": {
        "display_name": "Ha Tsolo, Maseru, Maseru District, 100, Lesotho",
        "road": null,
        "house_number": null,
        "neighbourhood": null,
        "suburb": "Ha Tsolo",
        "city_district": null,
        "city": "Maseru",
        "state": "Maseru District",
        "postcode": "100",
        "country": "Lesotho",
        "country_code": "ls"
      },
      "address": "Ha Tsolo, Maseru, Maseru District, Lesotho"
    },
    {
      "lat": -29.29805774072434,
      "lon": 27.46860004361571,
      "geoinfo": {
        "display_name": "Afrisam Lesotho, Moshoeshoe Road, Florida, Maseru, Maseru District, 100, Lesotho",
        "road": "Moshoeshoe Road",
        "house_number": null,
        "neighbourhood": null,
        "suburb": "Florida",
        "city_district": null,
        "city": "Maseru",
        "state": "Maseru District",
        "postcode": "100",
        "country": "Lesotho",
        "country_code": "ls"
      },
      "address": "Moshoeshoe Road, Maseru, Maseru District, Lesotho"
    },
    {
      "lat": -29.349025750840045,
      "lon": 27.464416358125355,
      "geoinfo": {
        "display_name": "Mankoaneng, Libataolong, Maseru, Maseru District, 100, Lesotho",
        "road": null,
        "house_number": null,
        "neighbourhood": "Mankoaneng",
        "suburb": "Libataolong",
        "city_district": null,
        "city": "Maseru",
        "state": "Maseru District",
        "postcode": "100",
        "country": "Lesotho",
        "country_code": "ls"
      },
      "address": "Mankoaneng, Maseru, Maseru District, Lesotho"
    },
    {
      "lat": -29.34635599605745,
      "lon": 27.508895300273043,
      "geoinfo": {
        "display_name": "Ha Seoli II, Qoaling, Maseru District, 100, Lesotho",
        "road": null,
        "house_number": null,
        "neighbourhood": null,
        "suburb": "Ha Seoli II",
        "city_district": null,
        "city": "Qoaling",
        "state": "Maseru District",
        "postcode": "100",
        "country": "Lesotho",
        "country_code": "ls"
      },
      "address": "Ha Seoli II, Maseru, Maseru District, Lesotho"
    },
    {
      "lat": -29.33635942178454,
      "lon": 27.439369473200603,
      "geoinfo": {
        "display_name": "Thetsane West, Maseru District, 100, Lesotho",
        "road": null,
        "house_number": null,
        "neighbourhood": null,
        "suburb": null,
        "city_district": null,
        "city": "Thetsane West",
        "state": "Maseru District",
        "postcode": "100",
        "country": "Lesotho",
        "country_code": "ls"
      },
      "address": "Maseru, Maseru District, Lesotho"
    },
    {
      "lat": -29.348038955681908,
      "lon": 27.484148572189408,
      "geoinfo": {
        "display_name": "PTC Road, Mankoaneng, Ha Shelile, Maseru, Maseru District, 100, Lesotho",
        "road": "PTC Road",
        "house_number": null,
        "neighbourhood": "Mankoaneng",
        "suburb": "Ha Shelile",
        "city_district": null,
        "city": "Maseru",
        "state": "Maseru District",
        "postcode": "100",
        "country": "Lesotho",
        "country_code": "ls"
      },
      "address": "PTC Road, Maseru, Maseru District, Lesotho"
    },
    {
      "lat": -29.34464890066969,
      "lon": 27.455640051482682,
      "geoinfo": {
        "display_name": "Libataolong, Maseru, Maseru District, 100, Lesotho",
        "road": null,
        "house_number": null,
        "neighbourhood": null,
        "suburb": "Libataolong",
        "city_district": null,
        "city": "Maseru",
        "state": "Maseru District",
        "postcode": "100",
        "country": "Lesotho",
        "country_code": "ls"
      },
      "address": "Libataolong, Maseru, Maseru District, Lesotho"
    },
    {
      "lat": -29.327211924350134,
      "lon": 27.45894455328723,
      "geoinfo": {
        "display_name": "Ramoanyane, Happy Villa, Ha Ratjomose, Maseru District, 100, Lesotho",
        "road": null,
        "house_number": null,
        "neighbourhood": "Ramoanyane",
        "suburb": "Happy Villa",
        "city_district": null,
        "city": "Ha Ratjomose",
        "state": "Maseru District",
        "postcode": "100",
        "country": "Lesotho",
        "country_code": "ls"
      },
      "address": "Ramoanyane, Maseru, Maseru District, Lesotho"
    },
    {
      "lat": -29.284999936445338,
      "lon": 27.49959716998173,
      "geoinfo": {
        "display_name": "Temong, Maseru, Maseru District, 100, Lesotho",
        "road": null,
        "house_number": null,
        "neighbourhood": null,
        "suburb": "Temong",
        "city_district": null,
        "city": "Maseru",
        "state": "Maseru District",
        "postcode": "100",
        "country": "Lesotho",
        "country_code": "ls"
      },
      "address": "Temong, Maseru, Maseru District, Lesotho"
    },
    {
      "lat": -29.324010065439754,
      "lon": 27.471407118783727,
      "geoinfo": {
        "display_name": "Happy Villa, Maseru, Maseru District, 100, Lesotho",
        "road": null,
        "house_number": null,
        "neighbourhood": null,
        "suburb": "Happy Villa",
        "city_district": null,
        "city": "Maseru",
        "state": "Maseru District",
        "postcode": "100",
        "country": "Lesotho",
        "country_code": "ls"
      },
      "address": "Happy Villa, Maseru, Maseru District, Lesotho"
    },
    {
      "lat": -29.279745015787807,
      "lon": 27.50871166447886,
      "geoinfo": {
        "display_name": "Temong, Maseru, Maseru District, 102, Lesotho",
        "road": null,
        "house_number": null,
        "neighbourhood": null,
        "suburb": "Temong",
        "city_district": null,
        "city": "Maseru",
        "state": "Maseru District",
        "postcode": "102",
        "country": "Lesotho",
        "country_code": "ls"
      },
      "address": "743, Temong, Maseru, Maseru District, 102, Lesotho"
    },
    {
      "lat": -29.361041780128375,
      "lon": 27.478757253854475,
      "geoinfo": {
        "display_name": "Ha Chala, Maseru, Maseru District, 100, Lesotho",
        "road": null,
        "house_number": null,
        "neighbourhood": null,
        "suburb": "Ha Chala",
        "city_district": null,
        "city": "Maseru",
        "state": "Maseru District",
        "postcode": "100",
        "country": "Lesotho",
        "country_code": "ls"
      },
      "address": "718, Ha Chala, Maseru, Maseru District, 100, Lesotho"
    },
    {
      "lat": -29.322074549121943,
      "lon": 27.489497775350337,
      "geoinfo": {
        "display_name": "Friebel Estates, Fribel, Old Police Residence, Maseru, Maseru District, 100, Lesotho",
        "road": "Friebel Estates",
        "house_number": null,
        "neighbourhood": "Fribel",
        "suburb": "Old Police Residence",
        "city_district": null,
        "city": "Maseru",
        "state": "Maseru District",
        "postcode": "100",
        "country": "Lesotho",
        "country_code": "ls"
      },
      "address": "882, Friebel Estates, Fribel, Old Police Residence, Maseru, Maseru District, 100, Lesotho"
    },
    {
      "lat": -29.305785891749405,
      "lon": 27.50317881663278,
      "geoinfo": {
        "display_name": "Mejametalana Airport, Evelyn Baring Street, Moshoeshoe II, Maseru, Maseru District, 100, Lesotho",
        "road": "Evelyn Baring Street",
        "house_number": null,
        "neighbourhood": null,
        "suburb": "Moshoeshoe II",
        "city_district": null,
        "city": "Maseru",
        "state": "Maseru District",
        "postcode": "100",
        "country": "Lesotho",
        "country_code": "ls"
      },
      "address": "709, Evelyn Baring Street, Maseru, 100 Maseru District, Lesotho"
    },
    {
      "lat": -29.33162518485701,
      "lon": 27.50907371811939,
      "geoinfo": {
        "display_name": "Ha Mamakanakisi, Lekhaloaneng, Upper-Thamae, Maseru District, 100, Lesotho",
        "road": null,
        "house_number": null,
        "neighbourhood": "Ha Mamakanakisi",
        "suburb": "Lekhaloaneng",
        "city_district": null,
        "city": "Upper-Thamae",
        "state": "Maseru District",
        "postcode": "100",
        "country": "Lesotho",
        "country_code": "ls"
      },
      "address": "783, Ha Mamakanakisi, Lekhaloaneng, Upper-Thamae, Maseru District, 100, Lesotho"
    },
    {
      "lat": -29.28829647458002,
      "lon": 27.496645926731873,
      "geoinfo": {
        "display_name": "Temong, Maseru, Maseru District, 100, Lesotho",
        "road": null,
        "house_number": null,
        "neighbourhood": null,
        "suburb": "Temong",
        "city_district": null,
        "city": "Maseru",
        "state": "Maseru District",
        "postcode": "100",
        "country": "Lesotho",
        "country_code": "ls"
      },
      "address": "096, Temong, Maseru, Maseru District, 100, Lesotho"
    },
    {
      "lat": -29.329602797389605,
      "lon": 27.44964464145415,
      "geoinfo": {
        "display_name": "Matamong (Ha Ratjomose), Thetsane West, Maseru District, 100, Lesotho",
        "road": null,
        "house_number": null,
        "neighbourhood": "Matamong (Ha Ratjomose)",
        "suburb": null,
        "city_district": null,
        "city": "Thetsane West",
        "state": "Maseru District",
        "postcode": "100",
        "country": "Lesotho",
        "country_code": "ls"
      },
      "address": "263, Matamong (Ha Ratjomose), Thetsane West, Maseru District, 100, Lesotho"
    },
    {
      "lat": -29.345441959022427,
      "lon": 27.504966809273697,
      "geoinfo": {
        "display_name": "Phomolong, Ha Seoli II, Qoaling, Maseru District, 100, Lesotho",
        "road": null,
        "house_number": null,
        "neighbourhood": "Phomolong",
        "suburb": "Ha Seoli II",
        "city_district": null,
        "city": "Qoaling",
        "state": "Maseru District",
        "postcode": "100",
        "country": "Lesotho",
        "country_code": "ls"
      },
      "address": "116, Phomolong, Ha Seoli II, Qoaling, Maseru District, 100, Lesotho"
    },
    {
      "lat": -29.310175714264627,
      "lon": 27.521631216543163,
      "geoinfo": {
        "display_name": "Motimposo, Maseru, Maseru District, 102, Lesotho",
        "road": null,
        "house_number": null,
        "neighbourhood": null,
        "suburb": "Motimposo",
        "city_district": null,
        "city": "Maseru",
        "state": "Maseru District",
        "postcode": "102",
        "country": "Lesotho",
        "country_code": "ls"
      },
      "address": "118, Motimposo, Maseru, Maseru District, 102, Lesotho"
    },
    {
      "lat": -29.29209426492738,
      "lon": 27.50149885291208,
      "geoinfo": {
        "display_name": "Temong, Maseru, Maseru District, 100, Lesotho",
        "road": null,
        "house_number": null,
        "neighbourhood": null,
        "suburb": "Temong",
        "city_district": null,
        "city": "Maseru",
        "state": "Maseru District",
        "postcode": "100",
        "country": "Lesotho",
        "country_code": "ls"
      },
      "address": "157, Temong, Maseru, Maseru District, 100, Lesotho"
    }
  ],
  "updated_at": "2025-10-19T05:49:15.840232+00:00",
  "_kind": "geo_samples"
}