{
  "country_code": "LS",
  "country": "Lesotho",
  "city": "Mohale's Hoek",
  "geonameid": 932438,
  "target_addresses": 10,
  "samples": [
    {
      "lat": -30.13294175959451,
      "lon": 27.49124178042769,
      "geoinfo": {
        "display_name": "Potsane's, Ha Lekhema, Mohale's Hoek District, Lesotho",
        "road": null,
        "house_number": null,
        "neighbourhood": null,
        "suburb": "Potsane's",
        "city_district": null,
        "city": "Ha Lekhema",
        "state": "Mohale's Hoek District",
        "postcode": null,
        "country": "Lesotho",
        "country_code": "ls"
      },
      "address": "Potsane's, Mohale's Hoek, Mohale's Hoek District, Lesotho"
    },
    {
      "lat": -30.133395210119733,
      "lon": 27.453938227712996,
      "geoinfo": {
        "display_name": "Ha Ramarumo, Mohale's Hoek, Mohale's Hoek District, Lesotho",
        "road": null,
        "house_number": null,
        "neighbourhood": null,
        "suburb": "Ha Ramarumo",
        "city_district": null,
        "city": "Mohale's Hoek",
        "state": "Mohale's Hoek District",
        "postcode": null,
        "country": "Lesotho",
        "country_code": "ls"
      },
      "address": "Ha Ramarumo, Mohale's Hoek, Mohale's Hoek District, Lesotho"
    },
    {
      "lat": -30.158071560030702,
      "lon": 27.51094586427312,
      "geoinfo": {
        "display_name": "Thaba-Phiri, Mohale's Hoek District, Lesotho",
        "road": null,
        "house_number": null,
        "neighbourhood": null,
        "suburb": null,
        "city_district": null,
        "city": null,
        "state": "Mohale's Hoek District",
        "postcode": null,
        "country": "Lesotho",
        "country_code": "ls"
      },
      "address": "Mohale's Hoek, Mohale's Hoek District, Lesotho"
    },
    {
      "lat": -30.166086244276276,
      "lon": 27.43423944370848,
      "geoinfo": {
        "display_name": "Maphokoane, Ha Mapotsane, Mohale's Hoek District, Lesotho",
        "road": null,
        "house_number": null,
        "neighbourhood": null,
        "suburb": "Maphokoane",
        "city_district": null,
        "city": "Ha Mapotsane",
        "state": "Mohale's Hoek District",
        "postcode": null,
        "country": "Lesotho",
        "country_code": "ls"
      },
      "address": "Maphokoane, Mohale's Hoek, Mohale's Hoek District, Lesotho"
    },
    {
      "lat": -30.163543906958566,
      "lon": 27.464797400957934,
      "geoinfo": {
        "display_name": "St. Elizabeth Training Institute, Ntsukunyane Street, Thoteng, Mohale's Hoek, Mohale's Hoek District, Lesotho",
        "road": "Ntsukunyane Street",
        "house_number": null,
        "neighbourhood": null,
        "suburb": "Thoteng",
        "city_district": null,
        "city": "Mohale's Hoek",
        "state": "Mohale's Hoek District",
        "postcode": null,
        "country": "Lesotho",
        "country_code": "ls"
      },
      "address": "Ntsukunyane Street, Mohale's Hoek, Mohale's Hoek District, Lesotho"
    },
    {
      "lat": -30.131468069848108,
      "lon": 27.47266606738228,
      "geoinfo": {
        "display_name": "Qoalakheng, Ha Lekhema, Mohale's Hoek District, Lesotho",
        "road": null,
        "house_number": null,
        "neighbourhood": null,
        "suburb": "Qoalakheng",
        "city_district": null,
        "city": "Ha Lekhema",
        "state": "Mohale's Hoek District",
        "postcode": null,
        "country": "Lesotho",
        "country_code": "ls"
      },
      "address": "Qoalakheng, Mohale's Hoek, Mohale's Hoek District, Lesotho"
    },
    {
      "lat": -30.15186622068417,
      "lon": 27.435307705206878,
      "geoinfo": {
        "display_name": "Ha Sechele, Mohale's Hoek District, Lesotho",
        "road": null,
        "house_number": null,
        "neighbourhood": null,
        "suburb": "Ha Sechele",
        "city_district": null,
        "city": null,
        "state": "Mohale's Hoek District",
        "postcode": null,
        "country": "Lesotho",
        "country_code": "ls"
      },
      "address": "Ha Sechele, Mohale's Hoek, Mohale's Hoek District, Lesotho"
    },
    {
      "lat": -30.147639801328562,
      "lon": 27.516662034557317,
      "geoinfo": {
        "display_name": "D25xx, Ha Ralefatla, Mohale's Hoek District, Lesotho",
        "road": "D25xx",
        "house_number": null,
        "neighbourhood": null,
        "suburb": null,
        "city_district": null,
        "city": "Ha Ralefatla",
        "state": "Mohale's Hoek District",
        "postcode": null,
        "country": "Lesotho",
        "country_code": "ls"
      },
      "address": "D25xx, Mohale's Hoek, Mohale's Hoek District, Lesotho"
    },
    {
      "lat": -30.11791539169231,
      "lon": 27.46524579612959,
      "geoinfo": {
        "display_name": "B25, Qoalakheng, Old Hoek, Mohale's Hoek District, Lesotho",
        "road": "B25",
        "house_number": null,
        "neighbourhood": null,
        "suburb": "Qoalakheng",
        "city_district": null,
        "city": "Old Hoek",
        "state": "Mohale's Hoek District",
        "postcode": null,
        "country": "Lesotho",
        "country_code": "ls"
      },
      "address": "B25, Mohale's Hoek, Mohale's Hoek District, Lesotho"
    },
    {
      "lat": -30.163542886503883,
      "lon": 27.478685808147727,
      "geoinfo": {
        "display_name": "Tenese Road, Mohale's Hoek, Mohale's Hoek District, Lesotho",
        "road": "Tenese Road",
        "house_number": null,
        "neighbourhood": null,
        "suburb": null,
        "city_district": null,
        "city": "Mohale's Hoek",
        "state": "Mohale's Hoek District",
        "postcode": null,
        "country": "Lesotho",
        "country_code": "ls"
      },
      "address": "Tenese Road, Mohale's Hoek, Mohale's Hoek District, Lesotho"
    },
    {
      "lat": -30.126377706131603,
      "lon": 27.49042378529633,
      "geoinfo": {
        "display_name": "Potsane's, Ha Lekhema, Mohale's Hoek District, Lesotho",
        "road": null,
        "house_number": null,
        "neighbourhood": null,
        "suburb": "Potsane's",
        "city_district": null,
        "city": "Ha Lekhema",
        "state": "Mohale's Hoek District",
        "postcode": null,
        "country": "Lesotho",
        "country_code": "ls"
      },
      "address": "252, Potsane's, Ha Lekhema, 88704 Mohale's Hoek District, Lesotho"
    },
    {
      "lat": -30.1399988957267,
      "lon": 27.471609289484142,
      "geoinfo": {
        "display_name": "Maluti Mountain Brewery - Mohale's Hoek Depo, A2, Qoalakheng, Mohale's Hoek, Mohale's Hoek District, Lesotho",
        "road": "A2",
        "house_number": null,
        "neighbourhood": null,
        "suburb": "Qoalakheng",
        "city_district": null,
        "city": "Mohale's Hoek",
        "state": "Mohale's Hoek District",
        "postcode": null,
        "country": "Lesotho",
        "country_code": "ls"
      },
      "address": "A2, Mohale's Hoek, 94356 Mohale's Hoek District, Lesotho"
    },
    {
      "lat": -30.16868492127597,
      "lon": 27.470319070042358,
      "geoinfo": {
        "display_name": "Thoteng, Mohale's Hoek, Mohale's Hoek District, Lesotho",
        "road": null,
        "house_number": null,
        "neighbourhood": null,
        "suburb": "Thoteng",
        "city_district": null,
        "city": "Mohale's Hoek",
        "state": "Mohale's Hoek District",
        "postcode": null,
        "country": "Lesotho",
        "country_code": "ls"
      },
      "address": "024, Thoteng, Mohale's Hoek, 65470 Mohale's Hoek District, Lesotho"
    },
    {
      "lat": -30.126721360375548,
      "lon": 27.500897810872345,
      "geoinfo": {
        "display_name": "Potsane's, Mohale's Hoek, Mohale's Hoek District, Lesotho",
        "road": null,
        "house_number": null,
        "neighbourhood": null,
        "suburb": "Potsane's",
        "city_district": null,
        "city": "Mohale's Hoek",
        "state": "Mohale's Hoek District",
        "postcode": null,
        "country": "Lesotho",
        "country_code": "ls"
      },
      "address": "297, Potsane's, Mohale's Hoek, 89862 Mohale's Hoek District, Lesotho"
    },
    {
      "lat": -30.184388538159126,
      "lon": 27.48448125269978,
      "geoinfo": {
        "display_name": "Ha Ratau, Ha Nts'eno, Mohale's Hoek District, Lesotho",
        "road": null,
        "house_number": null,
        "neighbourhood": null,
        "suburb": null,
        "city_district": null,
        "city": "Ha Nts'eno",
        "state": "Mohale's Hoek District",
        "postcode": null,
        "country": "Lesotho",
        "country_code": "ls"
      },
      "address": "045, Ha Ratau, Ha Nts'eno, 30081 Mohale's Hoek District, Lesotho"
    },
    {
      "lat": -30.15718101951897,
      "lon": 27.491315461299727,
      "geoinfo": {
        "display_name": "Mohale's Hoek, Mohale's Hoek District, Lesotho",
        "road": null,
        "house_number": null,
        "neighbourhood": null,
        "suburb": null,
        "city_district": null,
        "city": "Mohale's Hoek",
        "state": "Mohale's Hoek District",
        "postcode": null,
        "country": "Lesotho",
        "country_code": "ls"
      },
      "address": "548, Mohale's Hoek, 31239 Mohale's Hoek District, Lesotho"
    },
    {
      "lat": -30.18290389802687,
      "lon": 27.49524247519521,
      "geoinfo": {
        "display_name": "D2031, Ha Jane, Mohale's Hoek District, Lesotho",
        "road": "D2031",
        "house_number": null,
        "neighbourhood": null,
        "suburb": null,
        "city_district": null,
        "city": "Ha Jane",
        "state": "Mohale's Hoek District",
        "postcode": null,
        "country": "Lesotho",
        "country_code": "ls"
      },
      "address": "D2031, Ha Jane, 89969 Mohale's Hoek District, Lesotho"
    },
    {
      "lat": -30.12148478991183,
      "lon": 27.492584855768715,
      "geoinfo": {
        "display_name": "Potsane's, Mohale's Hoek, Mohale's Hoek District, Lesotho",
        "road": null,
        "house_number": null,
        "neighbourhood": null,
        "suburb": "Potsane's",
        "city_district": null,
        "city": "Mohale's Hoek",
        "state": "Mohale's Hoek District",
        "postcode": null,
        "country": "Lesotho",
        "country_code": "ls"
      },
      "address": "099, Potsane's, Mohale's Hoek, 54927 Mohale's Hoek District, Lesotho"
    },
    {
      "lat": -30.175588129282303,
      "lon": 27.516341796950574,
      "geoinfo": {
        "display_name": "Manganeng (Ha Mokali-Mots'o), Ha Mokali-Mots'o, Mohale's Hoek District, Lesotho",
        "road": null,
        "house_number": null,
        "neighbourhood": "Manganeng (Ha Mokali-Mots'o)",
        "suburb": null,
        "city_district": null,
        "city": "Ha Mokali-Mots'o",
        "state": "Mohale's Hoek District",
        "postcode": null,
        "country": "Lesotho",
        "country_code": "ls"
      },
      "address": "381, Manganeng (Ha Mokali-Mots'o), Ha Mokali-Mots'o, 41012 Mohale's Hoek District, Lesotho"
    },
    {
      "lat": -30.130383186367535,
      "lon": 27.500401318231766,
      "geoinfo": {
        "display_name": "Potsane's, Mohale's Hoek, Mohale's Hoek District, Lesotho",
        "road": null,
        "house_number": null,
        "neighbourhood": null,
        "suburb": "Potsane's",
        "city_district": null,
        "city": "Mohale's Hoek",
        "state": "Mohale's Hoek District",
        "postcode": null,
        "country": "Lesotho",
        "country_code": "ls"
      },
      "address": "526, Potsane's, Mohale's Hoek, 70570 Mohale's Hoek District, Lesotho"
    }
  ],
  "updated_at": "2025-10-19T05:25:23.391359+00:00",
  "_kind": "geo_samples"
}