{
  "country_code": "LS",
  "country": "Lesotho",
  "city": "Teyateyaneng",
  "geonameid": 932035,
  "target_addresses": 10,
  "samples": [
    {
      "lat": -29.12590054124565,
      "lon": 27.766053626954953,
      "geoinfo": {
        "display_name": "Ha Ntjabane (Teyateyaneng), Berea District, 200, Lesotho",
        "road": null,
        "house_number": null,
        "neighbourhood": null,
        "suburb": "Ha Ntjabane (Teyateyaneng)",
        "city_district": null,
        "city": null,
        "state": "Berea District",
        "postcode": "200",
        "country": "Lesotho",
        "country_code": "ls"
      },
      "address": "Ha Ntjabane (Teyateyaneng), Teyateyaneng, Berea District, Lesotho"
    },
    {
      "lat": -29.11880663961224,
      "lon": 27.732621193231537,
      "geoinfo": {
        "display_name": "Ha Ramaribane (Teyateyaneng), Teyateyaneng, Berea District, 200, Lesotho",
        "road": null,
        "house_number": null,
        "neighbourhood": null,
        "suburb": "Ha Ramaribane (Teyateyaneng)",
        "city_district": null,
        "city": "Teyateyaneng",
        "state": "Berea District",
        "postcode": "200",
        "country": "Lesotho",
        "country_code": "ls"
      },
      "address": "Ha Ramaribane (Teyateyaneng), Teyateyaneng, Berea District, Lesotho"
    },
    {
      "lat": -29.1667056735946,
      "lon": 27.760337752127043,
      "geoinfo": {
        "display_name": "Ha Mohapinyane (Teyateyaneng), Lithabaneng (Ha Kepi), Berea District, 200, Lesotho",
        "road": null,
        "house_number": null,
        "neighbourhood": null,
        "suburb": "Ha Mohapinyane (Teyateyaneng)",
        "city_district": null,
        "city": "Lithabaneng (Ha Kepi)",
        "state": "Berea District",
        "postcode": "200",
        "country": "Lesotho",
        "country_code": "ls"
      },
      "address": "Ha Mohapinyane (Teyateyaneng), Teyateyaneng, Berea District, Lesotho"
    },
    {
      "lat": -29.154406528632997,
      "lon": 27.714216686005024,
      "geoinfo": {
        "display_name": "D1005, St. Agnes (Teyateyaneng), Teyateyaneng, Berea District, 200, Lesotho",
        "road": "D1005",
        "house_number": null,
        "neighbourhood": null,
        "suburb": "St. Agnes (Teyateyaneng)",
        "city_district": null,
        "city": "Teyateyaneng",
        "state": "Berea District",
        "postcode": "200",
        "country": "Lesotho",
        "country_code": "ls"
      },
      "address": "D1005, Teyateyaneng, Berea District, Lesotho"
    },
    {
      "lat": -29.143488580223092,
      "lon": 27.74885906395856,
      "geoinfo": {
        "display_name": "Ntsirele (Ha Motjoka), Ha Rats'iu (Teyateyaneng), Teyateyaneng, Berea District, 200, Lesotho",
        "road": null,
        "house_number": null,
        "neighbourhood": "Ntsirele (Ha Motjoka)",
        "suburb": "Ha Rats'iu (Teyateyaneng)",
        "city_district": null,
        "city": "Teyateyaneng",
        "state": "Berea District",
        "postcode": "200",
        "country": "Lesotho",
        "country_code": "ls"
      },
      "address": "Ntsirele (Ha Motjoka), Teyateyaneng, Berea District, Lesotho"
    },
    {
      "lat": -29.153901315954116,
      "lon": 27.793379186049915,
      "geoinfo": {
        "display_name": "Ha Nkalimeng, Berea District, 200, Lesotho",
        "road": null,
        "house_number": null,
        "neighbourhood": null,
        "suburb": null,
        "city_district": null,
        "city": "Ha Nkalimeng",
        "state": "Berea District",
        "postcode": "200",
        "country": "Lesotho",
        "country_code": "ls"
      },
      "address": "Teyateyaneng, Berea District, Lesotho"
    },
    {
      "lat": -29.104972528981236,
      "lon": 27.760686726703284,
      "geoinfo": {
        "display_name": "Old Leribe, Mosola (Ha Mphele), Berea District, 200, Lesotho",
        "road": "Old Leribe",
        "house_number": null,
        "neighbourhood": null,
        "suburb": null,
        "city_district": null,
        "city": "Mosola (Ha Mphele)",
        "state": "Berea District",
        "postcode": "200",
        "country": "Lesotho",
        "country_code": "ls"
      },
      "address": "Old Leribe, Teyateyaneng, Berea District, Lesotho"
    },
    {
      "lat": -29.151983123018766,
      "lon": 27.778055568155708,
      "geoinfo": {
        "display_name": "Phuthuatsana-Project (Teyateyaneng), Lithabaneng (Ha Kepi), Berea District, 200, Lesotho",
        "road": null,
        "house_number": null,
        "neighbourhood": null,
        "suburb": "Phuthuatsana-Project (Teyateyaneng)",
        "city_district": null,
        "city": "Lithabaneng (Ha Kepi)",
        "state": "Berea District",
        "postcode": "200",
        "country": "Lesotho",
        "country_code": "ls"
      },
      "address": "Phuthuatsana-Project (Teyateyaneng), Teyateyaneng, Berea District, Lesotho"
    },
    {
      "lat": -29.14281016728736,
      "lon": 27.732678861549385,
      "geoinfo": {
        "display_name": "Berea Correctional Institute, Dronk Straat, Ha Mts'eremeli (Teyateyaneng), Teyateyaneng, Berea District, 200, Lesotho",
        "road": "Dronk Straat",
        "house_number": null,
        "neighbourhood": null,
        "suburb": "Ha Mts'eremeli (Teyateyaneng)",
        "city_district": null,
        "city": "Teyateyaneng",
        "state": "Berea District",
        "postcode": "200",
        "country": "Lesotho",
        "country_code": "ls"
      },
      "address": "Dronk Straat, Teyateyaneng, Berea District, Lesotho"
    },
    {
      "lat": -29.146207401705972,
      "lon": 27.75305529896106,
      "geoinfo": {
        "display_name": "Rats'iu Link, Ha Rats'iu (Teyateyaneng), Teyateyaneng, Berea District, 200, Lesotho",
        "road": "Rats'iu Link",
        "house_number": null,
        "neighbourhood": null,
        "suburb": "Ha Rats'iu (Teyateyaneng)",
        "city_district": null,
        "city": "Teyateyaneng",
        "state": "Berea District",
        "postcode": "200",
        "country": "Lesotho",
        "country_code": "ls"
      },
      "address": "Rats'iu Link, Teyateyaneng, Berea District, Lesotho"
    },
    {
      "lat": -29.113903760762934,
      "lon": 27.746501483022595,
      "geoinfo": {
        "display_name": "Mosola (Ha Mphele), Berea District, 200, Lesotho",
        "road": null,
        "house_number": null,
        "neighbourhood": null,
        "suburb": null,
        "city_district": null,
        "city": "Mosola (Ha Mphele)",
        "state": "Berea District",
        "postcode": "200",
        "country": "Lesotho",
        "country_code": "ls"
      },
      "address": "960, Teyateyaneng, 200 Berea District, Lesotho"
    },
    {
      "lat": -29.116484954396697,
      "lon": 27.717712569323552,
      "geoinfo": {
        "display_name": "Tsukutsi Ha Motsie (Ha Mokati), Ha Mokati, Leribe District, Lesotho",
        "road": null,
        "house_number": null,
        "neighbourhood": "Tsukutsi Ha Motsie (Ha Mokati)",
        "suburb": null,
        "city_district": null,
        "city": "Ha Mokati",
        "state": "Leribe District",
        "postcode": null,
        "country": "Lesotho",
        "country_code": "ls"
      },
      "address": "178, Tsukutsi Ha Motsie (Ha Mokati), Ha Mokati, 89568 Leribe District, Lesotho"
    },
    {
      "lat": -29.11563140052319,
      "lon": 27.743496414012533,
      "geoinfo": {
        "display_name": "Mosola (Ha Mphele), Berea District, 200, Lesotho",
        "road": null,
        "house_number": null,
        "neighbourhood": null,
        "suburb": null,
        "city_district": null,
        "city": "Mosola (Ha Mphele)",
        "state": "Berea District",
        "postcode": "200",
        "country": "Lesotho",
        "country_code": "ls"
      },
      "address": "570, Teyateyaneng, 200 Berea District, Lesotho"
    },
    {
      "lat": -29.13155833936713,
      "lon": 27.761833701074274,
      "geoinfo": {
        "display_name": "CEHAL Road, Ha Ntjabane (Teyateyaneng), Teyateyaneng, Berea District, 200, Lesotho",
        "road": "CEHAL Road",
        "house_number": null,
        "neighbourhood": null,
        "suburb": "Ha Ntjabane (Teyateyaneng)",
        "city_district": null,
        "city": "Teyateyaneng",
        "state": "Berea District",
        "postcode": "200",
        "country": "Lesotho",
        "country_code": "ls"
      },
      "address": "999, CEHAL Road, Ha Ntjabane (Teyateyaneng), Teyateyaneng, Berea District, 200, Lesotho"
    },
    {
      "lat": -29.11558660409987,
      "lon": 27.712502822022504,
      "geoinfo": {
        "display_name": "Lekokoaneng, Berea District, 200, Lesotho",
        "road": null,
        "house_number": null,
        "neighbourhood": null,
        "suburb": null,
        "city_district": null,
        "city": "Lekokoaneng",
        "state": "Berea District",
        "postcode": "200",
        "country": "Lesotho",
        "country_code": "ls"
      },
      "address": "051, Teyateyaneng, 200 Berea District, Lesotho"
    },
    {
      "lat": -29.138845883433167,
      "lon": 27.712184488147653,
      "geoinfo": {
        "display_name": "Koaba-lea-Bua, Teyateyaneng, Berea District, 200, Lesotho",
        "road": null,
        "house_number": null,
        "neighbourhood": null,
        "suburb": null,
        "city_district": null,
        "city": "Teyateyaneng",
        "state": "Berea District",
        "postcode": "200",
        "country": "Lesotho",
        "country_code": "ls"
      },
      "address": "334, Koaba-lea-Bua, Teyateyaneng, Berea District, 200, Lesotho"
    },
    {
      "lat": -29.183787502580934,
      "lon": 27.770907643029272,
      "geoinfo": {
        "display_name": "B111, Ha Lephoi, Ha Thamae, Ha Koali, Berea District, Lesotho",
        "road": "B111",
        "house_number": null,
        "neighbourhood": null,
        "suburb": null,
        "city_district": null,
        "city": "Ha Koali",
        "state": "Berea District",
        "postcode": null,
        "country": "Lesotho",
        "country_code": "ls"
      },
      "address": "B111, Teyateyaneng, 98731 Berea District, Lesotho"
    },
    {
      "lat": -29.142251092220935,
      "lon": 27.7177769727611,
      "geoinfo": {
        "display_name": "Main North 1, Ntsirele (Ha Motjoka), Ha Rats'iu (Teyateyaneng), Teyateyaneng, Berea District, 200, Lesotho",
        "road": "Main North 1",
        "house_number": null,
        "neighbourhood": "Ntsirele (Ha Motjoka)",
        "suburb": "Ha Rats'iu (Teyateyaneng)",
        "city_district": null,
        "city": "Teyateyaneng",
        "state": "Berea District",
        "postcode": "200",
        "country": "Lesotho",
        "country_code": "ls"
      },
      "address": "Main North 1, Ntsirele (Ha Motjoka), Ha Rats'iu (Teyateyaneng), Teyateyaneng, Berea District, 200, Lesotho"
    },
    {
      "lat": -29.13016393537142,
      "lon": 27.702898837619575,
      "geoinfo": {
        "display_name": "Lekokoaneng, Berea District, 200, Lesotho",
        "road": null,
        "house_number": null,
        "neighbourhood": null,
        "suburb": null,
        "city_district": null,
        "city": "Lekokoaneng",
        "state": "Berea District",
        "postcode": "200",
        "country": "Lesotho",
        "country_code": "ls"
      },
      "address": "916, Teyateyaneng, 200 Berea District, Lesotho"
    },
    {
      "lat": -29.146170969567123,
      "lon": 27.738373854442976,
      "geoinfo": {
        "display_name": "Ha Ramonaheng (Teyateyaneng), Teyateyaneng, Berea District, 200, Lesotho",
        "road": null,
        "house_number": null,
        "neighbourhood": null,
        "suburb": "Ha Ramonaheng (Teyateyaneng)",
        "city_district": null,
        "city": "Teyateyaneng",
        "state": "Berea District",
        "postcode": "200",
        "country": "Lesotho",
        "country_code": "ls"
      },
      "address": "927, Ha Ramonaheng (Teyateyaneng), Teyateyaneng, Berea District, 200, Lesotho"
    }
  ],
  "updated_at": "2025-10-19T05:48:32.565658+00:00",
  "_kind": "geo_samples"
}