{
  "country_code": "LS",
  "country": "Lesotho",
  "city": "Thaba-Tseka",
  "geonameid": 1106835,
  "target_addresses": 10,
  "samples": [
    {
      "lat": -29.559300472520256,
      "lon": 28.622646250503134,
      "geoinfo": {
        "display_name": "Ha Ramalapi, Thaba-Tseka District, Lesotho",
        "road": null,
        "house_number": null,
        "neighbourhood": null,
        "suburb": null,
        "city_district": null,
        "city": "Ha Ramalapi",
        "state": "Thaba-Tseka District",
        "postcode": null,
        "country": "Lesotho",
        "country_code": "ls"
      },
      "address": "Thaba-Tseka, Thaba-Tseka District, Lesotho"
    },
    {
      "lat": -29.511479650118243,
      "lon": 28.620085343157164,
      "geoinfo": {
        "display_name": "Ponts'eng II, Thaba-Tseka, Thaba-Tseka District, 550, Lesotho",
        "road": null,
        "house_number": null,
        "neighbourhood": null,
        "suburb": "Ponts'eng II",
        "city_district": null,
        "city": "Thaba-Tseka",
        "state": "Thaba-Tseka District",
        "postcode": "550",
        "country": "Lesotho",
        "country_code": "ls"
      },
      "address": "Ponts'eng II, Thaba-Tseka, Thaba-Tseka District, Lesotho"
    },
    {
      "lat": -29.48403297795278,
      "lon": 28.60352396488732,
      "geoinfo": {
        "display_name": "A8, Ha Laka, Thaba-Tseka District, Lesotho",
        "road": "A8",
        "house_number": null,
        "neighbourhood": null,
        "suburb": null,
        "city_district": null,
        "city": "Ha Laka",
        "state": "Thaba-Tseka District",
        "postcode": null,
        "country": "Lesotho",
        "country_code": "ls"
      },
      "address": "A8, Thaba-Tseka, Thaba-Tseka District, Lesotho"
    },
    {
      "lat": -29.520143057532856,
      "lon": 28.58453025816996,
      "geoinfo": {
        "display_name": "A3, Sekiring (Thaba-Tseka), Thaba-Tseka, Thaba-Tseka District, 550, Lesotho",
        "road": "A3",
        "house_number": null,
        "neighbourhood": null,
        "suburb": "Sekiring (Thaba-Tseka)",
        "city_district": null,
        "city": "Thaba-Tseka",
        "state": "Thaba-Tseka District",
        "postcode": "550",
        "country": "Lesotho",
        "country_code": "ls"
      },
      "address": "A3, Thaba-Tseka, Thaba-Tseka District, Lesotho"
    },
    {
      "lat": -29.502310698900164,
      "lon": 28.646521204605374,
      "geoinfo": {
        "display_name": "Ponts'eng I, Thaba-Tseka, Thaba-Tseka District, Lesotho",
        "road": null,
        "house_number": null,
        "neighbourhood": null,
        "suburb": "Ponts'eng I",
        "city_district": null,
        "city": "Thaba-Tseka",
        "state": "Thaba-Tseka District",
        "postcode": null,
        "country": "Lesotho",
        "country_code": "ls"
      },
      "address": "Ponts'eng I, Thaba-Tseka, Thaba-Tseka District, Lesotho"
    },
    {
      "lat": -29.497065160006024,
      "lon": 28.65069039318728,
      "geoinfo": {
        "display_name": "D3016, Hill Top (Thaba-Tseka), Thaba-Tseka, Thaba-Tseka District, 550, Lesotho",
        "road": "D3016",
        "house_number": null,
        "neighbourhood": null,
        "suburb": "Hill Top (Thaba-Tseka)",
        "city_district": null,
        "city": "Thaba-Tseka",
        "state": "Thaba-Tseka District",
        "postcode": "550",
        "country": "Lesotho",
        "country_code": "ls"
      },
      "address": "D3016, Thaba-Tseka, Thaba-Tseka District, Lesotho"
    },
    {
      "lat": -29.554186068564043,
      "lon": 28.59320863322648,
      "geoinfo": {
        "display_name": "Majakaneng, Ha Moqekela, Thaba-Tseka District, Lesotho",
        "road": null,
        "house_number": null,
        "neighbourhood": null,
        "suburb": "Majakaneng",
        "city_district": null,
        "city": "Ha Moqekela",
        "state": "Thaba-Tseka District",
        "postcode": null,
        "country": "Lesotho",
        "country_code": "ls"
      },
      "address": "Majakaneng, Thaba-Tseka, Thaba-Tseka District, Lesotho"
    },
    {
      "lat": -29.50326553446332,
      "lon": 28.60687999822134,
      "geoinfo": {
        "display_name": "Ha Mamphafi, Thaba-Tseka, Thaba-Tseka District, 550, Lesotho",
        "road": null,
        "house_number": null,
        "neighbourhood": null,
        "suburb": "Ha Mamphafi",
        "city_district": null,
        "city": "Thaba-Tseka",
        "state": "Thaba-Tseka District",
        "postcode": "550",
        "country": "Lesotho",
        "country_code": "ls"
      },
      "address": "Ha Mamphafi, Thaba-Tseka, Thaba-Tseka District, Lesotho"
    },
    {
      "lat": -29.53335040058542,
      "lon": 28.59830786953004,
      "geoinfo": {
        "display_name": "Live Stock (Phomolong), Thaba-Tseka, Thaba-Tseka District, Lesotho",
        "road": null,
        "house_number": null,
        "neighbourhood": null,
        "suburb": "Live Stock (Phomolong)",
        "city_district": null,
        "city": "Thaba-Tseka",
        "state": "Thaba-Tseka District",
        "postcode": null,
        "country": "Lesotho",
        "country_code": "ls"
      },
      "address": "Live Stock (Phomolong), Thaba-Tseka, Thaba-Tseka District, Lesotho"
    },
    {
      "lat": -29.518623817761533,
      "lon": 28.638652959231848,
      "geoinfo": {
        "display_name": "Prison Area (Thaba-Tseka), Thaba-Tseka, Thaba-Tseka District, 550, Lesotho",
        "road": null,
        "house_number": null,
        "neighbourhood": null,
        "suburb": "Prison Area (Thaba-Tseka)",
        "city_district": null,
        "city": "Thaba-Tseka",
        "state": "Thaba-Tseka District",
        "postcode": "550",
        "country": "Lesotho",
        "country_code": "ls"
      },
      "address": "Prison Area (Thaba-Tseka), Thaba-Tseka, Thaba-Tseka District, Lesotho"
    },
    {
      "lat": -29.547351330028725,
      "lon": 28.63090273497047,
      "geoinfo": {
        "display_name": "Ha Ramalapi, Thaba-Tseka District, Lesotho",
        "road": null,
        "house_number": null,
        "neighbourhood": null,
        "suburb": null,
        "city_district": null,
        "city": "Ha Ramalapi",
        "state": "Thaba-Tseka District",
        "postcode": null,
        "country": "Lesotho",
        "country_code": "ls"
      },
      "address": "038, Ha Ramalapi, 92679 Thaba-Tseka District, Lesotho"
    },
    {
      "lat": -29.497309922083367,
      "lon": 28.64747276025887,
      "geoinfo": {
        "display_name": "D3016, Hill Top (Thaba-Tseka), Thaba-Tseka, Thaba-Tseka District, 550, Lesotho",
        "road": "D3016",
        "house_number": null,
        "neighbourhood": null,
        "suburb": "Hill Top (Thaba-Tseka)",
        "city_district": null,
        "city": "Thaba-Tseka",
        "state": "Thaba-Tseka District",
        "postcode": "550",
        "country": "Lesotho",
        "country_code": "ls"
      },
      "address": "D3016, Hill Top (Thaba-Tseka), Thaba-Tseka, Thaba-Tseka District, 550, Lesotho"
    },
    {
      "lat": -29.50754428468158,
      "lon": 28.61222182668441,
      "geoinfo": {
        "display_name": "Paray Mission, D3016, Hill Top (Thaba-Tseka), Thaba-Tseka, Thaba-Tseka District, 550, Lesotho",
        "road": "D3016",
        "house_number": null,
        "neighbourhood": null,
        "suburb": "Hill Top (Thaba-Tseka)",
        "city_district": null,
        "city": "Thaba-Tseka",
        "state": "Thaba-Tseka District",
        "postcode": "550",
        "country": "Lesotho",
        "country_code": "ls"
      },
      "address": "Paray Mission, D3016, Hill Top (Thaba-Tseka), Thaba-Tseka, Thaba-Tseka District, 550, Lesotho"
    },
    {
      "lat": -29.52202626089574,
      "lon": 28.59675538648936,
      "geoinfo": {
        "display_name": "Hospital Area (Thaba-Tseka), Thaba-Tseka, Thaba-Tseka District, 550, Lesotho",
        "road": null,
        "house_number": null,
        "neighbourhood": null,
        "suburb": "Hospital Area (Thaba-Tseka)",
        "city_district": null,
        "city": "Thaba-Tseka",
        "state": "Thaba-Tseka District",
        "postcode": "550",
        "country": "Lesotho",
        "country_code": "ls"
      },
      "address": "570, Hospital Area (Thaba-Tseka), Thaba-Tseka, Thaba-Tseka District, 550, Lesotho"
    },
    {
      "lat": -29.518516873842422,
      "lon": 28.584949339606187,
      "geoinfo": {
        "display_name": "A3, Sekiring (Thaba-Tseka), Thaba-Tseka, Thaba-Tseka District, 550, Lesotho",
        "road": "A3",
        "house_number": null,
        "neighbourhood": null,
        "suburb": "Sekiring (Thaba-Tseka)",
        "city_district": null,
        "city": "Thaba-Tseka",
        "state": "Thaba-Tseka District",
        "postcode": "550",
        "country": "Lesotho",
        "country_code": "ls"
      },
      "address": "A3, Sekiring (Thaba-Tseka), Thaba-Tseka, Thaba-Tseka District, 550, Lesotho"
    },
    {
      "lat": -29.539221060678887,
      "lon": 28.651177787056696,
      "geoinfo": {
        "display_name": "Ha Nakeli, Thaba-Tseka District, Lesotho",
        "road": null,
        "house_number": null,
        "neighbourhood": null,
        "suburb": null,
        "city_district": null,
        "city": "Ha Nakeli",
        "state": "Thaba-Tseka District",
        "postcode": null,
        "country": "Lesotho",
        "country_code": "ls"
      },
      "address": "421, Ha Nakeli, 74864 Thaba-Tseka District, Lesotho"
    },
    {
      "lat": -29.50665976628817,
      "lon": 28.571212196158772,
      "geoinfo": {
        "display_name": "Thabong I (Thaba-Tseka), Thaba-Tseka, Thaba-Tseka District, 550, Lesotho",
        "road": null,
        "house_number": null,
        "neighbourhood": null,
        "suburb": "Thabong I (Thaba-Tseka)",
        "city_district": null,
        "city": "Thaba-Tseka",
        "state": "Thaba-Tseka District",
        "postcode": "550",
        "country": "Lesotho",
        "country_code": "ls"
      },
      "address": "062, Thabong I (Thaba-Tseka), Thaba-Tseka, Thaba-Tseka District, 550, Lesotho"
    },
    {
      "lat": -29.518037201672712,
      "lon": 28.560385751743183,
      "geoinfo": {
        "display_name": "A3, Khorong (Ha Sephooko), Ha Phaila, Thaba-Tseka District, Lesotho",
        "road": "A3",
        "house_number": null,
        "neighbourhood": null,
        "suburb": null,
        "city_district": null,
        "city": "Ha Phaila",
        "state": "Thaba-Tseka District",
        "postcode": null,
        "country": "Lesotho",
        "country_code": "ls"
      },
      "address": "A3, Khorong (Ha Sephooko), Ha Phaila, 53597 Thaba-Tseka District, Lesotho"
    },
    {
      "lat": -29.533554016720622,
      "lon": 28.638453597055438,
      "geoinfo": {
        "display_name": "Liphookoaneng, Thaba-Tseka, Thaba-Tseka District, Lesotho",
        "road": null,
        "house_number": null,
        "neighbourhood": null,
        "suburb": "Liphookoaneng",
        "city_district": null,
        "city": "Thaba-Tseka",
        "state": "Thaba-Tseka District",
        "postcode": null,
        "country": "Lesotho",
        "country_code": "ls"
      },
      "address": "801, Liphookoaneng, Thaba-Tseka, 79010 Thaba-Tseka District, Lesotho"
    },
    {
      "lat": -29.52802377036125,
      "lon": 28.56687669079262,
      "geoinfo": {
        "display_name": "Khorong (Ha Sephooko), Ha Phaila, Thaba-Tseka District, Lesotho",
        "road": null,
        "house_number": null,
        "neighbourhood": null,
        "suburb": null,
        "city_district": null,
        "city": "Ha Phaila",
        "state": "Thaba-Tseka District",
        "postcode": null,
        "country": "Lesotho",
        "country_code": "ls"
      },
      "address": "610, Khorong (Ha Sephooko), Ha Phaila, 24936 Thaba-Tseka District, Lesotho"
    }
  ],
  "updated_at": "2025-10-19T05:49:48.043495+00:00",
  "_kind": "geo_samples"
}