{
  "country_code": "BI",
  "country": "Burundi",
  "city": "Rumonge",
  "geonameid": 423549,
  "target_addresses": 10,
  "samples": [
    {
      "lat": -3.934507794957097,
      "lon": 29.45718818918932,
      "geoinfo": {
        "display_name": "Rukinga, Rumonge, Burundi",
        "road": null,
        "house_number": null,
        "neighbourhood": null,
        "suburb": null,
        "city_district": null,
        "city": "Rukinga",
        "state": "Rumonge",
        "postcode": null,
        "country": "Burundi",
        "country_code": "bi"
      },
      "address": "Rumonge, Rumonge, Burundi"
    },
    {
      "lat": -3.9850106575948763,
      "lon": 29.441879566380887,
      "geoinfo": {
        "display_name": "RN 3, RUKINGA, Logement du Personnel de l'OHP, Rumonge, Burundi",
        "road": "RN 3",
        "house_number": null,
        "neighbourhood": null,
        "suburb": null,
        "city_district": null,
        "city": "Rumonge",
        "state": "Rumonge",
        "postcode": null,
        "country": "Burundi",
        "country_code": "bi"
      },
      "address": "RN 3, Rumonge, Rumonge, Burundi"
    },
    {
      "lat": -4.0035090512876526,
      "lon": 29.460719711441502,
      "geoinfo": {
        "display_name": "RN 16, Buruhukiro, Rumonge, Burundi",
        "road": "RN 16",
        "house_number": null,
        "neighbourhood": null,
        "suburb": null,
        "city_district": null,
        "city": "Buruhukiro",
        "state": "Rumonge",
        "postcode": null,
        "country": "Burundi",
        "country_code": "bi"
      },
      "address": "RN 16, Rumonge, Rumonge, Burundi"
    },
    {
      "lat": -3.9630396130510053,
      "lon": 29.419196281080705,
      "geoinfo": {
        "display_name": "Logement du Personnel de l'OHP, Rumonge, Burundi",
        "road": null,
        "house_number": null,
        "neighbourhood": null,
        "suburb": null,
        "city_district": null,
        "city": "Rumonge",
        "state": "Rumonge",
        "postcode": null,
        "country": "Burundi",
        "country_code": "bi"
      },
      "address": "324, Logement du Personnel de l'OHP, 95510 Rumonge, Burundi"
    },
    {
      "lat": -3.9293924968286404,
      "lon": 29.44052944251222,
      "geoinfo": {
        "display_name": "Cunda, Rumonge, Burundi",
        "road": null,
        "house_number": null,
        "neighbourhood": null,
        "suburb": null,
        "city_district": null,
        "city": "Cunda",
        "state": "Rumonge",
        "postcode": null,
        "country": "Burundi",
        "country_code": "bi"
      },
      "address": "744, Rumonge, 93362 Rumonge, Burundi"
    },
    {
      "lat": -3.933324392002713,
      "lon": 29.428602612144868,
      "geoinfo": {
        "display_name": "Cunda, Rumonge, Burundi",
        "road": null,
        "house_number": null,
        "neighbourhood": null,
        "suburb": null,
        "city_district": null,
        "city": "Cunda",
        "state": "Rumonge",
        "postcode": null,
        "country": "Burundi",
        "country_code": "bi"
      },
      "address": "821, Rumonge, 83431 Rumonge, Burundi"
    },
    {
      "lat": -3.974751607725683,
      "lon": 29.406718226699954,
      "geoinfo": {
        "display_name": "Mbuga, Rumonge, Burundi",
        "road": null,
        "house_number": null,
        "neighbourhood": null,
        "suburb": null,
        "city_district": null,
        "city": "Mbuga",
        "state": "Rumonge",
        "postcode": null,
        "country": "Burundi",
        "country_code": "bi"
      },
      "address": "508, Rumonge, 15582 Rumonge, Burundi"
    },
    {
      "lat": -3.9728166275622248,
      "lon": 29.42135718557231,
      "geoinfo": {
        "display_name": "Logement du Personnel de l'OHP, Rumonge, Burundi",
        "road": null,
        "house_number": null,
        "neighbourhood": null,
        "suburb": null,
        "city_district": null,
        "city": "Rumonge",
        "state": "Rumonge",
        "postcode": null,
        "country": "Burundi",
        "country_code": "bi"
      },
      "address": "617, Logement du Personnel de l'OHP, 02603 Rumonge, Burundi"
    },
    {
      "lat": -3.972897301432424,
      "lon": 29.464679879253953,
      "geoinfo": {
        "display_name": "Rumonge, Burundi",
        "road": null,
        "house_number": null,
        "neighbourhood": null,
        "suburb": null,
        "city_district": null,
        "city": "Rumonge",
        "state": "Rumonge",
        "postcode": null,
        "country": "Burundi",
        "country_code": "bi"
      },
      "address": "871, Rumonge, 59694 Rumonge, Burundi"
    },
    {
      "lat": -3.9848245975068597,
      "lon": 29.404953922914356,
      "geoinfo": {
        "display_name": "Rumonge, Burundi",
        "road": null,
        "house_number": null,
        "neighbourhood": null,
        "suburb": null,
        "city_district": null,
        "city": "Rumonge",
        "state": "Rumonge",
        "postcode": null,
        "country": "Burundi",
        "country_code": "bi"
      },
      "address": "307, Rumonge, 67072 Rumonge, Burundi"
    },
    {
      "lat": -3.9754221433325982,
      "lon": 29.472287285930868,
      "geoinfo": {
        "display_name": "Rumonge, Burundi",
        "road": null,
        "house_number": null,
        "neighbourhood": null,
        "suburb": null,
        "city_district": null,
        "city": "Rumonge",
        "state": "Rumonge",
        "postcode": null,
        "country": "Burundi",
        "country_code": "bi"
      },
      "address": "465, Rumonge, 37905 Rumonge, Burundi"
    },
    {
      "lat": -3.9889745936198215,
      "lon": 29.4371749402017,
      "geoinfo": {
        "display_name": "Rumonge, Burundi",
        "road": null,
        "house_number": null,
        "neighbourhood": null,
        "suburb": null,
        "city_district": null,
        "city": "Rumonge",
        "state": "Rumonge",
        "postcode": null,
        "country": "Burundi",
        "country_code": "bi"
      },
      "address": "119, Rumonge, 11729 Rumonge, Burundi"
    },
    {
      "lat": -4.00124849136678,
      "lon": 29.45689821012482,
      "geoinfo": {
        "display_name": "Mutambara, Rumonge, Burundi",
        "road": null,
        "house_number": null,
        "neighbourhood": null,
        "suburb": null,
        "city_district": null,
        "city": "Mutambara",
        "state": "Rumonge",
        "postcode": null,
        "country": "Burundi",
        "country_code": "bi"
      },
      "address": "075, Mutambara, 69470 Rumonge, Burundi"
    }
  ],
  "updated_at": "2025-10-19T03:00:18.944063+00:00",
  "_kind": "geo_samples"
}