{
  "country_code": "NO",
  "country": "Norway",
  "city": "Alta",
  "geonameid": 847633,
  "target_addresses": 3,
  "samples": [
    {
      "lat": 70.00273692822516,
      "lon": 23.341699638364982,
      "geoinfo": {
        "display_name": "Aronnes, Alta, Finnmark, 9514, Norway",
        "road": null,
        "house_number": null,
        "neighbourhood": null,
        "suburb": "Aronnes",
        "city_district": null,
        "city": "Alta",
        "state": null,
        "postcode": "9514",
        "country": "Norway",
        "country_code": "no"
      },
      "address": "Aronnes, Alta, Norway"
    },
    {
      "lat": 69.97099627033826,
      "lon": 23.201229722452478,
      "geoinfo": {
        "display_name": "Apana, Alta, Finnmark, 9512, Norway",
        "road": null,
        "house_number": null,
        "neighbourhood": null,
        "suburb": null,
        "city_district": null,
        "city": "Alta",
        "state": null,
        "postcode": "9512",
        "country": "Norway",
        "country_code": "no"
      },
      "address": "Alta, Norway"
    },
    {
      "lat": 69.93689704172938,
      "lon": 23.228251750476026,
      "geoinfo": {
        "display_name": "17, Skoddevarre, Thomasbakken, Storgjerdsbakken, Alta, Finnmark, 9518, Norway",
        "road": "Skoddevarre",
        "house_number": "17",
        "neighbourhood": null,
        "suburb": null,
        "city_district": null,
        "city": "Alta",
        "state": null,
        "postcode": "9518",
        "country": "Norway",
        "country_code": "no"
      },
      "address": "17 Skoddevarre, Alta, Norway"
    },
    {
      "lat": 69.95547209958659,
      "lon": 23.371674236327827,
      "geoinfo": {
        "display_name": "4, Raigressveien, Kaiskuru, Paskapudas, Alta, Finnmark, 9516, Norway",
        "road": "Raigressveien",
        "house_number": "4",
        "neighbourhood": null,
        "suburb": null,
        "city_district": null,
        "city": "Alta",
        "state": null,
        "postcode": "9516",
        "country": "Norway",
        "country_code": "no"
      },
      "address": "4, Raigressveien, Kaiskuru, Paskapudas, Alta, Finnmark, 9516, Norway"
    },
    {
      "lat": 69.95778858199569,
      "lon": 23.245709096417176,
      "geoinfo": {
        "display_name": "Holtenalleen, Monsbakken - Mogensluohkká, Alta, Finnmark, 9513, Norway",
        "road": "Holtenalleen",
        "house_number": null,
        "neighbourhood": null,
        "suburb": null,
        "city_district": null,
        "city": "Alta",
        "state": null,
        "postcode": "9513",
        "country": "Norway",
        "country_code": "no"
      },
      "address": "629, Holtenalleen, Monsbakken - Mogensluohkká, Alta, Finnmark, 9513, Norway"
    },
    {
      "lat": 69.96066251016134,
      "lon": 23.148748705599854,
      "geoinfo": {
        "display_name": "Auskarnes, Alta, Finnmark, Norway",
        "road": null,
        "house_number": null,
        "neighbourhood": null,
        "suburb": null,
        "city_district": null,
        "city": "Alta",
        "state": null,
        "postcode": null,
        "country": "Norway",
        "country_code": "no"
      },
      "address": "539, Auskarnes, Alta, 71837 Finnmark, Norway"
    }
  ],
  "updated_at": "2025-10-19T04:10:15.854760+00:00",
  "_kind": "geo_samples"
}