{
  "country_code": "NO",
  "country": "Norway",
  "city": "Arendal",
  "geonameid": 3162955,
  "target_addresses": 3,
  "samples": [
    {
      "lat": 58.47675329790068,
      "lon": 8.693015966083694,
      "geoinfo": {
        "display_name": "Frolandsveien, Haven, Arendal, Agder, 4848, Norway",
        "road": "Frolandsveien",
        "house_number": null,
        "neighbourhood": null,
        "suburb": null,
        "city_district": null,
        "city": "Arendal",
        "state": null,
        "postcode": "4848",
        "country": "Norway",
        "country_code": "no"
      },
      "address": "Frolandsveien, Arendal, Norway"
    },
    {
      "lat": 58.49620265956673,
      "lon": 8.771579898339507,
      "geoinfo": {
        "display_name": "E 18, Longum, Arendal, Agder, 4844, Norway",
        "road": "E 18",
        "house_number": null,
        "neighbourhood": null,
        "suburb": null,
        "city_district": null,
        "city": "Arendal",
        "state": null,
        "postcode": "4844",
        "country": "Norway",
        "country_code": "no"
      },
      "address": "E 18, Arendal, Norway"
    },
    {
      "lat": 58.44161356369931,
      "lon": 8.818137956595672,
      "geoinfo": {
        "display_name": "89, Revesandveien, Færvik, Arendal, Agder, 4818, Norway",
        "road": "Revesandveien",
        "house_number": "89",
        "neighbourhood": null,
        "suburb": "Færvik",
        "city_district": null,
        "city": "Arendal",
        "state": null,
        "postcode": "4818",
        "country": "Norway",
        "country_code": "no"
      },
      "address": "89 Revesandveien, Arendal, Norway"
    },
    {
      "lat": 58.450203439473526,
      "lon": 8.748943070019418,
      "geoinfo": {
        "display_name": "27, Skauveien, His haveby øst, Guldsmedenga, Arendal, Agder, 4839, Norway",
        "road": "Skauveien",
        "house_number": "27",
        "neighbourhood": "His haveby øst",
        "suburb": null,
        "city_district": null,
        "city": "Arendal",
        "state": null,
        "postcode": "4839",
        "country": "Norway",
        "country_code": "no"
      },
      "address": "27, Skauveien, His haveby øst, Guldsmedenga, Arendal, Agder, 4839, Norway"
    },
    {
      "lat": 58.501842884770944,
      "lon": 8.747528095882165,
      "geoinfo": {
        "display_name": "110, Krakstadveien, Krakstad, Arendal, Agder, 4848, Norway",
        "road": "Krakstadveien",
        "house_number": "110",
        "neighbourhood": null,
        "suburb": null,
        "city_district": null,
        "city": "Arendal",
        "state": null,
        "postcode": "4848",
        "country": "Norway",
        "country_code": "no"
      },
      "address": "110, Krakstadveien, Krakstad, Arendal, Agder, 4848, Norway"
    },
    {
      "lat": 58.491653086484824,
      "lon": 8.774563331813871,
      "geoinfo": {
        "display_name": "44, Bjørneboveien, Stølen, Arendal, Agder, 4849, Norway",
        "road": "Bjørneboveien",
        "house_number": "44",
        "neighbourhood": null,
        "suburb": null,
        "city_district": null,
        "city": "Arendal",
        "state": null,
        "postcode": "4849",
        "country": "Norway",
        "country_code": "no"
      },
      "address": "44, Bjørneboveien, Stølen, Arendal, Agder, 4849, Norway"
    }
  ],
  "updated_at": "2025-10-19T06:23:23.388429+00:00",
  "_kind": "geo_samples"
}