{
  "country_code": "NO",
  "country": "Norway",
  "city": "Asker",
  "geonameid": 3162657,
  "target_addresses": 3,
  "samples": [
    {
      "lat": 59.84176045667262,
      "lon": 10.352504586942622,
      "geoinfo": {
        "display_name": "Solliveien, Asker, Akershus, 3420, Norway",
        "road": "Solliveien",
        "house_number": null,
        "neighbourhood": null,
        "suburb": null,
        "city_district": null,
        "city": null,
        "state": null,
        "postcode": "3420",
        "country": "Norway",
        "country_code": "no"
      },
      "address": "Solliveien, Asker, Norway"
    },
    {
      "lat": 59.79391850779871,
      "lon": 10.454772447283236,
      "geoinfo": {
        "display_name": "100, Vollenveien, Trollstein, Gisle, Gjellum, Asker, Akershus, 1389, Norway",
        "road": "Vollenveien",
        "house_number": "100",
        "neighbourhood": null,
        "suburb": null,
        "city_district": null,
        "city": "Gjellum",
        "state": null,
        "postcode": "1389",
        "country": "Norway",
        "country_code": "no"
      },
      "address": "100 Vollenveien, Asker, Norway"
    },
    {
      "lat": 59.856137477086165,
      "lon": 10.443096227942364,
      "geoinfo": {
        "display_name": "198E, Semsveien, Vøyen, Sem, Asker, Akershus, 1384, Norway",
        "road": "Semsveien",
        "house_number": "198E",
        "neighbourhood": null,
        "suburb": "Sem",
        "city_district": null,
        "city": "Asker",
        "state": null,
        "postcode": "1384",
        "country": "Norway",
        "country_code": "no"
      },
      "address": "198E Semsveien, Asker, Norway"
    },
    {
      "lat": 59.84607549887121,
      "lon": 10.450006887238173,
      "geoinfo": {
        "display_name": "9C, Johs. Nores vei, Høn, Vakås, Asker, Akershus, 1384, Norway",
        "road": "Johs. Nores vei",
        "house_number": "9C",
        "neighbourhood": null,
        "suburb": "Vakås",
        "city_district": null,
        "city": "Asker",
        "state": null,
        "postcode": "1384",
        "country": "Norway",
        "country_code": "no"
      },
      "address": "9C, Johs. Nores vei, Høn, Vakås, Asker, Akershus, 1384, Norway"
    },
    {
      "lat": 59.842189923007155,
      "lon": 10.368775078654021,
      "geoinfo": {
        "display_name": "Solliveien, Bergsmarka, Vøyen, Haneval, Asker, Akershus, 1385, Norway",
        "road": "Solliveien",
        "house_number": null,
        "neighbourhood": null,
        "suburb": null,
        "city_district": null,
        "city": "Asker",
        "state": null,
        "postcode": "1385",
        "country": "Norway",
        "country_code": "no"
      },
      "address": "306, Solliveien, Bergsmarka, Vøyen, Haneval, Asker, Akershus, 1385, Norway"
    },
    {
      "lat": 59.83406963099291,
      "lon": 10.457810522059923,
      "geoinfo": {
        "display_name": "24C, Dalebakken, Bondibråten, Asker, Akershus, 1387, Norway",
        "road": "Dalebakken",
        "house_number": "24C",
        "neighbourhood": null,
        "suburb": "Bondibråten",
        "city_district": null,
        "city": "Asker",
        "state": null,
        "postcode": "1387",
        "country": "Norway",
        "country_code": "no"
      },
      "address": "24C, Dalebakken, Bondibråten, Asker, Akershus, 1387, Norway"
    }
  ],
  "updated_at": "2025-10-19T08:50:50.332013+00:00",
  "_kind": "geo_samples"
}