{
  "country_code": "NO",
  "country": "Norway",
  "city": "Drammen",
  "geonameid": 3159016,
  "target_addresses": 3,
  "samples": [
    {
      "lat": 59.70441817997481,
      "lon": 10.224482658083007,
      "geoinfo": {
        "display_name": "Gjerpen, Åskollen, Drammen, Buskerud, 3035, Norway",
        "road": null,
        "house_number": null,
        "neighbourhood": null,
        "suburb": null,
        "city_district": "Åskollen",
        "city": "Drammen",
        "state": null,
        "postcode": "3035",
        "country": "Norway",
        "country_code": "no"
      },
      "address": "Åskollen, Drammen, Norway"
    },
    {
      "lat": 59.72713883639403,
      "lon": 10.155304460978298,
      "geoinfo": {
        "display_name": "32A, Gamleveien, Ekholt, Konnerud, Drammen, Buskerud, 3030, Norway",
        "road": "Gamleveien",
        "house_number": "32A",
        "neighbourhood": "Ekholt",
        "suburb": null,
        "city_district": "Konnerud",
        "city": "Drammen",
        "state": null,
        "postcode": "3030",
        "country": "Norway",
        "country_code": "no"
      },
      "address": "32A Gamleveien, Drammen, Norway"
    },
    {
      "lat": 59.70260140100125,
      "lon": 10.202128178715162,
      "geoinfo": {
        "display_name": "Strømsøåsrunden, Konnerud, Drammen, Buskerud, 3042, Norway",
        "road": "Strømsøåsrunden",
        "house_number": null,
        "neighbourhood": null,
        "suburb": null,
        "city_district": "Konnerud",
        "city": "Drammen",
        "state": null,
        "postcode": "3042",
        "country": "Norway",
        "country_code": "no"
      },
      "address": "Strømsøåsrunden, Drammen, Norway"
    },
    {
      "lat": 59.72210099672029,
      "lon": 10.25890487352904,
      "geoinfo": {
        "display_name": "70, Svelvikveien, Merket, Tangen, Åskollen, Drammen, Buskerud, 3039, Norway",
        "road": "Svelvikveien",
        "house_number": "70",
        "neighbourhood": "Merket",
        "suburb": "Tangen",
        "city_district": "Åskollen",
        "city": "Drammen",
        "state": null,
        "postcode": "3039",
        "country": "Norway",
        "country_code": "no"
      },
      "address": "70, Svelvikveien, Merket, Tangen, Åskollen, Drammen, Buskerud, 3039, Norway"
    },
    {
      "lat": 59.76410301777038,
      "lon": 10.183132922147179,
      "geoinfo": {
        "display_name": "Overlia, Underlia, Bragernes, Drammen, Buskerud, 3021, Norway",
        "road": "Overlia",
        "house_number": null,
        "neighbourhood": null,
        "suburb": null,
        "city_district": "Bragernes",
        "city": "Drammen",
        "state": null,
        "postcode": "3021",
        "country": "Norway",
        "country_code": "no"
      },
      "address": "692, Overlia, Underlia, Bragernes, Drammen, Buskerud, 3021, Norway"
    },
    {
      "lat": 59.725755058665456,
      "lon": 10.282303732714466,
      "geoinfo": {
        "display_name": "Åskollen, Drammen, Buskerud, 3038, Norway",
        "road": null,
        "house_number": null,
        "neighbourhood": null,
        "suburb": "Åskollen",
        "city_district": "Åskollen",
        "city": "Drammen",
        "state": null,
        "postcode": "3038",
        "country": "Norway",
        "country_code": "no"
      },
      "address": "522, Åskollen, Drammen, Buskerud, 3038, Norway"
    }
  ],
  "updated_at": "2025-10-19T06:18:37.278767+00:00",
  "_kind": "geo_samples"
}