{
  "country_code": "NO",
  "country": "Norway",
  "city": "Fredrikstad",
  "geonameid": 3156529,
  "target_addresses": 3,
  "samples": [
    {
      "lat": 59.206371561889405,
      "lon": 10.929977337129323,
      "geoinfo": {
        "display_name": "12, Bjerkestien, Hauertomtene, Åsgård, Fredrikstad, Østfold, 1671, Norway",
        "road": "Bjerkestien",
        "house_number": "12",
        "neighbourhood": "Hauertomtene",
        "suburb": null,
        "city_district": null,
        "city": "Fredrikstad",
        "state": null,
        "postcode": "1671",
        "country": "Norway",
        "country_code": "no"
      },
      "address": "12 Bjerkestien, Fredrikstad, Norway"
    },
    {
      "lat": 59.1895689600563,
      "lon": 10.993624422269685,
      "geoinfo": {
        "display_name": "Turveien, Gansrød, Fredrikstad, Østfold, 1637, Norway",
        "road": "Turveien",
        "house_number": null,
        "neighbourhood": null,
        "suburb": null,
        "city_district": null,
        "city": "Fredrikstad",
        "state": null,
        "postcode": "1637",
        "country": "Norway",
        "country_code": "no"
      },
      "address": "Turveien, Fredrikstad, Norway"
    },
    {
      "lat": 59.21373171698957,
      "lon": 10.86384543507861,
      "geoinfo": {
        "display_name": "Dyrødveien, Fjelle, Fredrikstad, Østfold, 1622, Norway",
        "road": "Dyrødveien",
        "house_number": null,
        "neighbourhood": null,
        "suburb": null,
        "city_district": null,
        "city": "Fredrikstad",
        "state": null,
        "postcode": "1622",
        "country": "Norway",
        "country_code": "no"
      },
      "address": "Dyrødveien, Fredrikstad, Norway"
    },
    {
      "lat": 59.20023561803265,
      "lon": 10.86692734809316,
      "geoinfo": {
        "display_name": "40, Vikaneveien, Okseviken, Lille Dale, Gressvik, Fredrikstad, Østfold, 1622, Norway",
        "road": "Vikaneveien",
        "house_number": "40",
        "neighbourhood": "Okseviken",
        "suburb": null,
        "city_district": null,
        "city": "Gressvik",
        "state": null,
        "postcode": "1622",
        "country": "Norway",
        "country_code": "no"
      },
      "address": "40, Vikaneveien, Okseviken, Lille Dale, Gressvik, Fredrikstad, Østfold, 1622, Norway"
    },
    {
      "lat": 59.20825321775109,
      "lon": 10.9993566184869,
      "geoinfo": {
        "display_name": "2, Regimentveien, Lilleby, Moen, Begby, Fredrikstad, Østfold, 1639, Norway",
        "road": "Regimentveien",
        "house_number": "2",
        "neighbourhood": "Lilleby",
        "suburb": null,
        "city_district": null,
        "city": "Begby",
        "state": null,
        "postcode": "1639",
        "country": "Norway",
        "country_code": "no"
      },
      "address": "2, Regimentveien, Lilleby, Moen, Begby, Fredrikstad, Østfold, 1639, Norway"
    },
    {
      "lat": 59.25613178031547,
      "lon": 10.918733651643524,
      "geoinfo": {
        "display_name": "Strandbråten, Krabberød, Strand, Fredrikstad, Østfold, 1615, Norway",
        "road": "Strandbråten",
        "house_number": null,
        "neighbourhood": "Krabberød",
        "suburb": null,
        "city_district": null,
        "city": "Fredrikstad",
        "state": null,
        "postcode": "1615",
        "country": "Norway",
        "country_code": "no"
      },
      "address": "589, Strandbråten, Krabberød, Strand, Fredrikstad, Østfold, 1615, Norway"
    }
  ],
  "updated_at": "2025-10-19T06:25:41.149211+00:00",
  "_kind": "geo_samples"
}