{
  "country_code": "NO",
  "country": "Norway",
  "city": "Harstad",
  "geonameid": 3153823,
  "target_addresses": 3,
  "samples": [
    {
      "lat": 68.76430749416183,
      "lon": 16.55095940841137,
      "geoinfo": {
        "display_name": "5, Vargmyra, Heggen, Harstad, Troms, 9411, Norway",
        "road": "Vargmyra",
        "house_number": "5",
        "neighbourhood": null,
        "suburb": null,
        "city_district": null,
        "city": "Harstad",
        "state": null,
        "postcode": "9411",
        "country": "Norway",
        "country_code": "no"
      },
      "address": "5 Vargmyra, Harstad, Norway"
    },
    {
      "lat": 68.81234171699619,
      "lon": 16.462602781709613,
      "geoinfo": {
        "display_name": "Bergseng, Harstad, Troms, 9402, Norway",
        "road": null,
        "house_number": null,
        "neighbourhood": null,
        "suburb": "Bergseng",
        "city_district": null,
        "city": "Harstad",
        "state": null,
        "postcode": "9402",
        "country": "Norway",
        "country_code": "no"
      },
      "address": "Bergseng, Harstad, Norway"
    },
    {
      "lat": 68.81478489755553,
      "lon": 16.63710377104748,
      "geoinfo": {
        "display_name": "Harstad, Troms, Norway",
        "road": null,
        "house_number": null,
        "neighbourhood": null,
        "suburb": null,
        "city_district": null,
        "city": null,
        "state": null,
        "postcode": null,
        "country": "Norway",
        "country_code": "no"
      },
      "address": "Harstad, Norway"
    },
    {
      "lat": 68.82297915169244,
      "lon": 16.561411406218422,
      "geoinfo": {
        "display_name": "134, Trondenesveien, Altevåg, Harstad, Troms, 9404, Norway",
        "road": "Trondenesveien",
        "house_number": "134",
        "neighbourhood": null,
        "suburb": null,
        "city_district": null,
        "city": "Harstad",
        "state": null,
        "postcode": "9404",
        "country": "Norway",
        "country_code": "no"
      },
      "address": "134, Trondenesveien, Altevåg, Harstad, Troms, 9404, Norway"
    },
    {
      "lat": 68.77580752985293,
      "lon": 16.521514744876765,
      "geoinfo": {
        "display_name": "7, Nilsheimveien, Seljestad, Harstad, Troms, 9407, Norway",
        "road": "Nilsheimveien",
        "house_number": "7",
        "neighbourhood": null,
        "suburb": "Seljestad",
        "city_district": null,
        "city": "Harstad",
        "state": null,
        "postcode": "9407",
        "country": "Norway",
        "country_code": "no"
      },
      "address": "7, Nilsheimveien, Seljestad, Harstad, Troms, 9407, Norway"
    },
    {
      "lat": 68.76543410122234,
      "lon": 16.5742027603772,
      "geoinfo": {
        "display_name": "Osneset, Hals, Harstad, Troms, 9414, Norway",
        "road": "Osneset",
        "house_number": null,
        "neighbourhood": null,
        "suburb": null,
        "city_district": null,
        "city": "Harstad",
        "state": null,
        "postcode": "9414",
        "country": "Norway",
        "country_code": "no"
      },
      "address": "979, Osneset, Hals, Harstad, Troms, 9414, Norway"
    }
  ],
  "updated_at": "2025-10-19T04:10:49.812602+00:00",
  "_kind": "geo_samples"
}