{
  "country_code": "NO",
  "country": "Norway",
  "city": "Haugesund",
  "geonameid": 3153623,
  "target_addresses": 3,
  "samples": [
    {
      "lat": 59.455873595096584,
      "lon": 5.265140721213805,
      "geoinfo": {
        "display_name": "Tittelsnesvegen, Fagerheim, Haugesund, Rogaland, 5514, Norway",
        "road": "Tittelsnesvegen",
        "house_number": null,
        "neighbourhood": null,
        "suburb": null,
        "city_district": null,
        "city": "Haugesund",
        "state": null,
        "postcode": "5514",
        "country": "Norway",
        "country_code": "no"
      },
      "address": "Tittelsnesvegen, Haugesund, Norway"
    },
    {
      "lat": 59.44834879229489,
      "lon": 5.218226423694961,
      "geoinfo": {
        "display_name": "Haugesund, Rogaland, 5527, Norway",
        "road": null,
        "house_number": null,
        "neighbourhood": null,
        "suburb": null,
        "city_district": null,
        "city": "Haugesund",
        "state": null,
        "postcode": "5527",
        "country": "Norway",
        "country_code": "no"
      },
      "address": "Haugesund, Norway"
    },
    {
      "lat": 59.42642657673161,
      "lon": 5.249016593090888,
      "geoinfo": {
        "display_name": "13, Grannesgata, Haugesund, Rogaland, 5523, Norway",
        "road": "Grannesgata",
        "house_number": "13",
        "neighbourhood": null,
        "suburb": null,
        "city_district": null,
        "city": "Haugesund",
        "state": null,
        "postcode": "5523",
        "country": "Norway",
        "country_code": "no"
      },
      "address": "13 Grannesgata, Haugesund, Norway"
    },
    {
      "lat": 59.4088391290871,
      "lon": 5.330747266727389,
      "geoinfo": {
        "display_name": "1, Alf Skares gate, Fedjedalen, Haugesund, Rogaland, 5534, Norway",
        "road": "Alf Skares gate",
        "house_number": "1",
        "neighbourhood": "Fedjedalen",
        "suburb": null,
        "city_district": null,
        "city": "Haugesund",
        "state": null,
        "postcode": "5534",
        "country": "Norway",
        "country_code": "no"
      },
      "address": "1, Alf Skares gate, Fedjedalen, Haugesund, Rogaland, 5534, Norway"
    },
    {
      "lat": 59.402167475764614,
      "lon": 5.279683421397746,
      "geoinfo": {
        "display_name": "41A, Martin Nielsens gate, Litlasund, Rossabø, Haugesund, Rogaland, 5529, Norway",
        "road": "Martin Nielsens gate",
        "house_number": "41A",
        "neighbourhood": "Litlasund",
        "suburb": "Rossabø",
        "city_district": null,
        "city": "Haugesund",
        "state": null,
        "postcode": "5529",
        "country": "Norway",
        "country_code": "no"
      },
      "address": "41A, Martin Nielsens gate, Litlasund, Rossabø, Haugesund, Rogaland, 5529, Norway"
    },
    {
      "lat": 59.424417462400065,
      "lon": 5.293215297379052,
      "geoinfo": {
        "display_name": "19, Ramsdalsvegen, Ramsdalen, Bleikemyr, Haugesund, Rogaland, 5519, Norway",
        "road": "Ramsdalsvegen",
        "house_number": "19",
        "neighbourhood": "Ramsdalen",
        "suburb": "Bleikemyr",
        "city_district": null,
        "city": "Haugesund",
        "state": null,
        "postcode": "5519",
        "country": "Norway",
        "country_code": "no"
      },
      "address": "19, Ramsdalsvegen, Ramsdalen, Bleikemyr, Haugesund, Rogaland, 5519, Norway"
    }
  ],
  "updated_at": "2025-10-19T04:10:39.540387+00:00",
  "_kind": "geo_samples"
}