{
  "country_code": "NO",
  "country": "Norway",
  "city": "Horten",
  "geonameid": 3151770,
  "target_addresses": 15,
  "samples": [
    {
      "lat": 59.424681749991606,
      "lon": 10.443855152729567,
      "geoinfo": {
        "display_name": "28, Jensebråten, Laskenlia, Kongsten, Horten, Vestfold, 3189, Norway",
        "road": "Jensebråten",
        "house_number": "28",
        "neighbourhood": "Laskenlia",
        "suburb": null,
        "city_district": null,
        "city": "Horten",
        "state": null,
        "postcode": "3189",
        "country": "Norway",
        "country_code": "no"
      },
      "address": "28 Jensebråten, Horten, Norway"
    },
    {
      "lat": 59.382302817619745,
      "lon": 10.451921777065527,
      "geoinfo": {
        "display_name": "16B, Sandeveien, Kirkebakken, Gannestad, Borre, Horten, Vestfold, 3184, Norway",
        "road": "Sandeveien",
        "house_number": "16B",
        "neighbourhood": "Kirkebakken",
        "suburb": null,
        "city_district": null,
        "city": "Borre",
        "state": null,
        "postcode": "3184",
        "country": "Norway",
        "country_code": "no"
      },
      "address": "16B Sandeveien, Horten, Norway"
    },
    {
      "lat": 59.43338674949252,
      "lon": 10.42667355111369,
      "geoinfo": {
        "display_name": "Falkenstensveien, Skavli, Kotterød, Horten, Vestfold, 3189, Norway",
        "road": "Falkenstensveien",
        "house_number": null,
        "neighbourhood": "Skavli",
        "suburb": null,
        "city_district": null,
        "city": null,
        "state": null,
        "postcode": "3189",
        "country": "Norway",
        "country_code": "no"
      },
      "address": "Falkenstensveien, Horten, Norway"
    },
    {
      "lat": 59.45493561932077,
      "lon": 10.446033831204026,
      "geoinfo": {
        "display_name": "80, Løvøyveien, Falkensten, Vadfiskerstua, Horten, Vestfold, 3189, Norway",
        "road": "Løvøyveien",
        "house_number": "80",
        "neighbourhood": null,
        "suburb": null,
        "city_district": null,
        "city": null,
        "state": null,
        "postcode": "3189",
        "country": "Norway",
        "country_code": "no"
      },
      "address": "80, Løvøyveien, Falkensten, Vadfiskerstua, Horten, Vestfold, 3189, Norway"
    },
    {
      "lat": 59.406256868125894,
      "lon": 10.411247886943798,
      "geoinfo": {
        "display_name": "Nykirkeveien, Ryggland, Horten, Vestfold, 3185, Norway",
        "road": "Nykirkeveien",
        "house_number": null,
        "neighbourhood": null,
        "suburb": null,
        "city_district": null,
        "city": null,
        "state": null,
        "postcode": "3185",
        "country": "Norway",
        "country_code": "no"
      },
      "address": "747, Nykirkeveien, Ryggland, Horten, Vestfold, 3185, Norway"
    },
    {
      "lat": 59.42992145488909,
      "lon": 10.406036035475429,
      "geoinfo": {
        "display_name": "Skaaneveien, Skåne, Nykirke, Horten, Vestfold, 3180, Norway",
        "road": "Skaaneveien",
        "house_number": null,
        "neighbourhood": null,
        "suburb": null,
        "city_district": null,
        "city": "Nykirke",
        "state": null,
        "postcode": "3180",
        "country": "Norway",
        "country_code": "no"
      },
      "address": "871, Skaaneveien, Skåne, Nykirke, Horten, Vestfold, 3180, Norway"
    },
    {
      "lat": 59.39029073623912,
      "lon": 10.426139102083052,
      "geoinfo": {
        "display_name": "Vikveien, Sande østre, Skoppum, Horten, Vestfold, 3185, Norway",
        "road": "Vikveien",
        "house_number": null,
        "neighbourhood": null,
        "suburb": null,
        "city_district": null,
        "city": "Skoppum",
        "state": null,
        "postcode": "3185",
        "country": "Norway",
        "country_code": "no"
      },
      "address": "473, Vikveien, Sande østre, Skoppum, Horten, Vestfold, 3185, Norway"
    },
    {
      "lat": 59.424401889217556,
      "lon": 10.458241272785287,
      "geoinfo": {
        "display_name": "32, Skoggata, Keisermarka, Apenes, Horten, Vestfold, 3189, Norway",
        "road": "Skoggata",
        "house_number": "32",
        "neighbourhood": "Keisermarka",
        "suburb": "Apenes",
        "city_district": null,
        "city": "Horten",
        "state": null,
        "postcode": "3189",
        "country": "Norway",
        "country_code": "no"
      },
      "address": "32, Skoggata, Keisermarka, Apenes, Horten, Vestfold, 3189, Norway"
    },
    {
      "lat": 59.412065377023275,
      "lon": 10.490644052726552,
      "geoinfo": {
        "display_name": "19, Holtandalen, Horten, Vestfold, 3187, Norway",
        "road": "19",
        "house_number": null,
        "neighbourhood": null,
        "suburb": "Holtandalen",
        "city_district": null,
        "city": "Horten",
        "state": null,
        "postcode": "3187",
        "country": "Norway",
        "country_code": "no"
      },
      "address": "19, Holtandalen, Horten, Vestfold, 3187, Norway"
    },
    {
      "lat": 59.40071587325621,
      "lon": 10.543234129050932,
      "geoinfo": {
        "display_name": "Horten, Vestfold, 3181, Norway",
        "road": null,
        "house_number": null,
        "neighbourhood": null,
        "suburb": null,
        "city_district": null,
        "city": "Horten",
        "state": null,
        "postcode": "3181",
        "country": "Norway",
        "country_code": "no"
      },
      "address": "376, Horten, Vestfold, 3181, Norway"
    },
    {
      "lat": 59.390330120856056,
      "lon": 10.536078935816633,
      "geoinfo": {
        "display_name": "Moloveien, Karljohansvern, Horten, Vestfold, 3187, Norway",
        "road": "Moloveien",
        "house_number": null,
        "neighbourhood": null,
        "suburb": "Karljohansvern",
        "city_district": null,
        "city": "Horten",
        "state": null,
        "postcode": "3187",
        "country": "Norway",
        "country_code": "no"
      },
      "address": "118, Moloveien, Karljohansvern, Horten, Vestfold, 3187, Norway"
    },
    {
      "lat": 59.403011777655806,
      "lon": 10.488921266702958,
      "geoinfo": {
        "display_name": "Småbåtshavn, Kyststien, Strandparken, Tveiten, Horten, Vestfold, 3187, Norway",
        "road": "Kyststien",
        "house_number": null,
        "neighbourhood": "Strandparken",
        "suburb": "Tveiten",
        "city_district": null,
        "city": "Horten",
        "state": null,
        "postcode": "3187",
        "country": "Norway",
        "country_code": "no"
      },
      "address": "652, Kyststien, 3187 Horten, Norway"
    },
    {
      "lat": 59.379279499649016,
      "lon": 10.489817069562124,
      "geoinfo": {
        "display_name": "Søndre Vold, Birkely, Borre, Horten, Vestfold, 3186, Norway",
        "road": null,
        "house_number": null,
        "neighbourhood": null,
        "suburb": null,
        "city_district": null,
        "city": "Borre",
        "state": null,
        "postcode": "3186",
        "country": "Norway",
        "country_code": "no"
      },
      "address": "896, Søndre Vold, Birkely, Borre, Horten, Vestfold, 3186, Norway"
    },
    {
      "lat": 59.441174824928595,
      "lon": 10.462718314977636,
      "geoinfo": {
        "display_name": "Kjølhalskogen, Horten, Vestfold, 3189, Norway",
        "road": null,
        "house_number": null,
        "neighbourhood": "Kjølhalskogen",
        "suburb": null,
        "city_district": null,
        "city": "Horten",
        "state": null,
        "postcode": "3189",
        "country": "Norway",
        "country_code": "no"
      },
      "address": "698, Kjølhalskogen, Horten, Vestfold, 3189, Norway"
    },
    {
      "lat": 59.43823666723719,
      "lon": 10.496271788027787,
      "geoinfo": {
        "display_name": "Nedre vei, Karljohansvern, Horten, Vestfold, 3183, Norway",
        "road": "Nedre vei",
        "house_number": null,
        "neighbourhood": null,
        "suburb": "Karljohansvern",
        "city_district": null,
        "city": "Horten",
        "state": null,
        "postcode": "3183",
        "country": "Norway",
        "country_code": "no"
      },
      "address": "037, Nedre vei, Karljohansvern, Horten, Vestfold, 3183, Norway"
    }
  ],
  "updated_at": "2025-10-19T06:01:04.202755+00:00",
  "_kind": "geo_samples"
}