{
  "country_code": "NO",
  "country": "Norway",
  "city": "Kristiansand",
  "geonameid": 3149318,
  "target_addresses": 3,
  "samples": [
    {
      "lat": 58.113979346491874,
      "lon": 7.969093135524816,
      "geoinfo": {
        "display_name": "Sun-Net AS, Andøyveien, Voie, Voiebyen, Kristiansand, Agder, 4623, Norway",
        "road": "Andøyveien",
        "house_number": null,
        "neighbourhood": "Voie",
        "suburb": "Voiebyen",
        "city_district": null,
        "city": "Kristiansand",
        "state": null,
        "postcode": "4623",
        "country": "Norway",
        "country_code": "no"
      },
      "address": "Andøyveien, Kristiansand, Norway"
    },
    {
      "lat": 58.13701134373883,
      "lon": 8.075064981811318,
      "geoinfo": {
        "display_name": "43, Odderhei terrasse, Odderhei, Leirkilen, Kristiansand, Agder, 4639, Norway",
        "road": "Odderhei terrasse",
        "house_number": "43",
        "neighbourhood": "Odderhei",
        "suburb": null,
        "city_district": null,
        "city": "Kristiansand",
        "state": null,
        "postcode": "4639",
        "country": "Norway",
        "country_code": "no"
      },
      "address": "43 Odderhei terrasse, Kristiansand, Norway"
    },
    {
      "lat": 58.16181395161066,
      "lon": 8.018979475702592,
      "geoinfo": {
        "display_name": "471, Tobienborg, Frydendal, Kristiansand, Agder, 4631, Norway",
        "road": "471",
        "house_number": null,
        "neighbourhood": "Tobienborg",
        "suburb": null,
        "city_district": null,
        "city": "Kristiansand",
        "state": null,
        "postcode": "4631",
        "country": "Norway",
        "country_code": "no"
      },
      "address": "471, Kristiansand, Norway"
    },
    {
      "lat": 58.12079060102656,
      "lon": 7.977163142676481,
      "geoinfo": {
        "display_name": "19A, Andøyfaret, Voie, Voiebyen, Kristiansand, Agder, 4623, Norway",
        "road": "Andøyfaret",
        "house_number": "19A",
        "neighbourhood": "Voie",
        "suburb": "Voiebyen",
        "city_district": null,
        "city": "Kristiansand",
        "state": null,
        "postcode": "4623",
        "country": "Norway",
        "country_code": "no"
      },
      "address": "19A, Andøyfaret, Voie, Voiebyen, Kristiansand, Agder, 4623, Norway"
    },
    {
      "lat": 58.16536734652759,
      "lon": 8.027091910175072,
      "geoinfo": {
        "display_name": "32B, Bjørndalsheia, Vige, Bjørndalen, Kristiansand, Agder, 4631, Norway",
        "road": "Bjørndalsheia",
        "house_number": "32B",
        "neighbourhood": "Vige",
        "suburb": null,
        "city_district": null,
        "city": "Kristiansand",
        "state": null,
        "postcode": "4631",
        "country": "Norway",
        "country_code": "no"
      },
      "address": "32B, Bjørndalsheia, Vige, Bjørndalen, Kristiansand, Agder, 4631, Norway"
    },
    {
      "lat": 58.17666449419713,
      "lon": 8.024679968097862,
      "geoinfo": {
        "display_name": "5, Louises vei, Fagerholt, Greppestøl, Kristiansand, Agder, 4633, Norway",
        "road": "Louises vei",
        "house_number": "5",
        "neighbourhood": "Fagerholt",
        "suburb": null,
        "city_district": null,
        "city": "Kristiansand",
        "state": null,
        "postcode": "4633",
        "country": "Norway",
        "country_code": "no"
      },
      "address": "5, Louises vei, Fagerholt, Greppestøl, Kristiansand, Agder, 4633, Norway"
    }
  ],
  "updated_at": "2025-10-19T06:00:30.198899+00:00",
  "_kind": "geo_samples"
}