{
  "country_code": "NO",
  "country": "Norway",
  "city": "Levanger",
  "geonameid": 3147698,
  "target_addresses": 3,
  "samples": [
    {
      "lat": 63.784409054305165,
      "lon": 11.317336091201762,
      "geoinfo": {
        "display_name": "Røstad, Levanger, Trøndelag, 7604, Norway",
        "road": null,
        "house_number": null,
        "neighbourhood": null,
        "suburb": "Røstad",
        "city_district": null,
        "city": "Levanger",
        "state": null,
        "postcode": "7604",
        "country": "Norway",
        "country_code": "no"
      },
      "address": "Røstad, Levanger, Norway"
    },
    {
      "lat": 63.748337904287204,
      "lon": 11.27120455808586,
      "geoinfo": {
        "display_name": "Alstadhaugvegen, Staupslia, Dyan, Levanger, Trøndelag, 7602, Norway",
        "road": "Alstadhaugvegen",
        "house_number": null,
        "neighbourhood": "Staupslia",
        "suburb": null,
        "city_district": null,
        "city": "Levanger",
        "state": null,
        "postcode": "7602",
        "country": "Norway",
        "country_code": "no"
      },
      "address": "Alstadhaugvegen, Levanger, Norway"
    },
    {
      "lat": 63.73804707310222,
      "lon": 11.223339772248474,
      "geoinfo": {
        "display_name": "Ytternesset, Granlund, Levanger, Trøndelag, 7607, Norway",
        "road": "Ytternesset",
        "house_number": null,
        "neighbourhood": null,
        "suburb": null,
        "city_district": null,
        "city": null,
        "state": null,
        "postcode": "7607",
        "country": "Norway",
        "country_code": "no"
      },
      "address": "Ytternesset, Levanger, Norway"
    },
    {
      "lat": 63.71709884184923,
      "lon": 11.335352707938279,
      "geoinfo": {
        "display_name": "397, Tømtevegen, Lyngstad, Levanger, Trøndelag, 7608, Norway",
        "road": "Tømtevegen",
        "house_number": "397",
        "neighbourhood": null,
        "suburb": null,
        "city_district": null,
        "city": "Levanger",
        "state": null,
        "postcode": "7608",
        "country": "Norway",
        "country_code": "no"
      },
      "address": "397, Tømtevegen, Lyngstad, Levanger, Trøndelag, 7608, Norway"
    },
    {
      "lat": 63.75921015042311,
      "lon": 11.24858369255709,
      "geoinfo": {
        "display_name": "352, Nordsivegen, Kjønstadmarka, Nordenborg, Levanger, Trøndelag, 7607, Norway",
        "road": "Nordsivegen",
        "house_number": "352",
        "neighbourhood": "Kjønstadmarka",
        "suburb": null,
        "city_district": null,
        "city": "Levanger",
        "state": null,
        "postcode": "7607",
        "country": "Norway",
        "country_code": "no"
      },
      "address": "352, Nordsivegen, Kjønstadmarka, Nordenborg, Levanger, Trøndelag, 7607, Norway"
    },
    {
      "lat": 63.762728919470135,
      "lon": 11.239689317537792,
      "geoinfo": {
        "display_name": "Litlenget, Sørkleiva, Nesset, Levanger, Trøndelag, 7607, Norway",
        "road": null,
        "house_number": null,
        "neighbourhood": "Sørkleiva",
        "suburb": "Nesset",
        "city_district": null,
        "city": "Levanger",
        "state": null,
        "postcode": "7607",
        "country": "Norway",
        "country_code": "no"
      },
      "address": "083, Litlenget, Sørkleiva, Nesset, Levanger, Trøndelag, 7607, Norway"
    }
  ],
  "updated_at": "2025-10-19T06:00:18.079812+00:00",
  "_kind": "geo_samples"
}