{
  "country_code": "NO",
  "country": "Norway",
  "city": "Lillestrøm",
  "geonameid": 3147465,
  "target_addresses": 3,
  "samples": [
    {
      "lat": 59.98473330943167,
      "lon": 11.046700876593839,
      "geoinfo": {
        "display_name": "21A, Riisalleen, Ris, Kjeller, Lillestrøm, Akershus, 2007, Norway",
        "road": "Riisalleen",
        "house_number": "21A",
        "neighbourhood": null,
        "suburb": null,
        "city_district": null,
        "city": "Kjeller",
        "state": null,
        "postcode": "2007",
        "country": "Norway",
        "country_code": "no"
      },
      "address": "21A Riisalleen, Lillestrøm, Norway"
    },
    {
      "lat": 59.92639633011286,
      "lon": 11.103768561680626,
      "geoinfo": {
        "display_name": "Lillestrøm, Akershus, 2003, Norway",
        "road": null,
        "house_number": null,
        "neighbourhood": null,
        "suburb": null,
        "city_district": null,
        "city": "Lillestrøm",
        "state": null,
        "postcode": "2003",
        "country": "Norway",
        "country_code": "no"
      },
      "address": "Lillestrøm, Norway"
    },
    {
      "lat": 59.981880323591405,
      "lon": 11.032292829822996,
      "geoinfo": {
        "display_name": "Holtveien, Lillestrøm Panorama, Holt Vestvollen, Lillestrøm, Akershus, 2019, Norway",
        "road": "Holtveien",
        "house_number": null,
        "neighbourhood": "Lillestrøm Panorama",
        "suburb": "Holt Vestvollen",
        "city_district": null,
        "city": "Lillestrøm",
        "state": null,
        "postcode": "2019",
        "country": "Norway",
        "country_code": "no"
      },
      "address": "Holtveien, Lillestrøm, Norway"
    },
    {
      "lat": 59.94340237499157,
      "lon": 11.131242434975254,
      "geoinfo": {
        "display_name": "Tienbråten ressursbarnehage, Engaveien, Østre Enga, Skjelver, Lillestrøm, Akershus, 1900, Norway",
        "road": "Engaveien",
        "house_number": null,
        "neighbourhood": "Østre Enga",
        "suburb": null,
        "city_district": null,
        "city": null,
        "state": null,
        "postcode": "1900",
        "country": "Norway",
        "country_code": "no"
      },
      "address": "430, Engaveien, 1900 Lillestrøm, Norway"
    },
    {
      "lat": 59.96575996149035,
      "lon": 11.105010153412888,
      "geoinfo": {
        "display_name": "Jølsenveien, Jølsen Gård, Jølsen, Lillestrøm, Akershus, 2015, Norway",
        "road": "Jølsenveien",
        "house_number": null,
        "neighbourhood": null,
        "suburb": null,
        "city_district": null,
        "city": null,
        "state": null,
        "postcode": "2015",
        "country": "Norway",
        "country_code": "no"
      },
      "address": "522, Jølsenveien, Jølsen Gård, Jølsen, Lillestrøm, Akershus, 2015, Norway"
    },
    {
      "lat": 59.97949550805018,
      "lon": 11.06693880931245,
      "geoinfo": {
        "display_name": "Berg gårdsvei, Brauter, Dalheim, Kjeller, Lillestrøm, Akershus, 2007, Norway",
        "road": "Berg gårdsvei",
        "house_number": null,
        "neighbourhood": null,
        "suburb": null,
        "city_district": null,
        "city": "Kjeller",
        "state": null,
        "postcode": "2007",
        "country": "Norway",
        "country_code": "no"
      },
      "address": "046, Berg gårdsvei, Brauter, Dalheim, Kjeller, Lillestrøm, Akershus, 2007, Norway"
    }
  ],
  "updated_at": "2025-10-19T06:23:13.229863+00:00",
  "_kind": "geo_samples"
}