{
  "country_code": "NO",
  "country": "Norway",
  "city": "Molde",
  "geonameid": 3145580,
  "target_addresses": 14,
  "samples": [
    {
      "lat": 62.77389573466253,
      "lon": 7.133760270130009,
      "geoinfo": {
        "display_name": "Hustadvika, Møre og Romsdal, Norway",
        "road": null,
        "house_number": null,
        "neighbourhood": null,
        "suburb": null,
        "city_district": null,
        "city": null,
        "state": null,
        "postcode": null,
        "country": "Norway",
        "country_code": "no"
      },
      "address": "Molde, Norway"
    },
    {
      "lat": 62.71707978373149,
      "lon": 7.0874573756293655,
      "geoinfo": {
        "display_name": "Knatten, Kringstad, Mek, Molde, Møre og Romsdal, 6411, Norway",
        "road": null,
        "house_number": null,
        "neighbourhood": null,
        "suburb": "Mek",
        "city_district": null,
        "city": null,
        "state": null,
        "postcode": "6411",
        "country": "Norway",
        "country_code": "no"
      },
      "address": "Mek, Molde, Norway"
    },
    {
      "lat": 62.719243076417975,
      "lon": 7.20341001684257,
      "geoinfo": {
        "display_name": "Tøndergård, Molde, Møre og Romsdal, 6416, Norway",
        "road": null,
        "house_number": null,
        "neighbourhood": null,
        "suburb": "Tøndergård",
        "city_district": null,
        "city": "Molde",
        "state": null,
        "postcode": "6416",
        "country": "Norway",
        "country_code": "no"
      },
      "address": "Tøndergård, Molde, Norway"
    },
    {
      "lat": 62.75332558270199,
      "lon": 7.12907493529441,
      "geoinfo": {
        "display_name": "Moldeheia, Vardevegen, Kringsjå, Molde, Møre og Romsdal, 6414, Norway",
        "road": "Vardevegen",
        "house_number": null,
        "neighbourhood": null,
        "suburb": "Kringsjå",
        "city_district": null,
        "city": "Molde",
        "state": null,
        "postcode": "6414",
        "country": "Norway",
        "country_code": "no"
      },
      "address": "Moldeheia, Vardevegen, Kringsjå, Molde, Møre og Romsdal, 6414, Norway"
    },
    {
      "lat": 62.739477204801425,
      "lon": 7.084476015867197,
      "geoinfo": {
        "display_name": "26, Setervegen, Kvam, Mek, Molde, Møre og Romsdal, 6411, Norway",
        "road": "Setervegen",
        "house_number": "26",
        "neighbourhood": null,
        "suburb": "Mek",
        "city_district": null,
        "city": null,
        "state": null,
        "postcode": "6411",
        "country": "Norway",
        "country_code": "no"
      },
      "address": "26, Setervegen, Kvam, Mek, Molde, Møre og Romsdal, 6411, Norway"
    },
    {
      "lat": 62.69657830308253,
      "lon": 7.158348182056057,
      "geoinfo": {
        "display_name": "Molde, Møre og Romsdal, 6413, Norway",
        "road": null,
        "house_number": null,
        "neighbourhood": null,
        "suburb": null,
        "city_district": null,
        "city": "Molde",
        "state": null,
        "postcode": "6413",
        "country": "Norway",
        "country_code": "no"
      },
      "address": "188, Molde, Møre og Romsdal, 6413, Norway"
    },
    {
      "lat": 62.75960929994172,
      "lon": 7.140380203186864,
      "geoinfo": {
        "display_name": "Cecilienfryd, Bekkevoll, Kringsjå, Molde, Møre og Romsdal, 6412, Norway",
        "road": null,
        "house_number": null,
        "neighbourhood": null,
        "suburb": "Kringsjå",
        "city_district": null,
        "city": "Molde",
        "state": null,
        "postcode": "6412",
        "country": "Norway",
        "country_code": "no"
      },
      "address": "162, Cecilienfryd, Bekkevoll, Kringsjå, Molde, Møre og Romsdal, 6412, Norway"
    },
    {
      "lat": 62.75957025454265,
      "lon": 7.153188055539172,
      "geoinfo": {
        "display_name": "Reknesstølen, Vardevegen, Kringsjå, Molde, Møre og Romsdal, 6414, Norway",
        "road": "Vardevegen",
        "house_number": null,
        "neighbourhood": null,
        "suburb": "Kringsjå",
        "city_district": null,
        "city": "Molde",
        "state": null,
        "postcode": "6414",
        "country": "Norway",
        "country_code": "no"
      },
      "address": "569, Vardevegen, 6414 Molde, Norway"
    },
    {
      "lat": 62.72882275349273,
      "lon": 7.100778011528566,
      "geoinfo": {
        "display_name": "Julsundvegen, Kringstad, Mek, Molde, Møre og Romsdal, 6411, Norway",
        "road": "Julsundvegen",
        "house_number": null,
        "neighbourhood": null,
        "suburb": "Mek",
        "city_district": null,
        "city": null,
        "state": null,
        "postcode": "6411",
        "country": "Norway",
        "country_code": "no"
      },
      "address": "064, Julsundvegen, Kringstad, Mek, Molde, Møre og Romsdal, 6411, Norway"
    },
    {
      "lat": 62.745071059632,
      "lon": 7.0758406341161155,
      "geoinfo": {
        "display_name": "240, Sirivegen, Kringstad, Mek, Molde, Møre og Romsdal, 6411, Norway",
        "road": "Sirivegen",
        "house_number": "240",
        "neighbourhood": null,
        "suburb": "Mek",
        "city_district": null,
        "city": null,
        "state": null,
        "postcode": "6411",
        "country": "Norway",
        "country_code": "no"
      },
      "address": "240, Sirivegen, Kringstad, Mek, Molde, Møre og Romsdal, 6411, Norway"
    },
    {
      "lat": 62.717450023464345,
      "lon": 7.075119350722871,
      "geoinfo": {
        "display_name": "Strandheim, Kringstad, Mek, Molde, Møre og Romsdal, 6411, Norway",
        "road": null,
        "house_number": null,
        "neighbourhood": null,
        "suburb": "Mek",
        "city_district": null,
        "city": null,
        "state": null,
        "postcode": "6411",
        "country": "Norway",
        "country_code": "no"
      },
      "address": "416, Strandheim, Kringstad, Mek, Molde, Møre og Romsdal, 6411, Norway"
    },
    {
      "lat": 62.72561660575743,
      "lon": 7.170287223550227,
      "geoinfo": {
        "display_name": "Cruise Ship Terminal, Røysan, Molde, Møre og Romsdal, 6413, Norway",
        "road": null,
        "house_number": null,
        "neighbourhood": null,
        "suburb": "Røysan",
        "city_district": null,
        "city": "Molde",
        "state": null,
        "postcode": "6413",
        "country": "Norway",
        "country_code": "no"
      },
      "address": "694, Cruise Ship Terminal, Røysan, Molde, Møre og Romsdal, 6413, Norway"
    },
    {
      "lat": 62.75131990976193,
      "lon": 7.1566434553209435,
      "geoinfo": {
        "display_name": "Vardevegen, Kringsjå, Molde, Møre og Romsdal, 6414, Norway",
        "road": "Vardevegen",
        "house_number": null,
        "neighbourhood": null,
        "suburb": "Kringsjå",
        "city_district": null,
        "city": "Molde",
        "state": null,
        "postcode": "6414",
        "country": "Norway",
        "country_code": "no"
      },
      "address": "346, Vardevegen, Kringsjå, Molde, Møre og Romsdal, 6414, Norway"
    },
    {
      "lat": 62.75101217658756,
      "lon": 7.184942183539573,
      "geoinfo": {
        "display_name": "19A, Blokkebærvegen, Nordbyen, Fuglset, Molde, Møre og Romsdal, 6429, Norway",
        "road": "Blokkebærvegen",
        "house_number": "19A",
        "neighbourhood": null,
        "suburb": "Fuglset",
        "city_district": null,
        "city": "Molde",
        "state": null,
        "postcode": "6429",
        "country": "Norway",
        "country_code": "no"
      },
      "address": "19A, Blokkebærvegen, Nordbyen, Fuglset, Molde, Møre og Romsdal, 6429, Norway"
    },
    {
      "lat": 62.71091654808499,
      "lon": 7.172219275098937,
      "geoinfo": {
        "display_name": "Røysan, Molde, Møre og Romsdal, 6412, Norway",
        "road": null,
        "house_number": null,
        "neighbourhood": null,
        "suburb": "Røysan",
        "city_district": null,
        "city": "Molde",
        "state": null,
        "postcode": "6412",
        "country": "Norway",
        "country_code": "no"
      },
      "address": "631, Røysan, Molde, Møre og Romsdal, 6412, Norway"
    }
  ],
  "updated_at": "2025-10-19T06:00:45.708549+00:00",
  "_kind": "geo_samples"
}