{
  "country_code": "NO",
  "country": "Norway",
  "city": "Moss",
  "geonameid": 3145375,
  "target_addresses": 3,
  "samples": [
    {
      "lat": 59.46610701028806,
      "lon": 10.65197610167735,
      "geoinfo": {
        "display_name": "3, Reneflotveien, Øvre Skallerød, Moss, Østfold, 1514, Norway",
        "road": "Reneflotveien",
        "house_number": "3",
        "neighbourhood": null,
        "suburb": null,
        "city_district": null,
        "city": "Moss",
        "state": null,
        "postcode": "1514",
        "country": "Norway",
        "country_code": "no"
      },
      "address": "3 Reneflotveien, Moss, Norway"
    },
    {
      "lat": 59.46495181239472,
      "lon": 10.67636546174306,
      "geoinfo": {
        "display_name": "Kyststien, Linnebaugen, Moss, Østfold, 1534, Norway",
        "road": "Kyststien",
        "house_number": null,
        "neighbourhood": null,
        "suburb": null,
        "city_district": null,
        "city": "Moss",
        "state": null,
        "postcode": "1534",
        "country": "Norway",
        "country_code": "no"
      },
      "address": "Kyststien, Moss, Norway"
    },
    {
      "lat": 59.444612428731936,
      "lon": 10.684546491499782,
      "geoinfo": {
        "display_name": "Innfartsveien, Gjerrebogen, Moss, Østfold, 1534, Norway",
        "road": "Innfartsveien",
        "house_number": null,
        "neighbourhood": null,
        "suburb": "Gjerrebogen",
        "city_district": null,
        "city": "Moss",
        "state": null,
        "postcode": "1534",
        "country": "Norway",
        "country_code": "no"
      },
      "address": "Innfartsveien, Moss, Norway"
    },
    {
      "lat": 59.454550079193446,
      "lon": 10.681633180683814,
      "geoinfo": {
        "display_name": "Elgveien, Mosseskogen, Moss, Østfold, 1534, Norway",
        "road": "Elgveien",
        "house_number": null,
        "neighbourhood": null,
        "suburb": "Mosseskogen",
        "city_district": null,
        "city": "Moss",
        "state": null,
        "postcode": "1534",
        "country": "Norway",
        "country_code": "no"
      },
      "address": "204, Elgveien, Mosseskogen, Moss, Østfold, 1534, Norway"
    },
    {
      "lat": 59.45475137428036,
      "lon": 10.613314198518255,
      "geoinfo": {
        "display_name": "Ropes, Refsnesskogen, Gjerthytta, Moss, Østfold, 1518, Norway",
        "road": "Refsnesskogen",
        "house_number": null,
        "neighbourhood": "Refsnesskogen",
        "suburb": null,
        "city_district": null,
        "city": "Moss",
        "state": null,
        "postcode": "1518",
        "country": "Norway",
        "country_code": "no"
      },
      "address": "709, Refsnesskogen, 1518 Moss, Norway"
    },
    {
      "lat": 59.41673439538685,
      "lon": 10.634202846890842,
      "geoinfo": {
        "display_name": "Strandpromenaden, Bråten, Moss, Østfold, 1516, Norway",
        "road": "Strandpromenaden",
        "house_number": null,
        "neighbourhood": null,
        "suburb": null,
        "city_district": null,
        "city": "Moss",
        "state": null,
        "postcode": "1516",
        "country": "Norway",
        "country_code": "no"
      },
      "address": "372, Strandpromenaden, Bråten, Moss, Østfold, 1516, Norway"
    }
  ],
  "updated_at": "2025-10-19T06:23:00.680165+00:00",
  "_kind": "geo_samples"
}