{
  "country_code": "NO",
  "country": "Norway",
  "city": "Trondheim",
  "geonameid": 3133880,
  "target_addresses": 15,
  "samples": [
    {
      "lat": 63.44565475792896,
      "lon": 10.453318342188682,
      "geoinfo": {
        "display_name": "Lade idrettspark, Lade allé, Leangen, Lade, Østbyen, Trondheim, Trøndelag, 7041, Norway",
        "road": "Lade allé",
        "house_number": null,
        "neighbourhood": "Leangen",
        "suburb": "Lade",
        "city_district": "Østbyen",
        "city": "Trondheim",
        "state": null,
        "postcode": "7041",
        "country": "Norway",
        "country_code": "no"
      },
      "address": "Lade allé, Trondheim, Norway"
    },
    {
      "lat": 63.45741126745168,
      "lon": 10.448221221812085,
      "geoinfo": {
        "display_name": "Peter Lie - Elen Lie, Ladestien, Østmarka, Naustet, Østbyen, Trondheim, Trøndelag, 7040, Norway",
        "road": "Ladestien",
        "house_number": null,
        "neighbourhood": null,
        "suburb": null,
        "city_district": "Østbyen",
        "city": "Trondheim",
        "state": null,
        "postcode": "7040",
        "country": "Norway",
        "country_code": "no"
      },
      "address": "Ladestien, Trondheim, Norway"
    },
    {
      "lat": 63.47158334966103,
      "lon": 10.382400299519297,
      "geoinfo": {
        "display_name": "Midtbyen, Trondheim, Trøndelag, Norway",
        "road": null,
        "house_number": null,
        "neighbourhood": null,
        "suburb": "Midtbyen",
        "city_district": null,
        "city": "Trondheim",
        "state": null,
        "postcode": null,
        "country": "Norway",
        "country_code": "no"
      },
      "address": "Midtbyen, Trondheim, Norway"
    },
    {
      "lat": 63.471073468797876,
      "lon": 10.382578076550352,
      "geoinfo": {
        "display_name": "Midtbyen, Trondheim, Trøndelag, Norway",
        "road": null,
        "house_number": null,
        "neighbourhood": null,
        "suburb": "Midtbyen",
        "city_district": null,
        "city": "Trondheim",
        "state": null,
        "postcode": null,
        "country": "Norway",
        "country_code": "no"
      },
      "address": "Midtbyen, Trondheim, 40918 Trøndelag, Norway"
    },
    {
      "lat": 63.395821556914186,
      "lon": 10.353930884563315,
      "geoinfo": {
        "display_name": "7B, Arnt Smistads veg, Byåsen, Midtbyen, Trondheim, Trøndelag, 7023, Norway",
        "road": "Arnt Smistads veg",
        "house_number": "7B",
        "neighbourhood": null,
        "suburb": "Byåsen",
        "city_district": null,
        "city": "Trondheim",
        "state": null,
        "postcode": "7023",
        "country": "Norway",
        "country_code": "no"
      },
      "address": "7B, Arnt Smistads veg, Byåsen, Midtbyen, Trondheim, Trøndelag, 7023, Norway"
    },
    {
      "lat": 63.412167301944365,
      "lon": 10.33709231861182,
      "geoinfo": {
        "display_name": "Torshaugløypa, Bangåsen, Midtbyen, Trondheim, Trøndelag, 7025, Norway",
        "road": "Torshaugløypa",
        "house_number": null,
        "neighbourhood": null,
        "suburb": "Midtbyen",
        "city_district": null,
        "city": "Trondheim",
        "state": null,
        "postcode": "7025",
        "country": "Norway",
        "country_code": "no"
      },
      "address": "562, Torshaugløypa, Bangåsen, Midtbyen, Trondheim, Trøndelag, 7025, Norway"
    },
    {
      "lat": 63.4233932372625,
      "lon": 10.321901058259291,
      "geoinfo": {
        "display_name": "Øvre Bringebæra, Sverresborg, Midtbyen, Trondheim, Trøndelag, 7018, Norway",
        "road": "Øvre Bringebæra",
        "house_number": null,
        "neighbourhood": null,
        "suburb": "Sverresborg",
        "city_district": null,
        "city": "Trondheim",
        "state": null,
        "postcode": "7018",
        "country": "Norway",
        "country_code": "no"
      },
      "address": "845, Øvre Bringebæra, Sverresborg, Midtbyen, Trondheim, Trøndelag, 7018, Norway"
    },
    {
      "lat": 63.44490512820227,
      "lon": 10.361439152540132,
      "geoinfo": {
        "display_name": "Schiøtz' plass, Ilsvika, Midtbyen, Trondheim, Trøndelag, 7020, Norway",
        "road": null,
        "house_number": null,
        "neighbourhood": "Ilsvika",
        "suburb": "Midtbyen",
        "city_district": null,
        "city": "Trondheim",
        "state": null,
        "postcode": "7020",
        "country": "Norway",
        "country_code": "no"
      },
      "address": "085, Schiøtz' plass, Ilsvika, Midtbyen, Trondheim, Trøndelag, 7020, Norway"
    },
    {
      "lat": 63.47395611855763,
      "lon": 10.40727530052529,
      "geoinfo": {
        "display_name": "Midtbyen, Trondheim, Trøndelag, Norway",
        "road": null,
        "house_number": null,
        "neighbourhood": null,
        "suburb": "Midtbyen",
        "city_district": null,
        "city": "Trondheim",
        "state": null,
        "postcode": null,
        "country": "Norway",
        "country_code": "no"
      },
      "address": "320, Midtbyen, Trondheim, 38925 Trøndelag, Norway"
    },
    {
      "lat": 63.44780348989252,
      "lon": 10.354436044070784,
      "geoinfo": {
        "display_name": "Schiøtz' plass, Ilsvika, Midtbyen, Trondheim, Trøndelag, 7020, Norway",
        "road": null,
        "house_number": null,
        "neighbourhood": "Ilsvika",
        "suburb": "Midtbyen",
        "city_district": null,
        "city": "Trondheim",
        "state": null,
        "postcode": "7020",
        "country": "Norway",
        "country_code": "no"
      },
      "address": "662, Schiøtz' plass, Ilsvika, Midtbyen, Trondheim, Trøndelag, 7020, Norway"
    },
    {
      "lat": 63.41655005367013,
      "lon": 10.311739567907221,
      "geoinfo": {
        "display_name": "Fjellseterveien, Tunga, Midtbyen, Trondheim, Trøndelag, 7025, Norway",
        "road": "Fjellseterveien",
        "house_number": null,
        "neighbourhood": null,
        "suburb": "Midtbyen",
        "city_district": null,
        "city": "Trondheim",
        "state": null,
        "postcode": "7025",
        "country": "Norway",
        "country_code": "no"
      },
      "address": "249, Fjellseterveien, Tunga, Midtbyen, Trondheim, Trøndelag, 7025, Norway"
    },
    {
      "lat": 63.43267909549661,
      "lon": 10.35141932050106,
      "geoinfo": {
        "display_name": "Bynesveien, Strandhytta, Midtbyen, Trondheim, Trøndelag, 7020, Norway",
        "road": "Bynesveien",
        "house_number": null,
        "neighbourhood": null,
        "suburb": "Midtbyen",
        "city_district": null,
        "city": "Trondheim",
        "state": null,
        "postcode": "7020",
        "country": "Norway",
        "country_code": "no"
      },
      "address": "595, Bynesveien, Strandhytta, Midtbyen, Trondheim, Trøndelag, 7020, Norway"
    },
    {
      "lat": 63.44646516085031,
      "lon": 10.350046737607787,
      "geoinfo": {
        "display_name": "Seaweed Energy Solutions AS, Bynesveien, Heggdalen, Midtbyen, Trondheim, Trøndelag, 7018, Norway",
        "road": "Bynesveien",
        "house_number": null,
        "neighbourhood": "Heggdalen",
        "suburb": "Midtbyen",
        "city_district": null,
        "city": "Trondheim",
        "state": null,
        "postcode": "7018",
        "country": "Norway",
        "country_code": "no"
      },
      "address": "850, Bynesveien, 7018 Trondheim, Norway"
    },
    {
      "lat": 63.39855956600534,
      "lon": 10.464614025460838,
      "geoinfo": {
        "display_name": "Kleivavegen, Bergheim, Loholt, Lerkendal, Trondheim, Trøndelag, 7049, Norway",
        "road": "Kleivavegen",
        "house_number": null,
        "neighbourhood": "Bergheim",
        "suburb": null,
        "city_district": "Lerkendal",
        "city": "Trondheim",
        "state": null,
        "postcode": "7049",
        "country": "Norway",
        "country_code": "no"
      },
      "address": "588, Kleivavegen, Bergheim, Loholt, Lerkendal, Trondheim, Trøndelag, 7049, Norway"
    },
    {
      "lat": 63.455533876756164,
      "lon": 10.396546011503904,
      "geoinfo": {
        "display_name": "Brattøra, Midtbyen, Trondheim, Trøndelag, 7010, Norway",
        "road": null,
        "house_number": null,
        "neighbourhood": "Brattøra",
        "suburb": "Midtbyen",
        "city_district": null,
        "city": "Trondheim",
        "state": null,
        "postcode": "7010",
        "country": "Norway",
        "country_code": "no"
      },
      "address": "286, Brattøra, Midtbyen, Trondheim, Trøndelag, 7010, Norway"
    }
  ],
  "updated_at": "2025-10-19T06:00:14.686795+00:00",
  "_kind": "geo_samples"
}