{
  "country_code": "NO",
  "country": "Norway",
  "city": "Ytrebygda",
  "geonameid": 6697344,
  "target_addresses": 3,
  "samples": [
    {
      "lat": 60.30707657142086,
      "lon": 5.303086869471789,
      "geoinfo": {
        "display_name": "109, Nordåsbrotet, Steinsvik, Sandsli, Ytrebygda, Bergen, Vestland, 5235, Norway",
        "road": "Nordåsbrotet",
        "house_number": "109",
        "neighbourhood": "Steinsvik",
        "suburb": "Sandsli",
        "city_district": "Ytrebygda",
        "city": "Bergen",
        "state": null,
        "postcode": "5235",
        "country": "Norway",
        "country_code": "no"
      },
      "address": "109 Nordåsbrotet, Ytrebygda, Norway"
    },
    {
      "lat": 60.30759451361804,
      "lon": 5.285198577593432,
      "geoinfo": {
        "display_name": "93, Aurdalslia, Smoghaugen, Ytrebygda, Bergen, Vestland, 5253, Norway",
        "road": "Aurdalslia",
        "house_number": "93",
        "neighbourhood": null,
        "suburb": null,
        "city_district": "Ytrebygda",
        "city": "Bergen",
        "state": null,
        "postcode": "5253",
        "country": "Norway",
        "country_code": "no"
      },
      "address": "93 Aurdalslia, Ytrebygda, Norway"
    },
    {
      "lat": 60.30780828867483,
      "lon": 5.211038089675216,
      "geoinfo": {
        "display_name": "Kvitura, Ytrebygda, Bergen, Vestland, 5174, Norway",
        "road": "Kvitura",
        "house_number": null,
        "neighbourhood": null,
        "suburb": null,
        "city_district": "Ytrebygda",
        "city": "Bergen",
        "state": null,
        "postcode": "5174",
        "country": "Norway",
        "country_code": "no"
      },
      "address": "Kvitura, Ytrebygda, Norway"
    },
    {
      "lat": 60.32928713426012,
      "lon": 5.322261144413449,
      "geoinfo": {
        "display_name": "24, Kleiven, Bønes, Fyllingsdalen, Bergen, Vestland, 5152, Norway",
        "road": "Kleiven",
        "house_number": "24",
        "neighbourhood": null,
        "suburb": "Bønes",
        "city_district": "Fyllingsdalen",
        "city": "Bergen",
        "state": null,
        "postcode": "5152",
        "country": "Norway",
        "country_code": "no"
      },
      "address": "24, Kleiven, Bønes, Fyllingsdalen, Bergen, Vestland, 5152, Norway"
    },
    {
      "lat": 60.306488676234466,
      "lon": 5.329844525674454,
      "geoinfo": {
        "display_name": "28A, Skjoldlia, Nesttun, Fana, Bergen, Vestland, 5236, Norway",
        "road": "Skjoldlia",
        "house_number": "28A",
        "neighbourhood": null,
        "suburb": "Nesttun",
        "city_district": "Fana",
        "city": "Bergen",
        "state": null,
        "postcode": "5236",
        "country": "Norway",
        "country_code": "no"
      },
      "address": "28A, Skjoldlia, Nesttun, Fana, Bergen, Vestland, 5236, Norway"
    },
    {
      "lat": 60.29147998413335,
      "lon": 5.249399880873498,
      "geoinfo": {
        "display_name": "40, Kokstadflaten, Kokstad, Ytrebygda, Bergen, Vestland, 5257, Norway",
        "road": "Kokstadflaten",
        "house_number": "40",
        "neighbourhood": "Kokstad",
        "suburb": "Ytrebygda",
        "city_district": "Ytrebygda",
        "city": "Bergen",
        "state": null,
        "postcode": "5257",
        "country": "Norway",
        "country_code": "no"
      },
      "address": "40, Kokstadflaten, Kokstad, Ytrebygda, Bergen, Vestland, 5257, Norway"
    }
  ],
  "updated_at": "2025-10-19T04:52:05.302939+00:00",
  "_kind": "geo_samples"
}