{
  "country_code": "SD",
  "country": "Sudan",
  "city": "Berber",
  "geonameid": 377690,
  "target_addresses": 2,
  "samples": [
    {
      "lat": 18.051016495044692,
      "lon": 33.95257686513237,
      "geoinfo": {
        "display_name": "Abu Khsos, Kadabas, Berber, River Nile State, Sudan",
        "road": null,
        "house_number": null,
        "neighbourhood": null,
        "suburb": null,
        "city_district": null,
        "city": "Kadabas",
        "state": "River Nile State",
        "postcode": null,
        "country": "Sudan",
        "country_code": "sd"
      },
      "address": "Berber, River Nile State, Sudan"
    },
    {
      "lat": 18.028082285205155,
      "lon": 34.000130233436145,
      "geoinfo": {
        "display_name": "Barbar, Mi`einifa, Berber, River Nile State, Sudan",
        "road": "Barbar",
        "house_number": null,
        "neighbourhood": null,
        "suburb": null,
        "city_district": null,
        "city": "Berber",
        "state": "River Nile State",
        "postcode": null,
        "country": "Sudan",
        "country_code": "sd"
      },
      "address": "Barbar, Berber, River Nile State, Sudan"
    },
    {
      "lat": 18.05437664547399,
      "lon": 33.972246232584496,
      "geoinfo": {
        "display_name": "Gadawab, Berber, River Nile State, Sudan",
        "road": null,
        "house_number": null,
        "neighbourhood": null,
        "suburb": null,
        "city_district": null,
        "city": "Berber",
        "state": "River Nile State",
        "postcode": null,
        "country": "Sudan",
        "country_code": "sd"
      },
      "address": "Gadawab, Berber, 46778 River Nile State, Sudan"
    },
    {
      "lat": 18.061685073797392,
      "lon": 33.97555101644277,
      "geoinfo": {
        "display_name": "Gadawab, Berber, River Nile State, Sudan",
        "road": null,
        "house_number": null,
        "neighbourhood": null,
        "suburb": null,
        "city_district": null,
        "city": "Berber",
        "state": "River Nile State",
        "postcode": null,
        "country": "Sudan",
        "country_code": "sd"
      },
      "address": "459, Gadawab, Berber, 51257 River Nile State, Sudan"
    },
    {
      "lat": 18.038857243872215,
      "lon": 33.9861944298545,
      "geoinfo": {
        "display_name": "Hosh ed Dar, Berber, River Nile State, Sudan",
        "road": null,
        "house_number": null,
        "neighbourhood": null,
        "suburb": null,
        "city_district": null,
        "city": "Berber",
        "state": "River Nile State",
        "postcode": null,
        "country": "Sudan",
        "country_code": "sd"
      },
      "address": "198, Hosh ed Dar, Berber, 82454 River Nile State, Sudan"
    }
  ],
  "updated_at": "2025-10-19T03:16:41.309768+00:00",
  "_kind": "geo_samples"
}