{
  "country_code": "SD",
  "country": "Sudan",
  "city": "Shendi",
  "geonameid": 367308,
  "target_addresses": 2,
  "samples": [
    {
      "lat": 16.7282313364611,
      "lon": 33.40717525995666,
      "geoinfo": {
        "display_name": "Sayal Karem ed Den, Al Matamma, River Nile State, Sudan",
        "road": null,
        "house_number": null,
        "neighbourhood": null,
        "suburb": null,
        "city_district": null,
        "city": "Al Matamma",
        "state": "River Nile State",
        "postcode": null,
        "country": "Sudan",
        "country_code": "sd"
      },
      "address": "Shendi, River Nile State, Sudan"
    },
    {
      "lat": 16.65881451824616,
      "lon": 33.45249592651397,
      "geoinfo": {
        "display_name": "Shendi-Atbara Road, Hillat Tartor, Shendi, River Nile State, Sudan",
        "road": "Shendi-Atbara Road",
        "house_number": null,
        "neighbourhood": null,
        "suburb": null,
        "city_district": null,
        "city": "Shendi",
        "state": "River Nile State",
        "postcode": null,
        "country": "Sudan",
        "country_code": "sd"
      },
      "address": "Shendi-Atbara Road, Shendi, River Nile State, Sudan"
    },
    {
      "lat": 16.687274529450566,
      "lon": 33.436898455948004,
      "geoinfo": {
        "display_name": "Shendi, River Nile State, Sudan",
        "road": null,
        "house_number": null,
        "neighbourhood": null,
        "suburb": null,
        "city_district": null,
        "city": "Shendi",
        "state": "River Nile State",
        "postcode": null,
        "country": "Sudan",
        "country_code": "sd"
      },
      "address": "250, Shendi, 59342 River Nile State, Sudan"
    },
    {
      "lat": 16.710306580653423,
      "lon": 33.39783692062104,
      "geoinfo": {
        "display_name": "El Sayal el Saqer, Shendi, River Nile State, Sudan",
        "road": null,
        "house_number": null,
        "neighbourhood": null,
        "suburb": null,
        "city_district": null,
        "city": "Shendi",
        "state": "River Nile State",
        "postcode": null,
        "country": "Sudan",
        "country_code": "sd"
      },
      "address": "654, El Sayal el Saqer, Shendi, 77832 River Nile State, Sudan"
    }
  ],
  "updated_at": "2025-10-19T06:32:05.946503+00:00",
  "_kind": "geo_samples"
}