{
  "country_code": "SD",
  "country": "Sudan",
  "city": "Tandaltī",
  "geonameid": 366426,
  "target_addresses": 2,
  "samples": [
    {
      "lat": 13.018361882215393,
      "lon": 31.858263180532383,
      "geoinfo": {
        "display_name": "Kosti, White Nile, Sudan",
        "road": null,
        "house_number": null,
        "neighbourhood": null,
        "suburb": null,
        "city_district": null,
        "city": null,
        "state": "White Nile",
        "postcode": null,
        "country": "Sudan",
        "country_code": "sd"
      },
      "address": "Tandaltī, White Nile, Sudan"
    },
    {
      "lat": 13.012125191436503,
      "lon": 31.8304932137002,
      "geoinfo": {
        "display_name": "Kosti-al-Ubayyid Road, Ab Qawy, Gimbir, Kosti, White Nile, Sudan",
        "road": "Kosti-al-Ubayyid Road",
        "house_number": null,
        "neighbourhood": null,
        "suburb": null,
        "city_district": null,
        "city": "Gimbir",
        "state": "White Nile",
        "postcode": null,
        "country": "Sudan",
        "country_code": "sd"
      },
      "address": "Kosti-al-Ubayyid Road, Tandaltī, White Nile, Sudan"
    },
    {
      "lat": 13.046796703544771,
      "lon": 31.88324106497291,
      "geoinfo": {
        "display_name": "Tandalti, Kosti, White Nile, Sudan",
        "road": null,
        "house_number": null,
        "neighbourhood": null,
        "suburb": null,
        "city_district": null,
        "city": "Tandalti",
        "state": "White Nile",
        "postcode": null,
        "country": "Sudan",
        "country_code": "sd"
      },
      "address": "156, Tandalti, Kosti, 54995 White Nile, Sudan"
    },
    {
      "lat": 13.00359696281033,
      "lon": 31.857750524957556,
      "geoinfo": {
        "display_name": "Tandalti, Kosti, White Nile, Sudan",
        "road": null,
        "house_number": null,
        "neighbourhood": null,
        "suburb": null,
        "city_district": null,
        "city": "Tandalti",
        "state": "White Nile",
        "postcode": null,
        "country": "Sudan",
        "country_code": "sd"
      },
      "address": "747, Tandalti, Kosti, 92736 White Nile, Sudan"
    }
  ],
  "updated_at": "2025-10-19T06:53:28.861098+00:00",
  "_kind": "geo_samples"
}