{
  "country_code": "BE",
  "country": "Belgium",
  "city": "Colfontaine",
  "geonameid": 2800220,
  "target_addresses": 3,
  "samples": [
    {
      "lat": 50.424617244030436,
      "lon": 3.833112715997212,
      "geoinfo": {
        "display_name": "Axiale Boraine, Wasmes, Colfontaine, Boussu, Mons, Hainaut, Wallonia, 7301, Belgium",
        "road": "Axiale Boraine",
        "house_number": null,
        "neighbourhood": null,
        "suburb": null,
        "city_district": null,
        "city": "Colfontaine",
        "state": "Hainaut",
        "postcode": "7301",
        "country": "Belgium",
        "country_code": "be"
      },
      "address": "Axiale Boraine, Colfontaine, Hainaut, Belgium"
    },
    {
      "lat": 50.38880833584519,
      "lon": 3.908243516972662,
      "geoinfo": {
        "display_name": "6, Rue du Quesnoy, Genly, Quévy, Mons, Hainaut, Wallonia, 7040, Belgium",
        "road": "Rue du Quesnoy",
        "house_number": "6",
        "neighbourhood": null,
        "suburb": null,
        "city_district": null,
        "city": "Genly",
        "state": "Hainaut",
        "postcode": "7040",
        "country": "Belgium",
        "country_code": "be"
      },
      "address": "6, Rue du Quesnoy, Genly, Quévy, Mons, Hainaut, Wallonia, 7040, Belgium"
    },
    {
      "lat": 50.37931270226951,
      "lon": 3.837984858966821,
      "geoinfo": {
        "display_name": "270, Rue Ropaix, Petit Dour, Dour, Mons, Hainaut, Wallonia, 7370, Belgium",
        "road": "Rue Ropaix",
        "house_number": "270",
        "neighbourhood": null,
        "suburb": null,
        "city_district": null,
        "city": "Dour",
        "state": "Hainaut",
        "postcode": "7370",
        "country": "Belgium",
        "country_code": "be"
      },
      "address": "270, Rue Ropaix, Petit Dour, Dour, Mons, Hainaut, Wallonia, 7370, Belgium"
    }
  ],
  "updated_at": "2025-10-19T03:22:43.905451+00:00",
  "_kind": "geo_samples"
}