{
  "country_code": "IS",
  "country": "Iceland",
  "city": "Akureyri",
  "geonameid": 2633274,
  "target_addresses": 17,
  "samples": [
    {
      "lat": 65.68575957040227,
      "lon": -18.12833128196427,
      "geoinfo": {
        "display_name": "Borgarbraut, Akureyri, Akureyrarbær, Northeastern Region, 603, Iceland",
        "road": "Borgarbraut",
        "house_number": null,
        "neighbourhood": null,
        "suburb": null,
        "city_district": null,
        "city": "Akureyri",
        "state": null,
        "postcode": "603",
        "country": "Iceland",
        "country_code": "is"
      },
      "address": "Borgarbraut, Akureyri, Iceland"
    },
    {
      "lat": 65.70149872773767,
      "lon": -18.10846878308823,
      "geoinfo": {
        "display_name": "Bárufell, 11, Þursaholt, Akureyri, Akureyrarbær, Northeastern Region, 603, Iceland",
        "road": "Þursaholt",
        "house_number": "11",
        "neighbourhood": null,
        "suburb": null,
        "city_district": null,
        "city": "Akureyri",
        "state": null,
        "postcode": "603",
        "country": "Iceland",
        "country_code": "is"
      },
      "address": "11 Þursaholt, Akureyri, Iceland"
    },
    {
      "lat": 65.68959634114785,
      "lon": -17.990389231057755,
      "geoinfo": {
        "display_name": "Svalbarðsstrandarhreppur, Northeastern Region, 606, Iceland",
        "road": null,
        "house_number": null,
        "neighbourhood": null,
        "suburb": null,
        "city_district": null,
        "city": null,
        "state": null,
        "postcode": "606",
        "country": "Iceland",
        "country_code": "is"
      },
      "address": "Akureyri, Iceland"
    },
    {
      "lat": 65.64785310522957,
      "lon": -18.088822938779348,
      "geoinfo": {
        "display_name": "1, Skógargata, Akureyrarbær, Northeastern Region, 600, Iceland",
        "road": "Skógargata",
        "house_number": "1",
        "neighbourhood": null,
        "suburb": null,
        "city_district": null,
        "city": null,
        "state": null,
        "postcode": "600",
        "country": "Iceland",
        "country_code": "is"
      },
      "address": "1 Skógargata, Akureyri, Iceland"
    },
    {
      "lat": 65.67928628404015,
      "lon": -18.13456313422759,
      "geoinfo": {
        "display_name": "5, Réttarhvammur, Akureyri, Akureyrarbær, Northeastern Region, 603, Iceland",
        "road": "Réttarhvammur",
        "house_number": "5",
        "neighbourhood": null,
        "suburb": null,
        "city_district": null,
        "city": "Akureyri",
        "state": null,
        "postcode": "603",
        "country": "Iceland",
        "country_code": "is"
      },
      "address": "5 Réttarhvammur, Akureyri, Iceland"
    },
    {
      "lat": 65.6778410187448,
      "lon": -18.12406658113993,
      "geoinfo": {
        "display_name": "1, Spónsgerði, Gerðahverfi, Akureyri, Akureyrarbær, Northeastern Region, 600, Iceland",
        "road": "Spónsgerði",
        "house_number": "1",
        "neighbourhood": null,
        "suburb": "Gerðahverfi",
        "city_district": null,
        "city": "Akureyri",
        "state": null,
        "postcode": "600",
        "country": "Iceland",
        "country_code": "is"
      },
      "address": "1 Spónsgerði, Akureyri, Iceland"
    },
    {
      "lat": 65.67082240514966,
      "lon": -18.157588531549575,
      "geoinfo": {
        "display_name": "Glerárdalur West, Akureyri, Akureyrarbær, Northeastern Region, 601, Iceland",
        "road": "Glerárdalur West",
        "house_number": null,
        "neighbourhood": null,
        "suburb": null,
        "city_district": null,
        "city": "Akureyri",
        "state": null,
        "postcode": "601",
        "country": "Iceland",
        "country_code": "is"
      },
      "address": "Glerárdalur West, Akureyri, Iceland"
    },
    {
      "lat": 65.69506057671745,
      "lon": -18.101077672281153,
      "geoinfo": {
        "display_name": "16, Óseyri, Akureyri, Akureyrarbær, Northeastern Region, 603, Iceland",
        "road": "Óseyri",
        "house_number": "16",
        "neighbourhood": null,
        "suburb": null,
        "city_district": null,
        "city": "Akureyri",
        "state": null,
        "postcode": "603",
        "country": "Iceland",
        "country_code": "is"
      },
      "address": "16 Óseyri, Akureyri, Iceland"
    },
    {
      "lat": 65.69955693882467,
      "lon": -18.102453407739365,
      "geoinfo": {
        "display_name": "Ósvör, Akureyri, Akureyrarbær, Northeastern Region, 600, Iceland",
        "road": "Ósvör",
        "house_number": null,
        "neighbourhood": null,
        "suburb": null,
        "city_district": null,
        "city": "Akureyri",
        "state": null,
        "postcode": "600",
        "country": "Iceland",
        "country_code": "is"
      },
      "address": "Ósvör, Akureyri, Iceland"
    },
    {
      "lat": 65.67080889425736,
      "lon": -18.049131329486034,
      "geoinfo": {
        "display_name": "Norðurlandsvegur, Eyjafjarðarsveit, Northeastern Region, Iceland",
        "road": "Norðurlandsvegur",
        "house_number": null,
        "neighbourhood": null,
        "suburb": null,
        "city_district": null,
        "city": null,
        "state": null,
        "postcode": null,
        "country": "Iceland",
        "country_code": "is"
      },
      "address": "Norðurlandsvegur, Akureyri, Iceland"
    },
    {
      "lat": 65.644574947836,
      "lon": -18.09889805046002,
      "geoinfo": {
        "display_name": "Hamrar, Akureyrarbær, Northeastern Region, 600, Iceland",
        "road": "Hamrar",
        "house_number": null,
        "neighbourhood": null,
        "suburb": null,
        "city_district": null,
        "city": null,
        "state": null,
        "postcode": "600",
        "country": "Iceland",
        "country_code": "is"
      },
      "address": "Hamrar, Akureyri, Iceland"
    },
    {
      "lat": 65.66657869730793,
      "lon": -18.1007480848625,
      "geoinfo": {
        "display_name": "17, Klettatún, Naustahverfi, Akureyri, Akureyrarbær, Northeastern Region, 600, Iceland",
        "road": "Klettatún",
        "house_number": "17",
        "neighbourhood": null,
        "suburb": "Naustahverfi",
        "city_district": null,
        "city": "Akureyri",
        "state": null,
        "postcode": "600",
        "country": "Iceland",
        "country_code": "is"
      },
      "address": "17 Klettatún, Akureyri, Iceland"
    },
    {
      "lat": 65.68428492520955,
      "lon": -18.13639009633826,
      "geoinfo": {
        "display_name": "7, Snægil, Giljahverfi, Akureyri, Akureyrarbær, Northeastern Region, 603, Iceland",
        "road": "Snægil",
        "house_number": "7",
        "neighbourhood": null,
        "suburb": "Giljahverfi",
        "city_district": null,
        "city": "Akureyri",
        "state": null,
        "postcode": "603",
        "country": "Iceland",
        "country_code": "is"
      },
      "address": "7 Snægil, Akureyri, Iceland"
    },
    {
      "lat": 65.67075502455168,
      "lon": -18.082954053124148,
      "geoinfo": {
        "display_name": "Drottningarbraut, Akureyri, Akureyrarbær, Northeastern Region, 600, Iceland",
        "road": "Drottningarbraut",
        "house_number": null,
        "neighbourhood": null,
        "suburb": null,
        "city_district": null,
        "city": "Akureyri",
        "state": null,
        "postcode": "600",
        "country": "Iceland",
        "country_code": "is"
      },
      "address": "Drottningarbraut, Akureyri, Iceland"
    },
    {
      "lat": 65.65693493054852,
      "lon": -18.15869411378413,
      "geoinfo": {
        "display_name": "Súluvegur, Akureyrarbær, Northeastern Region, 601, Iceland",
        "road": "Súluvegur",
        "house_number": null,
        "neighbourhood": null,
        "suburb": null,
        "city_district": null,
        "city": null,
        "state": null,
        "postcode": "601",
        "country": "Iceland",
        "country_code": "is"
      },
      "address": "Súluvegur, Akureyri, Iceland"
    },
    {
      "lat": 65.65997214296567,
      "lon": -18.106782958159364,
      "geoinfo": {
        "display_name": "Naustaborgir, Akureyri, Akureyrarbær, Northeastern Region, 600, Iceland",
        "road": "Naustaborgir",
        "house_number": null,
        "neighbourhood": null,
        "suburb": null,
        "city_district": null,
        "city": "Akureyri",
        "state": null,
        "postcode": "600",
        "country": "Iceland",
        "country_code": "is"
      },
      "address": "Naustaborgir, Akureyri, Iceland"
    },
    {
      "lat": 65.68312721925876,
      "lon": -18.17713436086736,
      "geoinfo": {
        "display_name": "Hesjuvellir, Akureyrarbær, Northeastern Region, 601, Iceland",
        "road": "Hesjuvellir",
        "house_number": null,
        "neighbourhood": null,
        "suburb": null,
        "city_district": null,
        "city": null,
        "state": null,
        "postcode": "601",
        "country": "Iceland",
        "country_code": "is"
      },
      "address": "Hesjuvellir, Akureyri, Iceland"
    },
    {
      "lat": 65.71194021946312,
      "lon": -18.123678340824323,
      "geoinfo": {
        "display_name": "Bárufell, Akureyri, Akureyrarbær, Northeastern Region, 603, Iceland",
        "road": null,
        "house_number": null,
        "neighbourhood": null,
        "suburb": null,
        "city_district": null,
        "city": "Akureyri",
        "state": null,
        "postcode": "603",
        "country": "Iceland",
        "country_code": "is"
      },
      "address": "549, Bárufell, Akureyri, Akureyrarbær, Northeastern Region, 603, Iceland"
    },
    {
      "lat": 65.64790087700196,
      "lon": -18.08816635040704,
      "geoinfo": {
        "display_name": "Sólskógar, 2, Skógargata, Akureyrarbær, Northeastern Region, 600, Iceland",
        "road": "Skógargata",
        "house_number": "2",
        "neighbourhood": null,
        "suburb": null,
        "city_district": null,
        "city": null,
        "state": null,
        "postcode": "600",
        "country": "Iceland",
        "country_code": "is"
      },
      "address": "2, Skógargata, 600 Akureyri, Iceland"
    },
    {
      "lat": 65.6930289610985,
      "lon": -18.083266172150203,
      "geoinfo": {
        "display_name": "6, Fiskitangi, Akureyri, Akureyrarbær, Northeastern Region, 600, Iceland",
        "road": "Fiskitangi",
        "house_number": "6",
        "neighbourhood": null,
        "suburb": null,
        "city_district": null,
        "city": "Akureyri",
        "state": null,
        "postcode": "600",
        "country": "Iceland",
        "country_code": "is"
      },
      "address": "6, Fiskitangi, Akureyri, Akureyrarbær, Northeastern Region, 600, Iceland"
    },
    {
      "lat": 65.69458480235764,
      "lon": -18.129812209515883,
      "geoinfo": {
        "display_name": "Austursíða, Síðuhverfi, Akureyri, Akureyrarbær, Northeastern Region, 603, Iceland",
        "road": "Austursíða",
        "house_number": null,
        "neighbourhood": null,
        "suburb": "Síðuhverfi",
        "city_district": null,
        "city": "Akureyri",
        "state": null,
        "postcode": "603",
        "country": "Iceland",
        "country_code": "is"
      },
      "address": "838, Austursíða, Síðuhverfi, Akureyri, Akureyrarbær, Northeastern Region, 603, Iceland"
    },
    {
      "lat": 65.66295244038774,
      "lon": -18.14592401901564,
      "geoinfo": {
        "display_name": "Fálkafell, Akureyri, Akureyrarbær, Northeastern Region, 601, Iceland",
        "road": "Fálkafell",
        "house_number": null,
        "neighbourhood": null,
        "suburb": null,
        "city_district": null,
        "city": "Akureyri",
        "state": null,
        "postcode": "601",
        "country": "Iceland",
        "country_code": "is"
      },
      "address": "151, Fálkafell, Akureyri, Akureyrarbær, Northeastern Region, 601, Iceland"
    },
    {
      "lat": 65.68128259656686,
      "lon": -18.094127807795505,
      "geoinfo": {
        "display_name": "15, Bjarmastígur, Miðbær, Norðurbrekkan, Akureyri, Akureyrarbær, Northeastern Region, 600, Iceland",
        "road": "Bjarmastígur",
        "house_number": "15",
        "neighbourhood": null,
        "suburb": "Norðurbrekkan",
        "city_district": null,
        "city": "Akureyri",
        "state": null,
        "postcode": "600",
        "country": "Iceland",
        "country_code": "is"
      },
      "address": "15, Bjarmastígur, Miðbær, Norðurbrekkan, Akureyri, Akureyrarbær, Northeastern Region, 600, Iceland"
    },
    {
      "lat": 65.71049658256244,
      "lon": -18.11637692884291,
      "geoinfo": {
        "display_name": "5, Krossanes, Akureyri, Akureyrarbær, Northeastern Region, 603, Iceland",
        "road": "Krossanes",
        "house_number": "5",
        "neighbourhood": null,
        "suburb": null,
        "city_district": null,
        "city": "Akureyri",
        "state": null,
        "postcode": "603",
        "country": "Iceland",
        "country_code": "is"
      },
      "address": "5, Krossanes, Akureyri, Akureyrarbær, Northeastern Region, 603, Iceland"
    }
  ],
  "updated_at": "2025-10-19T03:39:07.899179+00:00",
  "_kind": "geo_samples"
}