{
  "country_code": "IS",
  "country": "Iceland",
  "city": "Hafnarfjörður",
  "geonameid": 3416706,
  "target_addresses": 17,
  "samples": [
    {
      "lat": 64.03876458503534,
      "lon": -21.964628245055273,
      "geoinfo": {
        "display_name": "Hvaleyrarvatnsvegur, Hafnarfjordur, Capital Region, 221, Iceland",
        "road": "Hvaleyrarvatnsvegur",
        "house_number": null,
        "neighbourhood": null,
        "suburb": null,
        "city_district": null,
        "city": "Hafnarfjordur",
        "state": null,
        "postcode": "221",
        "country": "Iceland",
        "country_code": "is"
      },
      "address": "Hvaleyrarvatnsvegur, Hafnarfjörður, Iceland"
    },
    {
      "lat": 64.03435328841604,
      "lon": -21.904499073923102,
      "geoinfo": {
        "display_name": "Hafnarfjordur, Capital Region, 221, Iceland",
        "road": null,
        "house_number": null,
        "neighbourhood": null,
        "suburb": null,
        "city_district": null,
        "city": "Hafnarfjordur",
        "state": null,
        "postcode": "221",
        "country": "Iceland",
        "country_code": "is"
      },
      "address": "Hafnarfjörður, Iceland"
    },
    {
      "lat": 64.05829906022007,
      "lon": -21.945768573562322,
      "geoinfo": {
        "display_name": "Ásbraut, Ásland, Hafnarfjordur, Capital Region, 221, Iceland",
        "road": "Ásbraut",
        "house_number": null,
        "neighbourhood": null,
        "suburb": "Ásland",
        "city_district": null,
        "city": "Hafnarfjordur",
        "state": null,
        "postcode": "221",
        "country": "Iceland",
        "country_code": "is"
      },
      "address": "Ásbraut, Hafnarfjörður, Iceland"
    },
    {
      "lat": 64.07916413104617,
      "lon": -21.888556444048586,
      "geoinfo": {
        "display_name": "Vífilsstaðagarður, Elliðavatnsvegur, Garðabær, Capital Region, 210, Iceland",
        "road": "Elliðavatnsvegur",
        "house_number": null,
        "neighbourhood": null,
        "suburb": null,
        "city_district": null,
        "city": "Garðabær",
        "state": null,
        "postcode": "210",
        "country": "Iceland",
        "country_code": "is"
      },
      "address": "Elliðavatnsvegur, Hafnarfjörður, Iceland"
    },
    {
      "lat": 64.04483596364175,
      "lon": -21.949886726412412,
      "geoinfo": {
        "display_name": "24C, Tinnuskarð, Skarðshlíð, Hafnarfjordur, Capital Region, 221, Iceland",
        "road": "Tinnuskarð",
        "house_number": "24C",
        "neighbourhood": null,
        "suburb": "Skarðshlíð",
        "city_district": null,
        "city": "Hafnarfjordur",
        "state": null,
        "postcode": "221",
        "country": "Iceland",
        "country_code": "is"
      },
      "address": "24C Tinnuskarð, Hafnarfjörður, Iceland"
    },
    {
      "lat": 64.03193174068875,
      "lon": -21.942242763273338,
      "geoinfo": {
        "display_name": "Stórhöfðastígur, Hafnarfjordur, Capital Region, 221, Iceland",
        "road": "Stórhöfðastígur",
        "house_number": null,
        "neighbourhood": null,
        "suburb": null,
        "city_district": null,
        "city": "Hafnarfjordur",
        "state": null,
        "postcode": "221",
        "country": "Iceland",
        "country_code": "is"
      },
      "address": "Stórhöfðastígur, Hafnarfjörður, Iceland"
    },
    {
      "lat": 64.07018304463652,
      "lon": -21.95904728644444,
      "geoinfo": {
        "display_name": "6, Merkurtorg, Vesturbær, Hafnarfjordur, Capital Region, 220, Iceland",
        "road": "Merkurtorg",
        "house_number": "6",
        "neighbourhood": null,
        "suburb": "Vesturbær",
        "city_district": null,
        "city": "Hafnarfjordur",
        "state": null,
        "postcode": "220",
        "country": "Iceland",
        "country_code": "is"
      },
      "address": "6 Merkurtorg, Hafnarfjörður, Iceland"
    },
    {
      "lat": 64.0655341815598,
      "lon": -21.940960181773306,
      "geoinfo": {
        "display_name": "17, Fagrakinn, Kinnar, Suðurbær, Hafnarfjordur, Capital Region, 220, Iceland",
        "road": "Fagrakinn",
        "house_number": "17",
        "neighbourhood": null,
        "suburb": "Suðurbær",
        "city_district": null,
        "city": "Hafnarfjordur",
        "state": null,
        "postcode": "220",
        "country": "Iceland",
        "country_code": "is"
      },
      "address": "17 Fagrakinn, Hafnarfjörður, Iceland"
    },
    {
      "lat": 64.08543810931077,
      "lon": -21.893565629969206,
      "geoinfo": {
        "display_name": "Reykjanesbraut, Garðabær, Capital Region, 210, Iceland",
        "road": "Reykjanesbraut",
        "house_number": null,
        "neighbourhood": null,
        "suburb": null,
        "city_district": null,
        "city": "Garðabær",
        "state": null,
        "postcode": "210",
        "country": "Iceland",
        "country_code": "is"
      },
      "address": "Reykjanesbraut, Hafnarfjörður, Iceland"
    },
    {
      "lat": 64.03466829846289,
      "lon": -21.88469211641577,
      "geoinfo": {
        "display_name": "Sléttuhlíð, Hafnarfjordur, Capital Region, Iceland",
        "road": "Sléttuhlíð",
        "house_number": null,
        "neighbourhood": null,
        "suburb": null,
        "city_district": null,
        "city": "Hafnarfjordur",
        "state": null,
        "postcode": null,
        "country": "Iceland",
        "country_code": "is"
      },
      "address": "Sléttuhlíð, Hafnarfjörður, Iceland"
    },
    {
      "lat": 64.04493774405807,
      "lon": -21.92353669900934,
      "geoinfo": {
        "display_name": "Kaldárselsvegur, Hafnarfjordur, Capital Region, 221, Iceland",
        "road": "Kaldárselsvegur",
        "house_number": null,
        "neighbourhood": null,
        "suburb": null,
        "city_district": null,
        "city": "Hafnarfjordur",
        "state": null,
        "postcode": "221",
        "country": "Iceland",
        "country_code": "is"
      },
      "address": "Kaldárselsvegur, Hafnarfjörður, Iceland"
    },
    {
      "lat": 64.05474569555965,
      "lon": -22.015325545011976,
      "geoinfo": {
        "display_name": "Hraunavíkurvegur, Hafnarfjordur, Capital Region, Iceland",
        "road": "Hraunavíkurvegur",
        "house_number": null,
        "neighbourhood": null,
        "suburb": null,
        "city_district": null,
        "city": "Hafnarfjordur",
        "state": null,
        "postcode": null,
        "country": "Iceland",
        "country_code": "is"
      },
      "address": "Hraunavíkurvegur, Hafnarfjörður, Iceland"
    },
    {
      "lat": 64.02514461029793,
      "lon": -21.972504580664253,
      "geoinfo": {
        "display_name": "Hrauntungustígur, Hafnarfjordur, Grindavíkurbær, Capital Region, Iceland",
        "road": "Hrauntungustígur",
        "house_number": null,
        "neighbourhood": null,
        "suburb": null,
        "city_district": null,
        "city": "Hafnarfjordur",
        "state": null,
        "postcode": null,
        "country": "Iceland",
        "country_code": "is"
      },
      "address": "Hrauntungustígur, Hafnarfjörður, Iceland"
    },
    {
      "lat": 64.04340651390802,
      "lon": -21.990073502036168,
      "geoinfo": {
        "display_name": "1, Berghella, Hellnahraun, Hellur, Hafnarfjordur, Capital Region, 221, Iceland",
        "road": "Berghella",
        "house_number": "1",
        "neighbourhood": null,
        "suburb": "Hellur",
        "city_district": null,
        "city": "Hafnarfjordur",
        "state": null,
        "postcode": "221",
        "country": "Iceland",
        "country_code": "is"
      },
      "address": "1 Berghella, Hafnarfjörður, Iceland"
    },
    {
      "lat": 64.03505828714135,
      "lon": -21.886205118329098,
      "geoinfo": {
        "display_name": "C4, Sléttuhlíð, Hafnarfjordur, Capital Region, 221, Iceland",
        "road": "Sléttuhlíð",
        "house_number": "C4",
        "neighbourhood": null,
        "suburb": null,
        "city_district": null,
        "city": "Hafnarfjordur",
        "state": null,
        "postcode": "221",
        "country": "Iceland",
        "country_code": "is"
      },
      "address": "C4 Sléttuhlíð, Hafnarfjörður, Iceland"
    },
    {
      "lat": 64.05665057928482,
      "lon": -21.976531967509228,
      "geoinfo": {
        "display_name": "Móabarð, Holt, Hafnarfjordur, Capital Region, 221, Iceland",
        "road": "Móabarð",
        "house_number": null,
        "neighbourhood": null,
        "suburb": "Holt",
        "city_district": null,
        "city": "Hafnarfjordur",
        "state": null,
        "postcode": "221",
        "country": "Iceland",
        "country_code": "is"
      },
      "address": "Móabarð, Hafnarfjörður, Iceland"
    },
    {
      "lat": 64.04035601051142,
      "lon": -21.98929921353673,
      "geoinfo": {
        "display_name": "Breiðhella, Hellnahraun, Hellur, Hafnarfjordur, Capital Region, 221, Iceland",
        "road": "Breiðhella",
        "house_number": null,
        "neighbourhood": null,
        "suburb": "Hellur",
        "city_district": null,
        "city": "Hafnarfjordur",
        "state": null,
        "postcode": "221",
        "country": "Iceland",
        "country_code": "is"
      },
      "address": "Breiðhella, Hafnarfjörður, Iceland"
    },
    {
      "lat": 64.04363149004072,
      "lon": -21.9426877449138,
      "geoinfo": {
        "display_name": "Ásvallabraut, Hafnarfjordur, Capital Region, 221, Iceland",
        "road": "Ásvallabraut",
        "house_number": null,
        "neighbourhood": null,
        "suburb": null,
        "city_district": null,
        "city": "Hafnarfjordur",
        "state": null,
        "postcode": "221",
        "country": "Iceland",
        "country_code": "is"
      },
      "address": "083, Ásvallabraut, 221 Hafnarfjörður, Iceland"
    },
    {
      "lat": 64.04543537269393,
      "lon": -21.955417895779853,
      "geoinfo": {
        "display_name": "Geislaskarð, Skarðshlíð, Hafnarfjordur, Capital Region, 221, Iceland",
        "road": "Geislaskarð",
        "house_number": null,
        "neighbourhood": null,
        "suburb": "Skarðshlíð",
        "city_district": null,
        "city": "Hafnarfjordur",
        "state": null,
        "postcode": "221",
        "country": "Iceland",
        "country_code": "is"
      },
      "address": "360, Geislaskarð, 221 Hafnarfjörður, Iceland"
    },
    {
      "lat": 64.04321188577426,
      "lon": -21.960102929446453,
      "geoinfo": {
        "display_name": "9, Klukkuvellir, Vellir, Hafnarfjordur, Capital Region, 221, Iceland",
        "road": "Klukkuvellir",
        "house_number": "9",
        "neighbourhood": null,
        "suburb": "Vellir",
        "city_district": null,
        "city": "Hafnarfjordur",
        "state": null,
        "postcode": "221",
        "country": "Iceland",
        "country_code": "is"
      },
      "address": "9, Klukkuvellir, 221 Hafnarfjörður, Iceland"
    },
    {
      "lat": 64.07838815766068,
      "lon": -21.946643033142593,
      "geoinfo": {
        "display_name": "2, Trönuhraun, Hafnarfjordur, Capital Region, 220, Iceland",
        "road": "Trönuhraun",
        "house_number": "2",
        "neighbourhood": null,
        "suburb": null,
        "city_district": null,
        "city": "Hafnarfjordur",
        "state": null,
        "postcode": "220",
        "country": "Iceland",
        "country_code": "is"
      },
      "address": "2, Trönuhraun, 220 Hafnarfjörður, Iceland"
    },
    {
      "lat": 64.07275078611904,
      "lon": -21.968885729917204,
      "geoinfo": {
        "display_name": "Herjólfsgata, Norðurbær, Hafnarfjordur, Capital Region, 220, Iceland",
        "road": "Herjólfsgata",
        "house_number": null,
        "neighbourhood": null,
        "suburb": "Norðurbær",
        "city_district": null,
        "city": "Hafnarfjordur",
        "state": null,
        "postcode": "220",
        "country": "Iceland",
        "country_code": "is"
      },
      "address": "798, Herjólfsgata, 220 Hafnarfjörður, Iceland"
    },
    {
      "lat": 64.07876093063139,
      "lon": -22.004947829220168,
      "geoinfo": {
        "display_name": "Garðaholt, Garðabær, Capital Region, 210, Iceland",
        "road": null,
        "house_number": null,
        "neighbourhood": null,
        "suburb": null,
        "city_district": null,
        "city": "Garðabær",
        "state": null,
        "postcode": "210",
        "country": "Iceland",
        "country_code": "is"
      },
      "address": "942, 210 Hafnarfjörður, Iceland"
    },
    {
      "lat": 64.04750413756672,
      "lon": -22.018308039340855,
      "geoinfo": {
        "display_name": "Reykjanesbraut, Hafnarfjordur, Capital Region, Iceland",
        "road": "Reykjanesbraut",
        "house_number": null,
        "neighbourhood": null,
        "suburb": null,
        "city_district": null,
        "city": "Hafnarfjordur",
        "state": null,
        "postcode": null,
        "country": "Iceland",
        "country_code": "is"
      },
      "address": "065, Reykjanesbraut, 01815 Hafnarfjörður, Iceland"
    },
    {
      "lat": 64.0685340567714,
      "lon": -21.978751659242295,
      "geoinfo": {
        "display_name": "Óseyrarbraut, Hafnarfjordur, Capital Region, 220, Iceland",
        "road": "Óseyrarbraut",
        "house_number": null,
        "neighbourhood": null,
        "suburb": null,
        "city_district": null,
        "city": "Hafnarfjordur",
        "state": null,
        "postcode": "220",
        "country": "Iceland",
        "country_code": "is"
      },
      "address": "506, Óseyrarbraut, 220 Hafnarfjörður, Iceland"
    }
  ],
  "updated_at": "2025-10-19T05:20:49.777187+00:00",
  "_kind": "geo_samples"
}