{
  "country_code": "IS",
  "country": "Iceland",
  "city": "Keflavík",
  "geonameid": 3415496,
  "target_addresses": 17,
  "samples": [
    {
      "lat": 64.01117717274887,
      "lon": -22.550991897208245,
      "geoinfo": {
        "display_name": "Bakkavegur, Keflavík, Reykjanesbær, Southern Peninsula, 230, Iceland",
        "road": "Bakkavegur",
        "house_number": null,
        "neighbourhood": null,
        "suburb": null,
        "city_district": null,
        "city": "Keflavík",
        "state": null,
        "postcode": "230",
        "country": "Iceland",
        "country_code": "is"
      },
      "address": "Bakkavegur, Keflavík, Iceland"
    },
    {
      "lat": 64.00205953834545,
      "lon": -22.513349271346787,
      "geoinfo": {
        "display_name": "Innri-Njarðvík, Njarðvík, Reykjanesbær, Southern Peninsula, 260, Iceland",
        "road": null,
        "house_number": null,
        "neighbourhood": null,
        "suburb": "Innri-Njarðvík",
        "city_district": null,
        "city": "Njarðvík",
        "state": null,
        "postcode": "260",
        "country": "Iceland",
        "country_code": "is"
      },
      "address": "Innri-Njarðvík, Keflavík, Iceland"
    },
    {
      "lat": 64.0166846787002,
      "lon": -22.523655156951396,
      "geoinfo": {
        "display_name": "Ytri-Njarðvík, Keflavík, Reykjanesbær, Southern Peninsula, 230, Iceland",
        "road": null,
        "house_number": null,
        "neighbourhood": null,
        "suburb": "Ytri-Njarðvík",
        "city_district": null,
        "city": "Keflavík",
        "state": null,
        "postcode": "230",
        "country": "Iceland",
        "country_code": "is"
      },
      "address": "Ytri-Njarðvík, Keflavík, Iceland"
    },
    {
      "lat": 64.00659771654541,
      "lon": -22.4634646045179,
      "geoinfo": {
        "display_name": "Iceland",
        "road": null,
        "house_number": null,
        "neighbourhood": null,
        "suburb": null,
        "city_district": null,
        "city": null,
        "state": null,
        "postcode": null,
        "country": "Iceland",
        "country_code": "is"
      },
      "address": "Keflavík, Iceland"
    },
    {
      "lat": 63.98189572987546,
      "lon": -22.571508004406518,
      "geoinfo": {
        "display_name": "Reykjanesbraut, Ytri-Njarðvík, Keflavík, Reykjanesbær, Southern Peninsula, 262, Iceland",
        "road": "Reykjanesbraut",
        "house_number": null,
        "neighbourhood": null,
        "suburb": "Ytri-Njarðvík",
        "city_district": null,
        "city": "Keflavík",
        "state": null,
        "postcode": "262",
        "country": "Iceland",
        "country_code": "is"
      },
      "address": "Reykjanesbraut, Keflavík, Iceland"
    },
    {
      "lat": 64.00461532908187,
      "lon": -22.585825684621213,
      "geoinfo": {
        "display_name": "12, Eyjavellir, Keflavík, Reykjanesbær, Southern Peninsula, 230, Iceland",
        "road": "Eyjavellir",
        "house_number": "12",
        "neighbourhood": null,
        "suburb": null,
        "city_district": null,
        "city": "Keflavík",
        "state": null,
        "postcode": "230",
        "country": "Iceland",
        "country_code": "is"
      },
      "address": "12 Eyjavellir, Keflavík, Iceland"
    },
    {
      "lat": 64.00695244335921,
      "lon": -22.54123892406301,
      "geoinfo": {
        "display_name": "Vatnsnes, Hrannargata, Ytri-Njarðvík, Keflavík, Reykjanesbær, Southern Peninsula, 230, Iceland",
        "road": "Hrannargata",
        "house_number": null,
        "neighbourhood": null,
        "suburb": "Ytri-Njarðvík",
        "city_district": null,
        "city": "Keflavík",
        "state": null,
        "postcode": "230",
        "country": "Iceland",
        "country_code": "is"
      },
      "address": "Hrannargata, Keflavík, Iceland"
    },
    {
      "lat": 64.00020593822134,
      "lon": -22.5463240579134,
      "geoinfo": {
        "display_name": "Parking Hotel Keflavik, Bryggjuvegur, Ytri-Njarðvík, Keflavík, Reykjanesbær, Southern Peninsula, 230, Iceland",
        "road": "Bryggjuvegur",
        "house_number": null,
        "neighbourhood": null,
        "suburb": "Ytri-Njarðvík",
        "city_district": null,
        "city": "Keflavík",
        "state": null,
        "postcode": "230",
        "country": "Iceland",
        "country_code": "is"
      },
      "address": "Bryggjuvegur, Keflavík, Iceland"
    },
    {
      "lat": 64.02228746763765,
      "lon": -22.58413698706212,
      "geoinfo": {
        "display_name": "Helguvíkurvegur, Keflavík, Reykjanesbær, Southern Peninsula, 230, Iceland",
        "road": "Helguvíkurvegur",
        "house_number": null,
        "neighbourhood": null,
        "suburb": null,
        "city_district": null,
        "city": "Keflavík",
        "state": null,
        "postcode": "230",
        "country": "Iceland",
        "country_code": "is"
      },
      "address": "Helguvíkurvegur, Keflavík, Iceland"
    },
    {
      "lat": 63.99867987810289,
      "lon": -22.55953939428007,
      "geoinfo": {
        "display_name": "Vatnaveröld, 31, Sunnubraut, Ytri-Njarðvík, Keflavík, Reykjanesbær, Southern Peninsula, 230, Iceland",
        "road": "Sunnubraut",
        "house_number": "31",
        "neighbourhood": null,
        "suburb": "Ytri-Njarðvík",
        "city_district": null,
        "city": "Keflavík",
        "state": null,
        "postcode": "230",
        "country": "Iceland",
        "country_code": "is"
      },
      "address": "31 Sunnubraut, Keflavík, Iceland"
    },
    {
      "lat": 63.98730570636497,
      "lon": -22.54611842971582,
      "geoinfo": {
        "display_name": "13, Grundarvegur, Ytri-Njarðvík, Njarðvík, Reykjanesbær, Southern Peninsula, 260, Iceland",
        "road": "Grundarvegur",
        "house_number": "13",
        "neighbourhood": null,
        "suburb": "Ytri-Njarðvík",
        "city_district": null,
        "city": "Njarðvík",
        "state": null,
        "postcode": "260",
        "country": "Iceland",
        "country_code": "is"
      },
      "address": "13 Grundarvegur, Keflavík, Iceland"
    },
    {
      "lat": 63.99507450516086,
      "lon": -22.562683159243456,
      "geoinfo": {
        "display_name": "29, Grænalaut, Ytri-Njarðvík, Keflavík, Reykjanesbær, Southern Peninsula, 230, Iceland",
        "road": "Grænalaut",
        "house_number": "29",
        "neighbourhood": null,
        "suburb": "Ytri-Njarðvík",
        "city_district": null,
        "city": "Keflavík",
        "state": null,
        "postcode": "230",
        "country": "Iceland",
        "country_code": "is"
      },
      "address": "29 Grænalaut, Keflavík, Iceland"
    },
    {
      "lat": 64.03126825581757,
      "lon": -22.57257799677823,
      "geoinfo": {
        "display_name": "3, Helguvíkurvegur, Keflavík, Reykjanesbær, Southern Peninsula, 251, Iceland",
        "road": "Helguvíkurvegur",
        "house_number": "3",
        "neighbourhood": null,
        "suburb": null,
        "city_district": null,
        "city": "Keflavík",
        "state": null,
        "postcode": "251",
        "country": "Iceland",
        "country_code": "is"
      },
      "address": "3 Helguvíkurvegur, Keflavík, Iceland"
    },
    {
      "lat": 63.97543139900318,
      "lon": -22.5928062378212,
      "geoinfo": {
        "display_name": "Háaleitishlað, Valhalla Road, Ásbrú, Njarðvík, Reykjanesbær, Southern Peninsula, 262, Iceland",
        "road": "Valhalla Road",
        "house_number": null,
        "neighbourhood": null,
        "suburb": "Ásbrú",
        "city_district": null,
        "city": "Njarðvík",
        "state": null,
        "postcode": "262",
        "country": "Iceland",
        "country_code": "is"
      },
      "address": "Valhalla Road, Keflavík, Iceland"
    },
    {
      "lat": 63.99156409532446,
      "lon": -22.53354463809758,
      "geoinfo": {
        "display_name": "Hafnarbraut, Ytri-Njarðvík, Njarðvík, Reykjanesbær, Southern Peninsula, 260, Iceland",
        "road": "Hafnarbraut",
        "house_number": null,
        "neighbourhood": null,
        "suburb": "Ytri-Njarðvík",
        "city_district": null,
        "city": "Njarðvík",
        "state": null,
        "postcode": "260",
        "country": "Iceland",
        "country_code": "is"
      },
      "address": "Hafnarbraut, Keflavík, Iceland"
    },
    {
      "lat": 63.97606836691382,
      "lon": -22.624205699991496,
      "geoinfo": {
        "display_name": "C1, Suðurnesjabær, Southern Peninsula, 235, Iceland",
        "road": "C1",
        "house_number": null,
        "neighbourhood": null,
        "suburb": null,
        "city_district": null,
        "city": null,
        "state": null,
        "postcode": "235",
        "country": "Iceland",
        "country_code": "is"
      },
      "address": "C1, Keflavík, Iceland"
    },
    {
      "lat": 63.998621212908745,
      "lon": -22.584217659142237,
      "geoinfo": {
        "display_name": "Aðalgata, Keflavík, Reykjanesbær, Southern Peninsula, 230, Iceland",
        "road": "Aðalgata",
        "house_number": null,
        "neighbourhood": null,
        "suburb": null,
        "city_district": null,
        "city": "Keflavík",
        "state": null,
        "postcode": "230",
        "country": "Iceland",
        "country_code": "is"
      },
      "address": "Aðalgata, Keflavík, Iceland"
    },
    {
      "lat": 64.02520709298203,
      "lon": -22.545359301878722,
      "geoinfo": {
        "display_name": "Ytri-Njarðvík, Keflavík, Reykjanesbær, Southern Peninsula, 230, Iceland",
        "road": null,
        "house_number": null,
        "neighbourhood": null,
        "suburb": "Ytri-Njarðvík",
        "city_district": null,
        "city": "Keflavík",
        "state": null,
        "postcode": "230",
        "country": "Iceland",
        "country_code": "is"
      },
      "address": "277, Ytri-Njarðvík, Keflavík, Reykjanesbær, Southern Peninsula, 230, Iceland"
    },
    {
      "lat": 64.00947425700053,
      "lon": -22.591299327333914,
      "geoinfo": {
        "display_name": "Garðskagavegur, Reykjanesbær, Suðurnesjabær, Southern Peninsula, 235, Iceland",
        "road": "Garðskagavegur",
        "house_number": null,
        "neighbourhood": null,
        "suburb": null,
        "city_district": null,
        "city": "Reykjanesbær",
        "state": null,
        "postcode": "235",
        "country": "Iceland",
        "country_code": "is"
      },
      "address": "467, Garðskagavegur, Reykjanesbær, Suðurnesjabær, Southern Peninsula, 235, Iceland"
    },
    {
      "lat": 63.98867692724301,
      "lon": -22.58551110331523,
      "geoinfo": {
        "display_name": "15, Pétursvöllur, Reykjanesbær, Suðurnesjabær, Southern Peninsula, 235, Iceland",
        "road": "Pétursvöllur",
        "house_number": "15",
        "neighbourhood": null,
        "suburb": null,
        "city_district": null,
        "city": "Reykjanesbær",
        "state": null,
        "postcode": "235",
        "country": "Iceland",
        "country_code": "is"
      },
      "address": "15, Pétursvöllur, Reykjanesbær, Suðurnesjabær, Southern Peninsula, 235, Iceland"
    },
    {
      "lat": 63.987352351063265,
      "lon": -22.518490254972566,
      "geoinfo": {
        "display_name": "Innri-Njarðvík, Njarðvík, Reykjanesbær, Southern Peninsula, 260, Iceland",
        "road": null,
        "house_number": null,
        "neighbourhood": null,
        "suburb": "Innri-Njarðvík",
        "city_district": null,
        "city": "Njarðvík",
        "state": null,
        "postcode": "260",
        "country": "Iceland",
        "country_code": "is"
      },
      "address": "915, Innri-Njarðvík, Njarðvík, Reykjanesbær, Southern Peninsula, 260, Iceland"
    },
    {
      "lat": 64.02435287627654,
      "lon": -22.48811794810104,
      "geoinfo": {
        "display_name": "Keflavík, Reykjanesbær, Southern Peninsula, 230, Iceland",
        "road": null,
        "house_number": null,
        "neighbourhood": null,
        "suburb": null,
        "city_district": null,
        "city": "Keflavík",
        "state": null,
        "postcode": "230",
        "country": "Iceland",
        "country_code": "is"
      },
      "address": "913, Keflavík, Reykjanesbær, Southern Peninsula, 230, Iceland"
    },
    {
      "lat": 64.00182986774755,
      "lon": -22.504034172170417,
      "geoinfo": {
        "display_name": "Innri-Njarðvík, Njarðvík, Reykjanesbær, Southern Peninsula, 260, Iceland",
        "road": null,
        "house_number": null,
        "neighbourhood": null,
        "suburb": "Innri-Njarðvík",
        "city_district": null,
        "city": "Njarðvík",
        "state": null,
        "postcode": "260",
        "country": "Iceland",
        "country_code": "is"
      },
      "address": "605, Innri-Njarðvík, Njarðvík, Reykjanesbær, Southern Peninsula, 260, Iceland"
    },
    {
      "lat": 64.01220763216368,
      "lon": -22.497875811084956,
      "geoinfo": {
        "display_name": "Njarðvík, Reykjanesbær, Southern Peninsula, 260, Iceland",
        "road": null,
        "house_number": null,
        "neighbourhood": null,
        "suburb": null,
        "city_district": null,
        "city": "Njarðvík",
        "state": null,
        "postcode": "260",
        "country": "Iceland",
        "country_code": "is"
      },
      "address": "200, Njarðvík, Reykjanesbær, Southern Peninsula, 260, Iceland"
    },
    {
      "lat": 63.96857080403577,
      "lon": -22.5317549778877,
      "geoinfo": {
        "display_name": "Reykjanesbraut, Innri-Njarðvík, Njarðvík, Reykjanesbær, Southern Peninsula, 260, Iceland",
        "road": "Reykjanesbraut",
        "house_number": null,
        "neighbourhood": null,
        "suburb": "Innri-Njarðvík",
        "city_district": null,
        "city": "Njarðvík",
        "state": null,
        "postcode": "260",
        "country": "Iceland",
        "country_code": "is"
      },
      "address": "883, Reykjanesbraut, Innri-Njarðvík, Njarðvík, Reykjanesbær, Southern Peninsula, 260, Iceland"
    },
    {
      "lat": 63.991262873563166,
      "lon": -22.538886299553404,
      "geoinfo": {
        "display_name": "6, Hafnarbraut, Ytri-Njarðvík, Keflavík, Reykjanesbær, Southern Peninsula, 260, Iceland",
        "road": "Hafnarbraut",
        "house_number": "6",
        "neighbourhood": null,
        "suburb": "Ytri-Njarðvík",
        "city_district": null,
        "city": "Keflavík",
        "state": null,
        "postcode": "260",
        "country": "Iceland",
        "country_code": "is"
      },
      "address": "6, Hafnarbraut, Ytri-Njarðvík, Keflavík, Reykjanesbær, Southern Peninsula, 260, Iceland"
    },
    {
      "lat": 64.03622646450843,
      "lon": -22.562671530308332,
      "geoinfo": {
        "display_name": "Keflavík, Reykjanesbær, Southern Peninsula, 230, Iceland",
        "road": null,
        "house_number": null,
        "neighbourhood": null,
        "suburb": null,
        "city_district": null,
        "city": "Keflavík",
        "state": null,
        "postcode": "230",
        "country": "Iceland",
        "country_code": "is"
      },
      "address": "552, Keflavík, Reykjanesbær, Southern Peninsula, 230, Iceland"
    },
    {
      "lat": 63.987518142958194,
      "lon": -22.594780271755823,
      "geoinfo": {
        "display_name": "Hólsvöllur, Reykjanesbær, Suðurnesjabær, Southern Peninsula, 262, Iceland",
        "road": "Hólsvöllur",
        "house_number": null,
        "neighbourhood": null,
        "suburb": null,
        "city_district": null,
        "city": "Reykjanesbær",
        "state": null,
        "postcode": "262",
        "country": "Iceland",
        "country_code": "is"
      },
      "address": "979, Hólsvöllur, Reykjanesbær, Suðurnesjabær, Southern Peninsula, 262, Iceland"
    },
    {
      "lat": 63.96821426488053,
      "lon": -22.570592910264097,
      "geoinfo": {
        "display_name": "Keilir Orkurannsóknarsetur, 910, East Avenue, Ásbrú, Njarðvík, Reykjanesbær, Southern Peninsula, 262, Iceland",
        "road": "East Avenue",
        "house_number": "910",
        "neighbourhood": null,
        "suburb": "Ásbrú",
        "city_district": null,
        "city": "Njarðvík",
        "state": null,
        "postcode": "262",
        "country": "Iceland",
        "country_code": "is"
      },
      "address": "Keilir Orkurannsóknarsetur, 910, East Avenue, Ásbrú, Njarðvík, Reykjanesbær, Southern Peninsula, 262, Iceland"
    },
    {
      "lat": 63.993756036892066,
      "lon": -22.477313455187538,
      "geoinfo": {
        "display_name": "Innri-Njarðvík, Njarðvík, Reykjanesbær, Southern Peninsula, 260, Iceland",
        "road": null,
        "house_number": null,
        "neighbourhood": null,
        "suburb": "Innri-Njarðvík",
        "city_district": null,
        "city": "Njarðvík",
        "state": null,
        "postcode": "260",
        "country": "Iceland",
        "country_code": "is"
      },
      "address": "085, Innri-Njarðvík, Njarðvík, Reykjanesbær, Southern Peninsula, 260, Iceland"
    },
    {
      "lat": 63.98745697625561,
      "lon": -22.585758667948735,
      "geoinfo": {
        "display_name": "15, Pétursvöllur, Reykjanesbær, Suðurnesjabær, Southern Peninsula, 235, Iceland",
        "road": "Pétursvöllur",
        "house_number": "15",
        "neighbourhood": null,
        "suburb": null,
        "city_district": null,
        "city": "Reykjanesbær",
        "state": null,
        "postcode": "235",
        "country": "Iceland",
        "country_code": "is"
      },
      "address": "15, Pétursvöllur, 235 Keflavík, Iceland"
    },
    {
      "lat": 63.97747683388131,
      "lon": -22.548375865297544,
      "geoinfo": {
        "display_name": "Bergás, Ásahverfi, Ytri-Njarðvík, Njarðvík, Reykjanesbær, Southern Peninsula, 262, Iceland",
        "road": "Bergás",
        "house_number": null,
        "neighbourhood": "Ásahverfi",
        "suburb": "Ytri-Njarðvík",
        "city_district": null,
        "city": "Njarðvík",
        "state": null,
        "postcode": "262",
        "country": "Iceland",
        "country_code": "is"
      },
      "address": "732, Bergás, Ásahverfi, Ytri-Njarðvík, Njarðvík, Reykjanesbær, Southern Peninsula, 262, Iceland"
    }
  ],
  "updated_at": "2025-10-19T05:19:39.633354+00:00",
  "_kind": "geo_samples"
}