{
  "country_code": "IS",
  "country": "Iceland",
  "city": "Kópavogur",
  "geonameid": 3415212,
  "target_addresses": 17,
  "samples": [
    {
      "lat": 64.13112732938893,
      "lon": -21.89636383277293,
      "geoinfo": {
        "display_name": "Örugg verkfræðistofa, 7, Kringlan, Kringla, Háaleiti og Bústaðir, Reykjavik, Capital Region, 103, Iceland",
        "road": "Kringlan",
        "house_number": "7",
        "neighbourhood": "Kringla",
        "suburb": "Háaleiti og Bústaðir",
        "city_district": null,
        "city": "Reykjavik",
        "state": null,
        "postcode": "103",
        "country": "Iceland",
        "country_code": "is"
      },
      "address": "Örugg verkfræðistofa, 7, Kringlan, Kringla, Háaleiti og Bústaðir, Reykjavik, Capital Region, 103, Iceland"
    },
    {
      "lat": 64.10896921302086,
      "lon": -21.882846486143297,
      "geoinfo": {
        "display_name": "4, Hólahjalli, Hjallar, Digranes, Kopavogur, Capital Region, 200, Iceland",
        "road": "Hólahjalli",
        "house_number": "4",
        "neighbourhood": null,
        "suburb": "Digranes",
        "city_district": null,
        "city": "Kopavogur",
        "state": null,
        "postcode": "200",
        "country": "Iceland",
        "country_code": "is"
      },
      "address": "4, Hólahjalli, 200 Kópavogur, Iceland"
    },
    {
      "lat": 64.08844422259682,
      "lon": -21.865200524396563,
      "geoinfo": {
        "display_name": "Öldusalir, Salir, Fífuhvammur, Kopavogur, Capital Region, 201, Iceland",
        "road": "Öldusalir",
        "house_number": null,
        "neighbourhood": "Salir",
        "suburb": "Fífuhvammur",
        "city_district": null,
        "city": "Kopavogur",
        "state": null,
        "postcode": "201",
        "country": "Iceland",
        "country_code": "is"
      },
      "address": "403, Öldusalir, 201 Kópavogur, Iceland"
    },
    {
      "lat": 64.08561967141219,
      "lon": -21.848318067489213,
      "geoinfo": {
        "display_name": "83, Austurkór, Kórar, Vatnsendi, Kopavogur, Capital Region, 203, Iceland",
        "road": "Austurkór",
        "house_number": "83",
        "neighbourhood": "Kórar",
        "suburb": "Vatnsendi",
        "city_district": null,
        "city": "Kopavogur",
        "state": null,
        "postcode": "203",
        "country": "Iceland",
        "country_code": "is"
      },
      "address": "83, Austurkór, 203 Kópavogur, Iceland"
    },
    {
      "lat": 64.11096472570391,
      "lon": -21.943055108851222,
      "geoinfo": {
        "display_name": "Kársnesstígur, Kársnes, Kopavogur, Capital Region, 210, Iceland",
        "road": "Kársnesstígur",
        "house_number": null,
        "neighbourhood": null,
        "suburb": "Kársnes",
        "city_district": null,
        "city": "Kopavogur",
        "state": null,
        "postcode": "210",
        "country": "Iceland",
        "country_code": "is"
      },
      "address": "562, Kársnesstígur, 210 Kópavogur, Iceland"
    },
    {
      "lat": 64.11528093604927,
      "lon": -21.86863668637171,
      "geoinfo": {
        "display_name": "13, Brekkutún, Tún, Digranes, Kopavogur, Capital Region, 200, Iceland",
        "road": "Brekkutún",
        "house_number": "13",
        "neighbourhood": null,
        "suburb": "Digranes",
        "city_district": null,
        "city": "Kopavogur",
        "state": null,
        "postcode": "200",
        "country": "Iceland",
        "country_code": "is"
      },
      "address": "13, Brekkutún, 200 Kópavogur, Iceland"
    }
  ],
  "updated_at": "2025-10-19T04:45:45.373694+00:00",
  "_kind": "geo_samples"
}