{
  "country_code": "IS",
  "country": "Iceland",
  "city": "Reykjavík",
  "geonameid": 3413829,
  "target_addresses": 17,
  "samples": [
    {
      "lat": 64.12932897477769,
      "lon": -21.944630915972116,
      "geoinfo": {
        "display_name": "Reykjavik Airport, Nauthólsvegur, Miðborg, Reykjavik, Capital Region, 102, Iceland",
        "road": "Nauthólsvegur",
        "house_number": null,
        "neighbourhood": null,
        "suburb": "Miðborg",
        "city_district": null,
        "city": "Reykjavik",
        "state": null,
        "postcode": "102",
        "country": "Iceland",
        "country_code": "is"
      },
      "address": "Nauthólsvegur, Reykjavík, Iceland"
    },
    {
      "lat": 64.13542126038053,
      "lon": -21.978479007053632,
      "geoinfo": {
        "display_name": "Hólmar, 170, Iceland",
        "road": null,
        "house_number": null,
        "neighbourhood": null,
        "suburb": null,
        "city_district": null,
        "city": null,
        "state": null,
        "postcode": "170",
        "country": "Iceland",
        "country_code": "is"
      },
      "address": "Reykjavík, Iceland"
    },
    {
      "lat": 64.15772068662439,
      "lon": -21.93993191319272,
      "geoinfo": {
        "display_name": "3, Eyjarslóð, Örfirisey, Vesturbær, Reykjavik, Capital Region, 101, Iceland",
        "road": "Eyjarslóð",
        "house_number": "3",
        "neighbourhood": "Örfirisey",
        "suburb": "Vesturbær",
        "city_district": null,
        "city": "Reykjavik",
        "state": null,
        "postcode": "101",
        "country": "Iceland",
        "country_code": "is"
      },
      "address": "3 Eyjarslóð, Reykjavík, Iceland"
    },
    {
      "lat": 64.1504843695358,
      "lon": -21.824488022343576,
      "geoinfo": {
        "display_name": "Sorpa, 10, Gufunesvegur, Gufunes, Grafarvogur, Reykjavik, Capital Region, 112, Iceland",
        "road": "Gufunesvegur",
        "house_number": "10",
        "neighbourhood": null,
        "suburb": "Grafarvogur",
        "city_district": null,
        "city": "Reykjavik",
        "state": null,
        "postcode": "112",
        "country": "Iceland",
        "country_code": "is"
      },
      "address": "10 Gufunesvegur, Reykjavík, Iceland"
    },
    {
      "lat": 64.12914840597594,
      "lon": -21.89334548579053,
      "geoinfo": {
        "display_name": "89, Kringlan, Kringla, Háaleiti og Bústaðir, Reykjavik, Capital Region, 103, Iceland",
        "road": "Kringlan",
        "house_number": "89",
        "neighbourhood": "Kringla",
        "suburb": "Háaleiti og Bústaðir",
        "city_district": null,
        "city": "Reykjavik",
        "state": null,
        "postcode": "103",
        "country": "Iceland",
        "country_code": "is"
      },
      "address": "89 Kringlan, Reykjavík, Iceland"
    },
    {
      "lat": 64.1292491794929,
      "lon": -21.824941116661783,
      "geoinfo": {
        "display_name": "10, Breiðhöfði, Höfðar, Grafarvogur, Reykjavik, Capital Region, 110, Iceland",
        "road": "Breiðhöfði",
        "house_number": "10",
        "neighbourhood": "Höfðar",
        "suburb": "Grafarvogur",
        "city_district": null,
        "city": "Reykjavik",
        "state": null,
        "postcode": "110",
        "country": "Iceland",
        "country_code": "is"
      },
      "address": "10 Breiðhöfði, Reykjavík, Iceland"
    },
    {
      "lat": 64.13523876590781,
      "lon": -21.946481577992188,
      "geoinfo": {
        "display_name": "8, Sturlugata, Háskóli, Miðborg, Reykjavik, Capital Region, 102, Iceland",
        "road": "Sturlugata",
        "house_number": "8",
        "neighbourhood": "Háskóli",
        "suburb": "Miðborg",
        "city_district": null,
        "city": "Reykjavik",
        "state": null,
        "postcode": "102",
        "country": "Iceland",
        "country_code": "is"
      },
      "address": "8 Sturlugata, Reykjavík, Iceland"
    },
    {
      "lat": 64.14613207882705,
      "lon": -21.970618497807994,
      "geoinfo": {
        "display_name": "Granaskjól, Skjól, Vesturbær, Reykjavik, Capital Region, 107, Iceland",
        "road": "Granaskjól",
        "house_number": null,
        "neighbourhood": "Skjól",
        "suburb": "Vesturbær",
        "city_district": null,
        "city": "Reykjavik",
        "state": null,
        "postcode": "107",
        "country": "Iceland",
        "country_code": "is"
      },
      "address": "Granaskjól, Reykjavík, Iceland"
    },
    {
      "lat": 64.12786380340698,
      "lon": -21.883996387978634,
      "geoinfo": {
        "display_name": "13, Stóragerði, Gerði, Háaleiti og Bústaðir, Reykjavik, Capital Region, 108, Iceland",
        "road": "Stóragerði",
        "house_number": "13",
        "neighbourhood": "Gerði",
        "suburb": "Háaleiti og Bústaðir",
        "city_district": null,
        "city": "Reykjavik",
        "state": null,
        "postcode": "108",
        "country": "Iceland",
        "country_code": "is"
      },
      "address": "13 Stóragerði, Reykjavík, Iceland"
    },
    {
      "lat": 64.1526079446047,
      "lon": -21.85640795817993,
      "geoinfo": {
        "display_name": "Korngarðar, Sundahöfn, Laugardalur, Reykjavik, Capital Region, 104, Iceland",
        "road": "Korngarðar",
        "house_number": null,
        "neighbourhood": null,
        "suburb": "Laugardalur",
        "city_district": null,
        "city": "Reykjavik",
        "state": null,
        "postcode": "104",
        "country": "Iceland",
        "country_code": "is"
      },
      "address": "Korngarðar, Reykjavík, Iceland"
    },
    {
      "lat": 64.12170169002175,
      "lon": -21.871293539924316,
      "geoinfo": {
        "display_name": "3, Gautland, Fossvogur, Háaleiti og Bústaðir, Reykjavik, Capital Region, 108, Iceland",
        "road": "Gautland",
        "house_number": "3",
        "neighbourhood": "Fossvogur",
        "suburb": "Háaleiti og Bústaðir",
        "city_district": null,
        "city": "Reykjavik",
        "state": null,
        "postcode": "108",
        "country": "Iceland",
        "country_code": "is"
      },
      "address": "3 Gautland, Reykjavík, Iceland"
    },
    {
      "lat": 64.12634359830088,
      "lon": -21.848117565830098,
      "geoinfo": {
        "display_name": "Sæbraut, Vogar, Laugardalur, Reykjavik, Capital Region, 104, Iceland",
        "road": "Sæbraut",
        "house_number": null,
        "neighbourhood": "Vogar",
        "suburb": "Laugardalur",
        "city_district": null,
        "city": "Reykjavik",
        "state": null,
        "postcode": "104",
        "country": "Iceland",
        "country_code": "is"
      },
      "address": "Sæbraut, Reykjavík, Iceland"
    },
    {
      "lat": 64.13727412081812,
      "lon": -21.876225984300024,
      "geoinfo": {
        "display_name": "Suðurlandsbraut, Laugardalur, Reykjavik, Capital Region, 108, Iceland",
        "road": "Suðurlandsbraut",
        "house_number": null,
        "neighbourhood": null,
        "suburb": "Laugardalur",
        "city_district": null,
        "city": "Reykjavik",
        "state": null,
        "postcode": "108",
        "country": "Iceland",
        "country_code": "is"
      },
      "address": "Suðurlandsbraut, Reykjavík, Iceland"
    },
    {
      "lat": 64.13505283609874,
      "lon": -21.811608826084562,
      "geoinfo": {
        "display_name": "Eyjaleið, Foldir, Grafarvogur, Reykjavik, Capital Region, 112, Iceland",
        "road": "Eyjaleið",
        "house_number": null,
        "neighbourhood": "Foldir",
        "suburb": "Grafarvogur",
        "city_district": null,
        "city": "Reykjavik",
        "state": null,
        "postcode": "112",
        "country": "Iceland",
        "country_code": "is"
      },
      "address": "Eyjaleið, Reykjavík, Iceland"
    },
    {
      "lat": 64.14084393282926,
      "lon": -21.93984668457499,
      "geoinfo": {
        "display_name": "Sóleyjargata, Miðborg, Reykjavik, Capital Region, 101, Iceland",
        "road": "Sóleyjargata",
        "house_number": null,
        "neighbourhood": null,
        "suburb": "Miðborg",
        "city_district": null,
        "city": "Reykjavik",
        "state": null,
        "postcode": "101",
        "country": "Iceland",
        "country_code": "is"
      },
      "address": "Sóleyjargata, Reykjavík, Iceland"
    },
    {
      "lat": 64.13062039380995,
      "lon": -21.803177656431863,
      "geoinfo": {
        "display_name": "Kelduleið, Foldir, Grafarvogur, Reykjavik, Capital Region, 112, Iceland",
        "road": "Kelduleið",
        "house_number": null,
        "neighbourhood": "Foldir",
        "suburb": "Grafarvogur",
        "city_district": null,
        "city": "Reykjavik",
        "state": null,
        "postcode": "112",
        "country": "Iceland",
        "country_code": "is"
      },
      "address": "Kelduleið, Reykjavík, Iceland"
    },
    {
      "lat": 64.10759080501768,
      "lon": -21.839556391607044,
      "geoinfo": {
        "display_name": "19, Réttarbakki, Bakkar, Breiðholt, Reykjavik, Capital Region, 109, Iceland",
        "road": "Réttarbakki",
        "house_number": "19",
        "neighbourhood": "Bakkar",
        "suburb": "Breiðholt",
        "city_district": null,
        "city": "Reykjavik",
        "state": null,
        "postcode": "109",
        "country": "Iceland",
        "country_code": "is"
      },
      "address": "19 Réttarbakki, Reykjavík, Iceland"
    },
    {
      "lat": 64.12845433179959,
      "lon": -21.937657418753137,
      "geoinfo": {
        "display_name": "Reykjavik Airport, Nauthólsvegur, Miðborg, Reykjavik, Capital Region, 102, Iceland",
        "road": "Nauthólsvegur",
        "house_number": null,
        "neighbourhood": null,
        "suburb": "Miðborg",
        "city_district": null,
        "city": "Reykjavik",
        "state": null,
        "postcode": "102",
        "country": "Iceland",
        "country_code": "is"
      },
      "address": "531, Nauthólsvegur, 102 Reykjavík, Iceland"
    },
    {
      "lat": 64.17632214651869,
      "lon": -21.87375633586485,
      "geoinfo": {
        "display_name": "HMCS Skeena, Skarfabakki, Sundahöfn, Laugardalur, Reykjavik, Capital Region, 104, Iceland",
        "road": "Skarfabakki",
        "house_number": null,
        "neighbourhood": null,
        "suburb": "Laugardalur",
        "city_district": null,
        "city": "Reykjavik",
        "state": null,
        "postcode": "104",
        "country": "Iceland",
        "country_code": "is"
      },
      "address": "361, Skarfabakki, 104 Reykjavík, Iceland"
    },
    {
      "lat": 64.12101951393761,
      "lon": -21.859717772031956,
      "geoinfo": {
        "display_name": "Bústaðakirkja, 25, Tunguvegur, Gerði, Háaleiti og Bústaðir, Reykjavik, Capital Region, 108, Iceland",
        "road": "Tunguvegur",
        "house_number": "25",
        "neighbourhood": "Gerði",
        "suburb": "Háaleiti og Bústaðir",
        "city_district": null,
        "city": "Reykjavik",
        "state": null,
        "postcode": "108",
        "country": "Iceland",
        "country_code": "is"
      },
      "address": "Bústaðakirkja, 25, Tunguvegur, Gerði, Háaleiti og Bústaðir, Reykjavik, Capital Region, 108, Iceland"
    },
    {
      "lat": 64.16780224228125,
      "lon": -21.86522230036123,
      "geoinfo": {
        "display_name": "Ankeri - 7. apríl 1906, Skarfabakki, Sundahöfn, Laugardalur, Reykjavik, Capital Region, 104, Iceland",
        "road": "Skarfabakki",
        "house_number": null,
        "neighbourhood": null,
        "suburb": "Laugardalur",
        "city_district": null,
        "city": "Reykjavik",
        "state": null,
        "postcode": "104",
        "country": "Iceland",
        "country_code": "is"
      },
      "address": "119, Skarfabakki, 104 Reykjavík, Iceland"
    },
    {
      "lat": 64.13600086696479,
      "lon": -21.842519572372872,
      "geoinfo": {
        "display_name": "10A, Kjalarvogur, Sundahöfn, Laugardalur, Reykjavik, Capital Region, 104, Iceland",
        "road": "Kjalarvogur",
        "house_number": "10A",
        "neighbourhood": null,
        "suburb": "Laugardalur",
        "city_district": null,
        "city": "Reykjavik",
        "state": null,
        "postcode": "104",
        "country": "Iceland",
        "country_code": "is"
      },
      "address": "10A, Kjalarvogur, 104 Reykjavík, Iceland"
    },
    {
      "lat": 64.13995369527923,
      "lon": -21.809002810527247,
      "geoinfo": {
        "display_name": "15, Stakkhamrar, Hamrar, Grafarvogur, Reykjavik, Capital Region, 112, Iceland",
        "road": "Stakkhamrar",
        "house_number": "15",
        "neighbourhood": "Hamrar",
        "suburb": "Grafarvogur",
        "city_district": null,
        "city": "Reykjavik",
        "state": null,
        "postcode": "112",
        "country": "Iceland",
        "country_code": "is"
      },
      "address": "15, Stakkhamrar, 112 Reykjavík, Iceland"
    },
    {
      "lat": 64.12351851519384,
      "lon": -21.802323303422273,
      "geoinfo": {
        "display_name": "Grjótháls, Hálsar, Árbær, Reykjavik, Capital Region, 110, Iceland",
        "road": "Grjótháls",
        "house_number": null,
        "neighbourhood": "Hálsar",
        "suburb": "Árbær",
        "city_district": null,
        "city": "Reykjavik",
        "state": null,
        "postcode": "110",
        "country": "Iceland",
        "country_code": "is"
      },
      "address": "631, Grjótháls, 110 Reykjavík, Iceland"
    },
    {
      "lat": 64.1194141655985,
      "lon": -21.87453603483983,
      "geoinfo": {
        "display_name": "5, Goðaland, Fossvogur, Háaleiti og Bústaðir, Reykjavik, Capital Region, 108, Iceland",
        "road": "Goðaland",
        "house_number": "5",
        "neighbourhood": "Fossvogur",
        "suburb": "Háaleiti og Bústaðir",
        "city_district": null,
        "city": "Reykjavik",
        "state": null,
        "postcode": "108",
        "country": "Iceland",
        "country_code": "is"
      },
      "address": "5, Goðaland, Fossvogur, Háaleiti og Bústaðir, Reykjavik, Capital Region, 108, Iceland"
    },
    {
      "lat": 64.12164787294371,
      "lon": -21.8199593571789,
      "geoinfo": {
        "display_name": "17, Bleikjukvísl, Ártúnsholt, Árbær, Reykjavik, Capital Region, 110, Iceland",
        "road": "Bleikjukvísl",
        "house_number": "17",
        "neighbourhood": "Ártúnsholt",
        "suburb": "Árbær",
        "city_district": null,
        "city": "Reykjavik",
        "state": null,
        "postcode": "110",
        "country": "Iceland",
        "country_code": "is"
      },
      "address": "17, Bleikjukvísl, 110 Reykjavík, Iceland"
    },
    {
      "lat": 64.1266155564049,
      "lon": -21.809253445278948,
      "geoinfo": {
        "display_name": "9d, Höfðabakki, Höfðar, Grafarvogur, Reykjavik, Capital Region, 110, Iceland",
        "road": "Höfðabakki",
        "house_number": "9d",
        "neighbourhood": "Höfðar",
        "suburb": "Grafarvogur",
        "city_district": null,
        "city": "Reykjavik",
        "state": null,
        "postcode": "110",
        "country": "Iceland",
        "country_code": "is"
      },
      "address": "9d, Höfðabakki, 110 Reykjavík, Iceland"
    },
    {
      "lat": 64.15968514670465,
      "lon": -21.93579779845261,
      "geoinfo": {
        "display_name": "Eyjarslóð, Grandi, Vesturbær, Reykjavik, Capital Region, 101, Iceland",
        "road": "Eyjarslóð",
        "house_number": null,
        "neighbourhood": null,
        "suburb": "Vesturbær",
        "city_district": null,
        "city": "Reykjavik",
        "state": null,
        "postcode": "101",
        "country": "Iceland",
        "country_code": "is"
      },
      "address": "822, Eyjarslóð, 101 Reykjavík, Iceland"
    },
    {
      "lat": 64.15387811563407,
      "lon": -21.826452793022725,
      "geoinfo": {
        "display_name": "Gufunesvegur, Gufunes, Grafarvogur, Reykjavik, Capital Region, 112, Iceland",
        "road": "Gufunesvegur",
        "house_number": null,
        "neighbourhood": null,
        "suburb": "Grafarvogur",
        "city_district": null,
        "city": "Reykjavik",
        "state": null,
        "postcode": "112",
        "country": "Iceland",
        "country_code": "is"
      },
      "address": "628, Gufunesvegur, 112 Reykjavík, Iceland"
    },
    {
      "lat": 64.13393026930409,
      "lon": -21.956830850884373,
      "geoinfo": {
        "display_name": "Þorragata, Litli Skerjafjörður, Miðborg, Reykjavik, Capital Region, 102, Iceland",
        "road": "Þorragata",
        "house_number": null,
        "neighbourhood": "Litli Skerjafjörður",
        "suburb": "Miðborg",
        "city_district": null,
        "city": "Reykjavik",
        "state": null,
        "postcode": "102",
        "country": "Iceland",
        "country_code": "is"
      },
      "address": "178, Þorragata, 102 Reykjavík, Iceland"
    },
    {
      "lat": 64.15052060560639,
      "lon": -21.93529211357464,
      "geoinfo": {
        "display_name": "Faxagarður, Austurbakki, Miðborg, Reykjavik, Capital Region, 101, Iceland",
        "road": "Austurbakki",
        "house_number": null,
        "neighbourhood": null,
        "suburb": "Miðborg",
        "city_district": null,
        "city": "Reykjavik",
        "state": null,
        "postcode": "101",
        "country": "Iceland",
        "country_code": "is"
      },
      "address": "738, Austurbakki, 101 Reykjavík, Iceland"
    }
  ],
  "updated_at": "2025-10-19T05:18:30.351043+00:00",
  "_kind": "geo_samples"
}