{
  "country_code": "EC",
  "country": "Ecuador",
  "city": "Esmeraldas",
  "geonameid": 3657990,
  "target_addresses": 7,
  "samples": [
    {
      "lat": 0.9776354471200697,
      "lon": -79.64947672360167,
      "geoinfo": {
        "display_name": "Avenida de los Puentes, Esmeraldas, 080108, Ecuador",
        "road": "Avenida de los Puentes",
        "house_number": null,
        "neighbourhood": null,
        "suburb": null,
        "city_district": null,
        "city": "Esmeraldas",
        "state": "Esmeraldas",
        "postcode": "080108",
        "country": "Ecuador",
        "country_code": "ec"
      },
      "address": "Avenida de los Puentes, Esmeraldas, Esmeraldas, Ecuador"
    },
    {
      "lat": 0.9389057424691899,
      "lon": -79.6885570548651,
      "geoinfo": {
        "display_name": "Avenida Refinería, Lucha de los Pobres, Esmeraldas, 080401, Ecuador",
        "road": "Avenida Refinería",
        "house_number": null,
        "neighbourhood": "Lucha de los Pobres",
        "suburb": null,
        "city_district": null,
        "city": "Esmeraldas",
        "state": "Esmeraldas",
        "postcode": "080401",
        "country": "Ecuador",
        "country_code": "ec"
      },
      "address": "Avenida Refinería, Esmeraldas, Esmeraldas, Ecuador"
    },
    {
      "lat": 0.9179529887053914,
      "lon": -79.66102015588962,
      "geoinfo": {
        "display_name": "Carretera Virgen del Camino, Esmeraldas, 080117, Ecuador",
        "road": "Carretera Virgen del Camino",
        "house_number": null,
        "neighbourhood": null,
        "suburb": null,
        "city_district": null,
        "city": "Esmeraldas",
        "state": "Esmeraldas",
        "postcode": "080117",
        "country": "Ecuador",
        "country_code": "ec"
      },
      "address": "363, Carretera Virgen del Camino, Esmeraldas, 080117, Ecuador"
    },
    {
      "lat": 0.9916585838526104,
      "lon": -79.62764861118377,
      "geoinfo": {
        "display_name": "Las Piedras, Tachina, Esmeraldas, 080108, Ecuador",
        "road": null,
        "house_number": null,
        "neighbourhood": null,
        "suburb": null,
        "city_district": null,
        "city": "Tachina",
        "state": "Esmeraldas",
        "postcode": "080108",
        "country": "Ecuador",
        "country_code": "ec"
      },
      "address": "587, Las Piedras, Tachina, Esmeraldas, 080108, Ecuador"
    },
    {
      "lat": 0.9999799576502844,
      "lon": -79.65174703251854,
      "geoinfo": {
        "display_name": "Punta Coquitos, Puerto Rico, Las Palmas, Esmeraldas, 080107, Ecuador",
        "road": "Puerto Rico",
        "house_number": null,
        "neighbourhood": "Las Palmas",
        "suburb": null,
        "city_district": null,
        "city": "Esmeraldas",
        "state": "Esmeraldas",
        "postcode": "080107",
        "country": "Ecuador",
        "country_code": "ec"
      },
      "address": "786, Puerto Rico, Esmeraldas, 080107 Esmeraldas, Ecuador"
    },
    {
      "lat": 0.9724253453634658,
      "lon": -79.63113026677347,
      "geoinfo": {
        "display_name": "Tachina, Esmeraldas, 181677, Ecuador",
        "road": null,
        "house_number": null,
        "neighbourhood": null,
        "suburb": null,
        "city_district": null,
        "city": "Tachina",
        "state": "Esmeraldas",
        "postcode": "181677",
        "country": "Ecuador",
        "country_code": "ec"
      },
      "address": "246, Tachina, Esmeraldas, 181677, Ecuador"
    },
    {
      "lat": 0.9470038429051789,
      "lon": -79.65301453975752,
      "geoinfo": {
        "display_name": "Mina de Piedra, Esmeraldas, 181677, Ecuador",
        "road": "Mina de Piedra",
        "house_number": null,
        "neighbourhood": null,
        "suburb": null,
        "city_district": null,
        "city": "Esmeraldas",
        "state": "Esmeraldas",
        "postcode": "181677",
        "country": "Ecuador",
        "country_code": "ec"
      },
      "address": "915, Mina de Piedra, Esmeraldas, 181677, Ecuador"
    }
  ],
  "updated_at": "2025-10-19T04:13:26.217684+00:00",
  "_kind": "geo_samples"
}