{
  "country_code": "EC",
  "country": "Ecuador",
  "city": "La Maná",
  "geonameid": 3655117,
  "target_addresses": 2,
  "samples": [
    {
      "lat": -0.9177272281935759,
      "lon": -79.23824237761832,
      "geoinfo": {
        "display_name": "San Juan de Trigoloma, La Maná, Cotopaxi, 050202, Ecuador",
        "road": null,
        "house_number": null,
        "neighbourhood": null,
        "suburb": null,
        "city_district": null,
        "city": "La Maná",
        "state": "Cotopaxi",
        "postcode": "050202",
        "country": "Ecuador",
        "country_code": "ec"
      },
      "address": "La Maná, Cotopaxi, Ecuador"
    },
    {
      "lat": -0.9555168553661194,
      "lon": -79.2383360458543,
      "geoinfo": {
        "display_name": "Cotoáxi, La Maná, Cotopaxi, 050202, Ecuador",
        "road": "Cotoáxi",
        "house_number": null,
        "neighbourhood": null,
        "suburb": null,
        "city_district": null,
        "city": "La Maná",
        "state": "Cotopaxi",
        "postcode": "050202",
        "country": "Ecuador",
        "country_code": "ec"
      },
      "address": "Cotoáxi, La Maná, Cotopaxi, Ecuador"
    },
    {
      "lat": -0.9817352125204492,
      "lon": -79.23044175982865,
      "geoinfo": {
        "display_name": "La Maná, Cotopaxi, 050202, Ecuador",
        "road": null,
        "house_number": null,
        "neighbourhood": null,
        "suburb": null,
        "city_district": null,
        "city": "La Maná",
        "state": "Cotopaxi",
        "postcode": "050202",
        "country": "Ecuador",
        "country_code": "ec"
      },
      "address": "709, La Maná, Cotopaxi, 050202, Ecuador"
    },
    {
      "lat": -0.9331558136961132,
      "lon": -79.25845166565401,
      "geoinfo": {
        "display_name": "Macuchi, San Pablo de la Cruz, El Toquillal, La Maná, Cotopaxi, 050202, Ecuador",
        "road": null,
        "house_number": null,
        "neighbourhood": "Macuchi",
        "suburb": null,
        "city_district": null,
        "city": "La Maná",
        "state": "Cotopaxi",
        "postcode": "050202",
        "country": "Ecuador",
        "country_code": "ec"
      },
      "address": "422, Macuchi, La Maná, 050202 Cotopaxi, Ecuador"
    }
  ],
  "updated_at": "2025-10-19T04:37:35.361251+00:00",
  "_kind": "geo_samples"
}