{
  "country_code": "EC",
  "country": "Ecuador",
  "city": "Latacunga",
  "geonameid": 3654870,
  "target_addresses": 7,
  "samples": [
    {
      "lat": -0.8938994401354597,
      "lon": -78.59915709264394,
      "geoinfo": {
        "display_name": "Villaflora, Juan Montalvo, Latacunga, Cotopaxi, 050105, Ecuador",
        "road": null,
        "house_number": null,
        "neighbourhood": null,
        "suburb": null,
        "city_district": "Juan Montalvo",
        "city": "Latacunga",
        "state": "Cotopaxi",
        "postcode": "050105",
        "country": "Ecuador",
        "country_code": "ec"
      },
      "address": "Juan Montalvo, Latacunga, Cotopaxi, Ecuador"
    },
    {
      "lat": -0.9582230850513201,
      "lon": -78.63149087553296,
      "geoinfo": {
        "display_name": "San Juan, Eloy Alfaro, Latacunga, Cotopaxi, 050107, Ecuador",
        "road": null,
        "house_number": null,
        "neighbourhood": null,
        "suburb": null,
        "city_district": "Eloy Alfaro",
        "city": "Latacunga",
        "state": "Cotopaxi",
        "postcode": "050107",
        "country": "Ecuador",
        "country_code": "ec"
      },
      "address": "Eloy Alfaro, Latacunga, Cotopaxi, Ecuador"
    },
    {
      "lat": -0.9676426288164429,
      "lon": -78.6427778022356,
      "geoinfo": {
        "display_name": "Chan, Eloy Alfaro, Latacunga, Cotopaxi, 050107, Ecuador",
        "road": null,
        "house_number": null,
        "neighbourhood": null,
        "suburb": null,
        "city_district": "Eloy Alfaro",
        "city": "Latacunga",
        "state": "Cotopaxi",
        "postcode": "050107",
        "country": "Ecuador",
        "country_code": "ec"
      },
      "address": "292, Chan, Eloy Alfaro, Latacunga, Cotopaxi, 050107, Ecuador"
    },
    {
      "lat": -0.9462555321487851,
      "lon": -78.59712385557833,
      "geoinfo": {
        "display_name": "Putzalahua, Tapalan, Ignacio Flores, Latacunga, Cotopaxi, 050102, Ecuador",
        "road": "Putzalahua",
        "house_number": null,
        "neighbourhood": null,
        "suburb": null,
        "city_district": "Ignacio Flores",
        "city": "Latacunga",
        "state": "Cotopaxi",
        "postcode": "050102",
        "country": "Ecuador",
        "country_code": "ec"
      },
      "address": "824, Putzalahua, Tapalan, Ignacio Flores, Latacunga, Cotopaxi, 050102, Ecuador"
    },
    {
      "lat": -0.9179557888676683,
      "lon": -78.62689839727646,
      "geoinfo": {
        "display_name": "Avenida Eloy Alfaro, Eloy Alfaro, Latacunga, Cotopaxi, 050105, Ecuador",
        "road": "Avenida Eloy Alfaro",
        "house_number": null,
        "neighbourhood": null,
        "suburb": null,
        "city_district": "Eloy Alfaro",
        "city": "Latacunga",
        "state": "Cotopaxi",
        "postcode": "050105",
        "country": "Ecuador",
        "country_code": "ec"
      },
      "address": "798, Avenida Eloy Alfaro, Eloy Alfaro, Latacunga, Cotopaxi, 050105, Ecuador"
    },
    {
      "lat": -0.9627581358519377,
      "lon": -78.61206682300345,
      "geoinfo": {
        "display_name": "Miguel Iturralde Jaramillo, Ignacio Flores, Latacunga, Cotopaxi, 050106, Ecuador",
        "road": "Miguel Iturralde Jaramillo",
        "house_number": null,
        "neighbourhood": null,
        "suburb": null,
        "city_district": "Ignacio Flores",
        "city": "Latacunga",
        "state": "Cotopaxi",
        "postcode": "050106",
        "country": "Ecuador",
        "country_code": "ec"
      },
      "address": "650, Miguel Iturralde Jaramillo, Ignacio Flores, Latacunga, Cotopaxi, 050106, Ecuador"
    },
    {
      "lat": -0.9220756381513346,
      "lon": -78.60550399480799,
      "geoinfo": {
        "display_name": "San Martín, Juan Montalvo, Latacunga, Cotopaxi, 050503, Ecuador",
        "road": null,
        "house_number": null,
        "neighbourhood": null,
        "suburb": null,
        "city_district": "Juan Montalvo",
        "city": "Latacunga",
        "state": "Cotopaxi",
        "postcode": "050503",
        "country": "Ecuador",
        "country_code": "ec"
      },
      "address": "862, San Martín, Juan Montalvo, Latacunga, Cotopaxi, 050503, Ecuador"
    }
  ],
  "updated_at": "2025-10-19T04:12:33.046713+00:00",
  "_kind": "geo_samples"
}