{
  "country_code": "EC",
  "country": "Ecuador",
  "city": "Milagro",
  "geonameid": 3654215,
  "target_addresses": 2,
  "samples": [
    {
      "lat": -2.1172384995806546,
      "lon": -79.61421478911518,
      "geoinfo": {
        "display_name": "Chobo, Milagro, Guayas, 091703, Ecuador",
        "road": null,
        "house_number": null,
        "neighbourhood": null,
        "suburb": null,
        "city_district": null,
        "city": "Chobo",
        "state": "Guayas",
        "postcode": "091703",
        "country": "Ecuador",
        "country_code": "ec"
      },
      "address": "Milagro, Guayas, Ecuador"
    },
    {
      "lat": -2.140885676798057,
      "lon": -79.57588701300277,
      "geoinfo": {
        "display_name": "Doctor Jorge Perez Concha, Milagro, Guayas, 091711, Ecuador",
        "road": "Doctor Jorge Perez Concha",
        "house_number": null,
        "neighbourhood": null,
        "suburb": null,
        "city_district": null,
        "city": "Milagro",
        "state": "Guayas",
        "postcode": "091711",
        "country": "Ecuador",
        "country_code": "ec"
      },
      "address": "Doctor Jorge Perez Concha, Milagro, Guayas, Ecuador"
    },
    {
      "lat": -2.1667809317043525,
      "lon": -79.56964697217636,
      "geoinfo": {
        "display_name": "Milagro, Guayas, 091705, Ecuador",
        "road": null,
        "house_number": null,
        "neighbourhood": null,
        "suburb": null,
        "city_district": null,
        "city": "Milagro",
        "state": "Guayas",
        "postcode": "091705",
        "country": "Ecuador",
        "country_code": "ec"
      },
      "address": "208, Milagro, Guayas, 091705, Ecuador"
    },
    {
      "lat": -2.1124556502942595,
      "lon": -79.58829974708037,
      "geoinfo": {
        "display_name": "Chirijos, La Granja, Milagro, Guayas, 091703, Ecuador",
        "road": null,
        "house_number": null,
        "neighbourhood": null,
        "suburb": null,
        "city_district": null,
        "city": "Milagro",
        "state": "Guayas",
        "postcode": "091703",
        "country": "Ecuador",
        "country_code": "ec"
      },
      "address": "065, Chirijos, La Granja, Milagro, Guayas, 091703, Ecuador"
    }
  ],
  "updated_at": "2025-10-19T03:56:17.114385+00:00",
  "_kind": "geo_samples"
}