{
  "country_code": "EC",
  "country": "Ecuador",
  "city": "Montecristi",
  "geonameid": 3654055,
  "target_addresses": 2,
  "samples": [
    {
      "lat": -1.0527090702247828,
      "lon": -80.67643698533733,
      "geoinfo": {
        "display_name": "El Chorillo, Montecristi, Manabí, 130219, Ecuador",
        "road": null,
        "house_number": null,
        "neighbourhood": null,
        "suburb": null,
        "city_district": null,
        "city": "Montecristi",
        "state": "Manabí",
        "postcode": "130219",
        "country": "Ecuador",
        "country_code": "ec"
      },
      "address": "Montecristi, Manabí, Ecuador"
    },
    {
      "lat": -1.0715102002575267,
      "lon": -80.66475849362669,
      "geoinfo": {
        "display_name": "Calle 3, Toalla Chica, Bajo de Pechiche, Montecristi, Manabí, 130219, Ecuador",
        "road": "Calle 3",
        "house_number": null,
        "neighbourhood": null,
        "suburb": null,
        "city_district": null,
        "city": "Montecristi",
        "state": "Manabí",
        "postcode": "130219",
        "country": "Ecuador",
        "country_code": "ec"
      },
      "address": "Calle 3, Montecristi, Manabí, Ecuador"
    },
    {
      "lat": -1.0417222951720269,
      "lon": -80.66975396063913,
      "geoinfo": {
        "display_name": "Montecristi, Manabí, 130219, Ecuador",
        "road": null,
        "house_number": null,
        "neighbourhood": null,
        "suburb": null,
        "city_district": null,
        "city": "Montecristi",
        "state": "Manabí",
        "postcode": "130219",
        "country": "Ecuador",
        "country_code": "ec"
      },
      "address": "239, Montecristi, Manabí, 130219, Ecuador"
    },
    {
      "lat": -1.010621729402426,
      "lon": -80.6326766989083,
      "geoinfo": {
        "display_name": "Los Pozos, Montecristi, Manabí, Ecuador",
        "road": null,
        "house_number": null,
        "neighbourhood": null,
        "suburb": null,
        "city_district": null,
        "city": "Montecristi",
        "state": "Manabí",
        "postcode": null,
        "country": "Ecuador",
        "country_code": "ec"
      },
      "address": "774, Los Pozos, Montecristi, 97524 Manabí, Ecuador"
    }
  ],
  "updated_at": "2025-10-19T03:56:10.030794+00:00",
  "_kind": "geo_samples"
}