{
  "country_code": "EC",
  "country": "Ecuador",
  "city": "Pasaje",
  "geonameid": 3653403,
  "target_addresses": 2,
  "samples": [
    {
      "lat": -3.315054486541785,
      "lon": -79.78147955273076,
      "geoinfo": {
        "display_name": "Guabo Playa, Progreso, Pasaje, El Oro, 070105, Ecuador",
        "road": null,
        "house_number": null,
        "neighbourhood": null,
        "suburb": null,
        "city_district": null,
        "city": "Progreso",
        "state": "El Oro",
        "postcode": "070105",
        "country": "Ecuador",
        "country_code": "ec"
      },
      "address": "Pasaje, El Oro, Ecuador"
    },
    {
      "lat": -3.2920430691753673,
      "lon": -79.82216615090817,
      "geoinfo": {
        "display_name": "Calle 15 - 08, Cañaquemada, Pasaje, El Oro, 070105, Ecuador",
        "road": "Calle 15 - 08",
        "house_number": null,
        "neighbourhood": null,
        "suburb": null,
        "city_district": null,
        "city": "Cañaquemada",
        "state": "El Oro",
        "postcode": "070105",
        "country": "Ecuador",
        "country_code": "ec"
      },
      "address": "Calle 15 - 08, Pasaje, El Oro, Ecuador"
    },
    {
      "lat": -3.321872091600109,
      "lon": -79.79270430976837,
      "geoinfo": {
        "display_name": "Brisas del Jubones, Pasaje, El Oro, 070105, Ecuador",
        "road": null,
        "house_number": null,
        "neighbourhood": "Brisas del Jubones",
        "suburb": null,
        "city_district": null,
        "city": "Pasaje",
        "state": "El Oro",
        "postcode": "070105",
        "country": "Ecuador",
        "country_code": "ec"
      },
      "address": "051, Brisas del Jubones, Pasaje, El Oro, 070105, Ecuador"
    },
    {
      "lat": -3.3464306685799348,
      "lon": -79.78500919589987,
      "geoinfo": {
        "display_name": "Vía a Sacachispas, Loma de Franco, Pasaje, El Oro, 070903, Ecuador",
        "road": "Vía a Sacachispas",
        "house_number": null,
        "neighbourhood": "Loma de Franco",
        "suburb": null,
        "city_district": null,
        "city": "Pasaje",
        "state": "El Oro",
        "postcode": "070903",
        "country": "Ecuador",
        "country_code": "ec"
      },
      "address": "773, Vía a Sacachispas, Loma de Franco, Pasaje, El Oro, 070903, Ecuador"
    }
  ],
  "updated_at": "2025-10-19T02:01:41.788197+00:00",
  "_kind": "geo_samples"
}