{
  "country_code": "EC",
  "country": "Ecuador",
  "city": "Piñas",
  "geonameid": 3653130,
  "target_addresses": 7,
  "samples": [
    {
      "lat": -3.67545115736364,
      "lon": -79.64375207552742,
      "geoinfo": {
        "display_name": "Calera Chica, Piñas, El Oro, 070301, Ecuador",
        "road": null,
        "house_number": null,
        "neighbourhood": null,
        "suburb": null,
        "city_district": null,
        "city": "Piñas",
        "state": "El Oro",
        "postcode": "070301",
        "country": "Ecuador",
        "country_code": "ec"
      },
      "address": "Piñas, El Oro, Ecuador"
    },
    {
      "lat": -3.6659182209811862,
      "lon": -79.69200354278514,
      "geoinfo": {
        "display_name": "Avendia 8 de Noviembre, Piñas Grandes, Piñas, El Oro, Ecuador",
        "road": "Avendia 8 de Noviembre",
        "house_number": null,
        "neighbourhood": null,
        "suburb": null,
        "city_district": null,
        "city": "Piñas",
        "state": "El Oro",
        "postcode": null,
        "country": "Ecuador",
        "country_code": "ec"
      },
      "address": "Avendia 8 de Noviembre, Piñas, El Oro, Ecuador"
    },
    {
      "lat": -3.7149899073613275,
      "lon": -79.69317759149052,
      "geoinfo": {
        "display_name": "Curitejo, Piñas, San Roque (Ambrosio Maldonado), Piñas, El Oro, 070401, Ecuador",
        "road": null,
        "house_number": null,
        "neighbourhood": null,
        "suburb": null,
        "city_district": null,
        "city": "Piñas",
        "state": "El Oro",
        "postcode": "070401",
        "country": "Ecuador",
        "country_code": "ec"
      },
      "address": "553, Curitejo, Piñas, San Roque (Ambrosio Maldonado), Piñas, El Oro, 070401, Ecuador"
    },
    {
      "lat": -3.6528469695141372,
      "lon": -79.66391258450851,
      "geoinfo": {
        "display_name": "Bolivar Madero, Calera Chica, Piñas, El Oro, Ecuador",
        "road": "Bolivar Madero",
        "house_number": null,
        "neighbourhood": null,
        "suburb": null,
        "city_district": null,
        "city": "Piñas",
        "state": "El Oro",
        "postcode": null,
        "country": "Ecuador",
        "country_code": "ec"
      },
      "address": "628, Bolivar Madero, Calera Chica, Piñas, 85169 El Oro, Ecuador"
    },
    {
      "lat": -3.6482252227550473,
      "lon": -79.65715444544117,
      "geoinfo": {
        "display_name": "Calera Chica, Piñas, El Oro, Ecuador",
        "road": null,
        "house_number": null,
        "neighbourhood": null,
        "suburb": null,
        "city_district": null,
        "city": "Piñas",
        "state": "El Oro",
        "postcode": null,
        "country": "Ecuador",
        "country_code": "ec"
      },
      "address": "540, Calera Chica, Piñas, 56528 El Oro, Ecuador"
    },
    {
      "lat": -3.7074093119738833,
      "lon": -79.68800822071984,
      "geoinfo": {
        "display_name": "Curitejo, Piñas, San Roque (Ambrosio Maldonado), Piñas, El Oro, 070401, Ecuador",
        "road": null,
        "house_number": null,
        "neighbourhood": null,
        "suburb": null,
        "city_district": null,
        "city": "Piñas",
        "state": "El Oro",
        "postcode": "070401",
        "country": "Ecuador",
        "country_code": "ec"
      },
      "address": "855, Curitejo, Piñas, San Roque (Ambrosio Maldonado), Piñas, El Oro, 070401, Ecuador"
    },
    {
      "lat": -3.675719874792144,
      "lon": -79.71779636412897,
      "geoinfo": {
        "display_name": "La Raya, Piñas, Moromoro (Cab. en el Vado), Piñas, El Oro, Ecuador",
        "road": null,
        "house_number": null,
        "neighbourhood": null,
        "suburb": null,
        "city_district": null,
        "city": "Piñas",
        "state": "El Oro",
        "postcode": null,
        "country": "Ecuador",
        "country_code": "ec"
      },
      "address": "787, La Raya, Piñas, Moromoro (Cab. en el Vado), Piñas, 04964 El Oro, Ecuador"
    }
  ],
  "updated_at": "2025-10-19T04:12:08.931541+00:00",
  "_kind": "geo_samples"
}