{
  "country_code": "EC",
  "country": "Ecuador",
  "city": "Puerto Francisco de Orellana",
  "geonameid": 3652743,
  "target_addresses": 2,
  "samples": [
    {
      "lat": -0.490539998608567,
      "lon": -77.0041215354599,
      "geoinfo": {
        "display_name": "Via los Zorros, La Conde, Coca, Garc√≠a Moreno, Francisco de Orellana, Orellana, 220205, Ecuador",
        "road": "Via los Zorros",
        "house_number": null,
        "neighbourhood": null,
        "suburb": null,
        "city_district": null,
        "city": "Coca",
        "state": "Orellana",
        "postcode": "220205",
        "country": "Ecuador",
        "country_code": "ec"
      },
      "address": "Via los Zorros, Puerto Francisco de Orellana, Orellana, Ecuador"
    },
    {
      "lat": -0.45149391336383116,
      "lon": -77.00512515260654,
      "geoinfo": {
        "display_name": "Barrio Nuevo Coca, Coca, Francisco de Orellana, Orellana, 220201, Ecuador",
        "road": null,
        "house_number": null,
        "neighbourhood": "Barrio Nuevo Coca",
        "suburb": null,
        "city_district": null,
        "city": "Coca",
        "state": "Orellana",
        "postcode": "220201",
        "country": "Ecuador",
        "country_code": "ec"
      },
      "address": "Barrio Nuevo Coca, Puerto Francisco de Orellana, Orellana, Ecuador"
    },
    {
      "lat": -0.4328270010599984,
      "lon": -76.9804553983625,
      "geoinfo": {
        "display_name": "Barrio Tiwinza, Coca, Francisco de Orellana, Orellana, 220150, Ecuador",
        "road": null,
        "house_number": null,
        "neighbourhood": "Barrio Tiwinza",
        "suburb": null,
        "city_district": null,
        "city": "Coca",
        "state": "Orellana",
        "postcode": "220150",
        "country": "Ecuador",
        "country_code": "ec"
      },
      "address": "247, Barrio Tiwinza, Coca, Francisco de Orellana, Orellana, 220150, Ecuador"
    },
    {
      "lat": -0.4173743790341369,
      "lon": -76.97933696606928,
      "geoinfo": {
        "display_name": "Domingo Playa, Coca, Francisco de Orellana, Orellana, 220206, Ecuador",
        "road": null,
        "house_number": null,
        "neighbourhood": null,
        "suburb": null,
        "city_district": null,
        "city": "Coca",
        "state": "Orellana",
        "postcode": "220206",
        "country": "Ecuador",
        "country_code": "ec"
      },
      "address": "908, Domingo Playa, Coca, Francisco de Orellana, Orellana, 220206, Ecuador"
    }
  ],
  "updated_at": "2025-10-19T02:01:34.934165+00:00",
  "_kind": "geo_samples"
}