{
  "country_code": "EC",
  "country": "Ecuador",
  "city": "Quevedo",
  "geonameid": 3652567,
  "target_addresses": 2,
  "samples": [
    {
      "lat": -1.0499096750213393,
      "lon": -79.45345162819196,
      "geoinfo": {
        "display_name": "Calle 44, Chapulos, San Camilo, LOT. KARINA Mz. \"B\", Quevedo, Los Ríos, 120304, Ecuador",
        "road": "Calle 44",
        "house_number": null,
        "neighbourhood": null,
        "suburb": "San Camilo",
        "city_district": null,
        "city": "Quevedo",
        "state": "Los Ríos",
        "postcode": "120304",
        "country": "Ecuador",
        "country_code": "ec"
      },
      "address": "Calle 44, Quevedo, Los Ríos, Ecuador"
    },
    {
      "lat": -1.0074544094301352,
      "lon": -79.46083761312516,
      "geoinfo": {
        "display_name": "Tienda Dos Hermanos, 711, Décima Tercera, Playa Grande, Quevedo, Los Ríos, 120302, Ecuador",
        "road": "Décima Tercera",
        "house_number": "711",
        "neighbourhood": null,
        "suburb": null,
        "city_district": null,
        "city": "Quevedo",
        "state": "Los Ríos",
        "postcode": "120302",
        "country": "Ecuador",
        "country_code": "ec"
      },
      "address": "711 Décima Tercera, Quevedo, Los Ríos, Ecuador"
    },
    {
      "lat": -1.0054105155117934,
      "lon": -79.43604408508625,
      "geoinfo": {
        "display_name": "El Pital 2, San Cristobal, Quevedo, Los Ríos, 120302, Ecuador",
        "road": null,
        "house_number": null,
        "neighbourhood": null,
        "suburb": "San Cristobal",
        "city_district": null,
        "city": "Quevedo",
        "state": "Los Ríos",
        "postcode": "120302",
        "country": "Ecuador",
        "country_code": "ec"
      },
      "address": "El Pital 2, San Cristobal, Quevedo, Los Ríos, 120302, Ecuador"
    },
    {
      "lat": -1.0551482499217801,
      "lon": -79.49594528032272,
      "geoinfo": {
        "display_name": "LOT. Los Sauces, Quevedo, Los Ríos, 120306, Ecuador",
        "road": null,
        "house_number": null,
        "neighbourhood": null,
        "suburb": null,
        "city_district": null,
        "city": "Quevedo",
        "state": "Los Ríos",
        "postcode": "120306",
        "country": "Ecuador",
        "country_code": "ec"
      },
      "address": "868, LOT. Los Sauces, Quevedo, Los Ríos, 120306, Ecuador"
    }
  ],
  "updated_at": "2025-10-19T04:36:43.054506+00:00",
  "_kind": "geo_samples"
}