{
  "country_code": "EC",
  "country": "Ecuador",
  "city": "Salinas",
  "geonameid": 3652100,
  "target_addresses": 7,
  "samples": [
    {
      "lat": -2.2113461444605504,
      "lon": -80.9712810606212,
      "geoinfo": {
        "display_name": "Jose Alberto Estrella, Evaristo Montenegro, Salinas, Santa Elena Province, 241550, Ecuador",
        "road": "Jose Alberto Estrella",
        "house_number": null,
        "neighbourhood": null,
        "suburb": null,
        "city_district": null,
        "city": "Salinas",
        "state": "Santa Elena Province",
        "postcode": "241550",
        "country": "Ecuador",
        "country_code": "ec"
      },
      "address": "Jose Alberto Estrella, Salinas, Santa Elena Province, Ecuador"
    },
    {
      "lat": -2.200660177122523,
      "lon": -80.93541828914229,
      "geoinfo": {
        "display_name": "Punta San Jacinto, Reales Tamarindos, Puerto Artesanal Pesquero - Santa Rosa, Salinas, Santa Elena Province, 240207, Ecuador",
        "road": null,
        "house_number": null,
        "neighbourhood": null,
        "suburb": "Puerto Artesanal Pesquero - Santa Rosa",
        "city_district": null,
        "city": "Salinas",
        "state": "Santa Elena Province",
        "postcode": "240207",
        "country": "Ecuador",
        "country_code": "ec"
      },
      "address": "Puerto Artesanal Pesquero - Santa Rosa, Salinas, Santa Elena Province, Ecuador"
    },
    {
      "lat": -2.2170455953753563,
      "lon": -80.95447548749456,
      "geoinfo": {
        "display_name": "Avenida 25 de Diciembre, Ciudadela Costa Azul - Las Gaviotas, Puerto Artesanal Pesquero - Santa Rosa, Salinas, Santa Elena Province, 240207, Ecuador",
        "road": "Avenida 25 de Diciembre",
        "house_number": null,
        "neighbourhood": null,
        "suburb": "Puerto Artesanal Pesquero - Santa Rosa",
        "city_district": null,
        "city": "Salinas",
        "state": "Santa Elena Province",
        "postcode": "240207",
        "country": "Ecuador",
        "country_code": "ec"
      },
      "address": "Avenida 25 de Diciembre, Ciudadela Costa Azul - Las Gaviotas, Puerto Artesanal Pesquero - Santa Rosa, Salinas, Santa Elena Province, 240207, Ecuador"
    },
    {
      "lat": -2.195737775550587,
      "lon": -80.94416242629077,
      "geoinfo": {
        "display_name": "Punta San Jacinto, Reales Tamarindos, Puerto Artesanal Pesquero - Santa Rosa, Salinas, Santa Elena Province, 240207, Ecuador",
        "road": null,
        "house_number": null,
        "neighbourhood": null,
        "suburb": "Puerto Artesanal Pesquero - Santa Rosa",
        "city_district": null,
        "city": "Salinas",
        "state": "Santa Elena Province",
        "postcode": "240207",
        "country": "Ecuador",
        "country_code": "ec"
      },
      "address": "388, Punta San Jacinto, Reales Tamarindos, Puerto Artesanal Pesquero - Santa Rosa, Salinas, Santa Elena Province, 240207, Ecuador"
    },
    {
      "lat": -2.235187699673233,
      "lon": -80.96106576611092,
      "geoinfo": {
        "display_name": "Agustin Febres Cordero, Carro Viteri, Puerto Artesanal Pesquero - Santa Rosa, Salinas, Santa Elena Province, 240207, Ecuador",
        "road": "Agustin Febres Cordero",
        "house_number": null,
        "neighbourhood": null,
        "suburb": "Puerto Artesanal Pesquero - Santa Rosa",
        "city_district": null,
        "city": "Salinas",
        "state": "Santa Elena Province",
        "postcode": "240207",
        "country": "Ecuador",
        "country_code": "ec"
      },
      "address": "845, Agustin Febres Cordero, Carro Viteri, Puerto Artesanal Pesquero - Santa Rosa, Salinas, Santa Elena Province, 240207, Ecuador"
    },
    {
      "lat": -2.218895563527097,
      "lon": -80.94640118085975,
      "geoinfo": {
        "display_name": "Avenida Carlos Espinoza Larrea, Salinas, Parroquia José Luis Tamayo, Salinas, Santa Elena Province, 240207, Ecuador",
        "road": "Avenida Carlos Espinoza Larrea",
        "house_number": null,
        "neighbourhood": null,
        "suburb": null,
        "city_district": null,
        "city": "Salinas",
        "state": "Santa Elena Province",
        "postcode": "240207",
        "country": "Ecuador",
        "country_code": "ec"
      },
      "address": "318, Avenida Carlos Espinoza Larrea, Salinas, Parroquia José Luis Tamayo, Salinas, Santa Elena Province, 240207, Ecuador"
    },
    {
      "lat": -2.257793613905998,
      "lon": -80.9523589178933,
      "geoinfo": {
        "display_name": "Ciudadela Costa de Oro, Salinas, Santa Elena Province, 240207, Ecuador",
        "road": null,
        "house_number": null,
        "neighbourhood": null,
        "suburb": null,
        "city_district": null,
        "city": "Salinas",
        "state": "Santa Elena Province",
        "postcode": "240207",
        "country": "Ecuador",
        "country_code": "ec"
      },
      "address": "655, Ciudadela Costa de Oro, Salinas, Santa Elena Province, 240207, Ecuador"
    }
  ],
  "updated_at": "2025-10-19T04:11:45.725242+00:00",
  "_kind": "geo_samples"
}