{
  "country_code": "EC",
  "country": "Ecuador",
  "city": "Santo Domingo de los Colorados",
  "geonameid": 3651297,
  "target_addresses": 2,
  "samples": [
    {
      "lat": -0.2842730150738141,
      "lon": -79.1956871685342,
      "geoinfo": {
        "display_name": "Avenida 2, Cooperativa Cristo Vive, Río Verde, Santo Domingo de los Tsachilas, Santo Domingo, Santo Domingo de los Tsáchilas, 230112, Ecuador",
        "road": "Avenida 2",
        "house_number": null,
        "neighbourhood": "Cooperativa Cristo Vive",
        "suburb": "Río Verde",
        "city_district": null,
        "city": "Santo Domingo de los Tsachilas",
        "state": "Santo Domingo de los Tsáchilas",
        "postcode": "230112",
        "country": "Ecuador",
        "country_code": "ec"
      },
      "address": "Avenida 2, Santo Domingo de los Colorados, Santo Domingo de los Tsáchilas, Ecuador"
    },
    {
      "lat": -0.2248350331425714,
      "lon": -79.15557161244973,
      "geoinfo": {
        "display_name": "Calle 24, El Sueño de Bolivar, Río Toachi, Santo Domingo de los Tsachilas, Santo Domingo, Santo Domingo de los Tsáchilas, 230108, Ecuador",
        "road": "Calle 24",
        "house_number": null,
        "neighbourhood": "El Sueño de Bolivar",
        "suburb": "Río Toachi",
        "city_district": null,
        "city": "Santo Domingo de los Tsachilas",
        "state": "Santo Domingo de los Tsáchilas",
        "postcode": "230108",
        "country": "Ecuador",
        "country_code": "ec"
      },
      "address": "Calle 24, Santo Domingo de los Colorados, Santo Domingo de los Tsáchilas, Ecuador"
    },
    {
      "lat": -0.26337177099871995,
      "lon": -79.18485791304902,
      "geoinfo": {
        "display_name": "Calle 3, Cooperativa Santa Martha Sector 1, Río Verde, Santo Domingo de los Tsachilas, Santo Domingo, Santo Domingo de los Tsáchilas, 230206, Ecuador",
        "road": "Calle 3",
        "house_number": null,
        "neighbourhood": "Cooperativa Santa Martha Sector 1",
        "suburb": "Río Verde",
        "city_district": null,
        "city": "Santo Domingo de los Tsachilas",
        "state": "Santo Domingo de los Tsáchilas",
        "postcode": "230206",
        "country": "Ecuador",
        "country_code": "ec"
      },
      "address": "Calle 3, Cooperativa Santa Martha Sector 1, Río Verde, Santo Domingo de los Tsachilas, Santo Domingo, Santo Domingo de los Tsáchilas, 230206, Ecuador"
    },
    {
      "lat": -0.22190843636207863,
      "lon": -79.20490506004097,
      "geoinfo": {
        "display_name": "Camino a la Bengala, Bombolí, Santo Domingo de los Tsachilas, Santo Domingo, Santo Domingo de los Tsáchilas, 230212, Ecuador",
        "road": "Camino a la Bengala",
        "house_number": null,
        "neighbourhood": null,
        "suburb": "Bombolí",
        "city_district": null,
        "city": "Santo Domingo de los Tsachilas",
        "state": "Santo Domingo de los Tsáchilas",
        "postcode": "230212",
        "country": "Ecuador",
        "country_code": "ec"
      },
      "address": "551, Camino a la Bengala, Bombolí, Santo Domingo de los Tsachilas, Santo Domingo, Santo Domingo de los Tsáchilas, 230212, Ecuador"
    }
  ],
  "updated_at": "2025-10-19T04:36:23.037561+00:00",
  "_kind": "geo_samples"
}