{
  "country_code": "EC",
  "country": "Ecuador",
  "city": "Sucre",
  "geonameid": 3650960,
  "target_addresses": 6,
  "samples": [
    {
      "lat": -1.2427065968137776,
      "lon": -80.42301784424227,
      "geoinfo": {
        "display_name": "Vía Lodana - Sucre, Aguas Amargas, La Balsa, Parroquia Sucre, 24 de Mayo, Manabí, 130702, Ecuador",
        "road": "Vía Lodana - Sucre",
        "house_number": null,
        "neighbourhood": null,
        "suburb": null,
        "city_district": null,
        "city": "La Balsa",
        "state": "Manabí",
        "postcode": "130702",
        "country": "Ecuador",
        "country_code": "ec"
      },
      "address": "Vía Lodana - Sucre, Sucre, Manabí, Ecuador"
    },
    {
      "lat": -1.2822701541355181,
      "lon": -80.3768985660217,
      "geoinfo": {
        "display_name": "Bonce Adentro, Bonce, Parroquia Santa Ana de Vuelta Larga, Santa Ana, Manabí, 130702, Ecuador",
        "road": null,
        "house_number": null,
        "neighbourhood": null,
        "suburb": null,
        "city_district": null,
        "city": "Bonce",
        "state": "Manabí",
        "postcode": "130702",
        "country": "Ecuador",
        "country_code": "ec"
      },
      "address": "Sucre, Manabí, Ecuador"
    },
    {
      "lat": -1.3158819749944342,
      "lon": -80.41587201117498,
      "geoinfo": {
        "display_name": "Bejuco Chico, Parroquia Sucre, 24 de Mayo, Manabí, Ecuador",
        "road": null,
        "house_number": null,
        "neighbourhood": null,
        "suburb": null,
        "city_district": null,
        "city": null,
        "state": "Manabí",
        "postcode": null,
        "country": "Ecuador",
        "country_code": "ec"
      },
      "address": "816, Bejuco Chico, Parroquia Sucre, 24 de Mayo, Manabí, Ecuador"
    },
    {
      "lat": -1.3161860278014066,
      "lon": -80.40749726029229,
      "geoinfo": {
        "display_name": "Bejuco Chico, Parroquia Sucre, 24 de Mayo, Manabí, Ecuador",
        "road": null,
        "house_number": null,
        "neighbourhood": null,
        "suburb": null,
        "city_district": null,
        "city": null,
        "state": "Manabí",
        "postcode": null,
        "country": "Ecuador",
        "country_code": "ec"
      },
      "address": "712, Bejuco Chico, Parroquia Sucre, 24 de Mayo, Manabí, Ecuador"
    },
    {
      "lat": -1.3074582504831327,
      "lon": -80.39635467225327,
      "geoinfo": {
        "display_name": "Punta de Piedra, Parroquia Sucre, 24 de Mayo, Manabí, Ecuador",
        "road": null,
        "house_number": null,
        "neighbourhood": null,
        "suburb": null,
        "city_district": null,
        "city": null,
        "state": "Manabí",
        "postcode": null,
        "country": "Ecuador",
        "country_code": "ec"
      },
      "address": "575, Punta de Piedra, Parroquia Sucre, 24 de Mayo, Manabí, Ecuador"
    },
    {
      "lat": -1.2848326532349243,
      "lon": -80.41940471067795,
      "geoinfo": {
        "display_name": "Eloy Alfaro, Sucre, Parroquia Sucre, 24 de Mayo, Manabí, Ecuador",
        "road": null,
        "house_number": null,
        "neighbourhood": null,
        "suburb": null,
        "city_district": null,
        "city": "Sucre",
        "state": "Manabí",
        "postcode": null,
        "country": "Ecuador",
        "country_code": "ec"
      },
      "address": "742, Eloy Alfaro, Sucre, Parroquia Sucre, 24 de Mayo, Manabí, Ecuador"
    },
    {
      "lat": -1.3003214417291784,
      "lon": -80.45515672644277,
      "geoinfo": {
        "display_name": "El Mirador, Parroquia Sucre, 24 de Mayo, Manabí, Ecuador",
        "road": null,
        "house_number": null,
        "neighbourhood": null,
        "suburb": null,
        "city_district": null,
        "city": null,
        "state": "Manabí",
        "postcode": null,
        "country": "Ecuador",
        "country_code": "ec"
      },
      "address": "730, El Mirador, Parroquia Sucre, 24 de Mayo, Manabí, Ecuador"
    }
  ],
  "updated_at": "2025-10-19T04:11:33.480570+00:00",
  "_kind": "geo_samples"
}