{
  "country_code": "EC",
  "country": "Ecuador",
  "city": "Zamora",
  "geonameid": 3649959,
  "target_addresses": 2,
  "samples": [
    {
      "lat": -4.09232917834804,
      "lon": -78.96841102853669,
      "geoinfo": {
        "display_name": "EL Oso, Santa Elena, Zamora, Zamora Chinchipe, 190101, Ecuador",
        "road": null,
        "house_number": null,
        "neighbourhood": "EL Oso",
        "suburb": null,
        "city_district": null,
        "city": "Zamora",
        "state": "Zamora Chinchipe",
        "postcode": "190101",
        "country": "Ecuador",
        "country_code": "ec"
      },
      "address": "EL Oso, Zamora, Zamora Chinchipe, Ecuador"
    },
    {
      "lat": -4.102768832937631,
      "lon": -78.92826434764923,
      "geoinfo": {
        "display_name": "Finca Romerillo, Timbara, Zamora, Zamora Chinchipe, 190101, Ecuador",
        "road": null,
        "house_number": null,
        "neighbourhood": null,
        "suburb": null,
        "city_district": null,
        "city": "Timbara",
        "state": "Zamora Chinchipe",
        "postcode": "190101",
        "country": "Ecuador",
        "country_code": "ec"
      },
      "address": "Zamora, Zamora Chinchipe, Ecuador"
    },
    {
      "lat": -4.021256878454181,
      "lon": -78.94651136442707,
      "geoinfo": {
        "display_name": "Genairo, Zamora, Zamora Chinchipe, 190452, Ecuador",
        "road": null,
        "house_number": null,
        "neighbourhood": "Genairo",
        "suburb": null,
        "city_district": null,
        "city": "Zamora",
        "state": "Zamora Chinchipe",
        "postcode": "190452",
        "country": "Ecuador",
        "country_code": "ec"
      },
      "address": "479, Genairo, Zamora, Zamora Chinchipe, 190452, Ecuador"
    },
    {
      "lat": -4.054527795047945,
      "lon": -78.93718235650893,
      "geoinfo": {
        "display_name": "Ismael Apolo, Pio Jaramillo, Zamora, Zamora Chinchipe, 190452, Ecuador",
        "road": "Ismael Apolo",
        "house_number": null,
        "neighbourhood": "Pio Jaramillo",
        "suburb": null,
        "city_district": null,
        "city": "Zamora",
        "state": "Zamora Chinchipe",
        "postcode": "190452",
        "country": "Ecuador",
        "country_code": "ec"
      },
      "address": "073, Ismael Apolo, Pio Jaramillo, Zamora, Zamora Chinchipe, 190452, Ecuador"
    }
  ],
  "updated_at": "2025-10-19T03:56:27.576119+00:00",
  "_kind": "geo_samples"
}