{
  "country_code": "PS",
  "country": "Palestinian Territory",
  "city": "Battir",
  "geonameid": 284375,
  "target_addresses": 3,
  "samples": [
    {
      "lat": 31.65643434633376,
      "lon": 35.115472739451405,
      "geoinfo": {
        "display_name": "367, Khirbet Beit Zakariyyah, Area C, Judea and Samaria, Palestinian Territories",
        "road": "367",
        "house_number": null,
        "neighbourhood": null,
        "suburb": null,
        "city_district": null,
        "city": null,
        "state": "Judea and Samaria",
        "postcode": null,
        "country": "Palestinian Territories",
        "country_code": "ps"
      },
      "address": "367, Battir, Judea and Samaria, Palestinian Territory"
    },
    {
      "lat": 31.709561621545177,
      "lon": 35.125680075102274,
      "geoinfo": {
        "display_name": "375, Beitar Ilit, Area C, Judea and Samaria, Palestinian Territories",
        "road": "375",
        "house_number": null,
        "neighbourhood": null,
        "suburb": null,
        "city_district": null,
        "city": "Beitar Ilit",
        "state": "Judea and Samaria",
        "postcode": null,
        "country": "Palestinian Territories",
        "country_code": "ps"
      },
      "address": "375, Battir, Judea and Samaria, Palestinian Territory"
    },
    {
      "lat": 31.70012526270338,
      "lon": 35.14583062704279,
      "geoinfo": {
        "display_name": "Area C, Judea and Samaria, Palestinian Territories",
        "road": null,
        "house_number": null,
        "neighbourhood": null,
        "suburb": null,
        "city_district": null,
        "city": null,
        "state": "Judea and Samaria",
        "postcode": null,
        "country": "Palestinian Territories",
        "country_code": "ps"
      },
      "address": "Battir, Judea and Samaria, Palestinian Territory"
    },
    {
      "lat": 31.655951784450203,
      "lon": 35.11508793572187,
      "geoinfo": {
        "display_name": "367, Khirbet Beit Zakariyyah, Area C, Judea and Samaria, Palestinian Territories",
        "road": "367",
        "house_number": null,
        "neighbourhood": null,
        "suburb": null,
        "city_district": null,
        "city": null,
        "state": "Judea and Samaria",
        "postcode": null,
        "country": "Palestinian Territories",
        "country_code": "ps"
      },
      "address": "367, Battir, 43681 Judea and Samaria, Palestinian Territory"
    },
    {
      "lat": 31.662449442176374,
      "lon": 35.126262279113334,
      "geoinfo": {
        "display_name": "בית זכריה, Khirbet Beit Zakariyyah, Area C, Judea and Samaria, Palestinian Territories",
        "road": null,
        "house_number": null,
        "neighbourhood": null,
        "suburb": null,
        "city_district": null,
        "city": null,
        "state": "Judea and Samaria",
        "postcode": null,
        "country": "Palestinian Territories",
        "country_code": "ps"
      },
      "address": "936, Battir, 47064 Judea and Samaria, Palestinian Territory"
    },
    {
      "lat": 31.715131505625063,
      "lon": 35.16109259164544,
      "geoinfo": {
        "display_name": "384, Har Gilo, Area C, Judea and Samaria, Palestinian Territories",
        "road": "384",
        "house_number": null,
        "neighbourhood": null,
        "suburb": null,
        "city_district": null,
        "city": "Har Gilo",
        "state": "Judea and Samaria",
        "postcode": null,
        "country": "Palestinian Territories",
        "country_code": "ps"
      },
      "address": "384, Battir, 00646 Judea and Samaria, Palestinian Territory"
    }
  ],
  "updated_at": "2025-10-19T06:39:24.056651+00:00",
  "_kind": "geo_samples"
}