{
  "country_code": "PS",
  "country": "Palestinian Territory",
  "city": "Gaza",
  "geonameid": 281133,
  "target_addresses": 3,
  "samples": [
    {
      "lat": 31.48244513223442,
      "lon": 34.450128631231316,
      "geoinfo": {
        "display_name": "Zeitun, Al-Qubbah, Gaza, Gaza Governorate, Gaza Strip, 888, Palestinian Territories",
        "road": null,
        "house_number": null,
        "neighbourhood": null,
        "suburb": "Zeitun",
        "city_district": null,
        "city": "Gaza",
        "state": null,
        "postcode": "888",
        "country": "Palestinian Territories",
        "country_code": "ps"
      },
      "address": "Zeitun, Gaza, Palestinian Territory"
    },
    {
      "lat": 31.49793518386879,
      "lon": 34.41689039642739,
      "geoinfo": {
        "display_name": "Ash Sheikh 'Ijleen, Gaza, Gaza Governorate, Gaza Strip, 890, Palestinian Territories",
        "road": null,
        "house_number": null,
        "neighbourhood": null,
        "suburb": "Ash Sheikh 'Ijleen",
        "city_district": null,
        "city": "Gaza",
        "state": null,
        "postcode": "890",
        "country": "Palestinian Territories",
        "country_code": "ps"
      },
      "address": "Ash Sheikh 'Ijleen, Gaza, Palestinian Territory"
    },
    {
      "lat": 31.52694637836423,
      "lon": 34.48029209540635,
      "geoinfo": {
        "display_name": "Ibad Ar-Rahman, Jabalia, North Gaza Governorate, Gaza Strip, 888, Palestinian Territories",
        "road": null,
        "house_number": null,
        "neighbourhood": null,
        "suburb": "Ibad Ar-Rahman",
        "city_district": null,
        "city": "Jabalia",
        "state": null,
        "postcode": "888",
        "country": "Palestinian Territories",
        "country_code": "ps"
      },
      "address": "Ibad Ar-Rahman, Gaza, Palestinian Territory"
    },
    {
      "lat": 31.469375327077334,
      "lon": 34.4671075587086,
      "geoinfo": {
        "display_name": "East Turkman, Al-Qubbah, Gaza, Gaza Governorate, Gaza Strip, 888, Palestinian Territories",
        "road": null,
        "house_number": null,
        "neighbourhood": null,
        "suburb": "East Turkman",
        "city_district": null,
        "city": "Gaza",
        "state": null,
        "postcode": "888",
        "country": "Palestinian Territories",
        "country_code": "ps"
      },
      "address": "307, East Turkman, 888 Gaza, Palestinian Territory"
    },
    {
      "lat": 31.488296313450093,
      "lon": 34.45621060826992,
      "geoinfo": {
        "display_name": "Zeitun, Al-Qubbah, Gaza, Gaza Governorate, Gaza Strip, 888, Palestinian Territories",
        "road": null,
        "house_number": null,
        "neighbourhood": null,
        "suburb": "Zeitun",
        "city_district": null,
        "city": "Gaza",
        "state": null,
        "postcode": "888",
        "country": "Palestinian Territories",
        "country_code": "ps"
      },
      "address": "723, Zeitun, 888 Gaza, Palestinian Territory"
    },
    {
      "lat": 31.527281316256,
      "lon": 34.452763077334986,
      "geoinfo": {
        "display_name": "Northern Remal, North Remal, Gaza, Gaza Governorate, Gaza Strip, 890, Palestinian Territories",
        "road": null,
        "house_number": null,
        "neighbourhood": null,
        "suburb": "Northern Remal",
        "city_district": null,
        "city": "Gaza",
        "state": null,
        "postcode": "890",
        "country": "Palestinian Territories",
        "country_code": "ps"
      },
      "address": "281, Northern Remal, 890 Gaza, Palestinian Territory"
    }
  ],
  "updated_at": "2025-10-19T04:24:06.059409+00:00",
  "_kind": "geo_samples"
}