{
  "country_code": "PS",
  "country": "Palestinian Territory",
  "city": "Ramallah",
  "geonameid": 282239,
  "target_addresses": 3,
  "samples": [
    {
      "lat": 31.873912417060268,
      "lon": 35.22815269297717,
      "geoinfo": {
        "display_name": "Ramallah, Um Alsharayet, Qalandiya Refugee Camp, Area C, Judea and Samaria, 611, Palestinian Territories",
        "road": null,
        "house_number": null,
        "neighbourhood": null,
        "suburb": "Um Alsharayet",
        "city_district": null,
        "city": "Qalandiya Refugee Camp",
        "state": "Judea and Samaria",
        "postcode": "611",
        "country": "Palestinian Territories",
        "country_code": "ps"
      },
      "address": "Um Alsharayet, Ramallah, Judea and Samaria, Palestinian Territory"
    },
    {
      "lat": 31.90647623380951,
      "lon": 35.16632920741521,
      "geoinfo": {
        "display_name": "Ramallah, Al Sakar, Bitunia, Area C, Judea and Samaria, 631, Palestinian Territories",
        "road": null,
        "house_number": null,
        "neighbourhood": null,
        "suburb": "Al Sakar",
        "city_district": null,
        "city": "Bitunia",
        "state": "Judea and Samaria",
        "postcode": "631",
        "country": "Palestinian Territories",
        "country_code": "ps"
      },
      "address": "Al Sakar, Ramallah, Judea and Samaria, Palestinian Territory"
    },
    {
      "lat": 31.902054028074463,
      "lon": 35.19260577082116,
      "geoinfo": {
        "display_name": "Athens, Ramallah, Ein Musbah, Alteerah, Ramallah, Area A, West Bank, 606, Palestinian Territories",
        "road": "Athens",
        "house_number": null,
        "neighbourhood": null,
        "suburb": "Ein Musbah",
        "city_district": null,
        "city": "Ramallah",
        "state": null,
        "postcode": "606",
        "country": "Palestinian Territories",
        "country_code": "ps"
      },
      "address": "Athens, Ramallah, Judea and Samaria, Palestinian Territory"
    },
    {
      "lat": 31.885363532412235,
      "lon": 35.205700382862375,
      "geoinfo": {
        "display_name": "Ramallah, Um Alsharayet, Albireh, Area A, West Bank, 611, Palestinian Territories",
        "road": null,
        "house_number": null,
        "neighbourhood": null,
        "suburb": "Um Alsharayet",
        "city_district": null,
        "city": "Albireh",
        "state": null,
        "postcode": "611",
        "country": "Palestinian Territories",
        "country_code": "ps"
      },
      "address": "280, Um Alsharayet, 611 Ramallah, Palestinian Territory"
    },
    {
      "lat": 31.90510419320406,
      "lon": 35.208431019311924,
      "geoinfo": {
        "display_name": "Al Madares, Ramallah, Alshurafa, Albireh, Area A, West Bank, 009, Palestinian Territories",
        "road": "Al Madares",
        "house_number": null,
        "neighbourhood": null,
        "suburb": "Alshurafa",
        "city_district": null,
        "city": "Albireh",
        "state": null,
        "postcode": "009",
        "country": "Palestinian Territories",
        "country_code": "ps"
      },
      "address": "994, Al Madares, 009 Ramallah, Palestinian Territory"
    },
    {
      "lat": 31.895513273526937,
      "lon": 35.201678936193886,
      "geoinfo": {
        "display_name": "Ramallah, Aen Munjad, Ramallah, Area A, West Bank, 603, Palestinian Territories",
        "road": null,
        "house_number": null,
        "neighbourhood": null,
        "suburb": "Aen Munjad",
        "city_district": null,
        "city": "Ramallah",
        "state": null,
        "postcode": "603",
        "country": "Palestinian Territories",
        "country_code": "ps"
      },
      "address": "261, Aen Munjad, 603 Ramallah, Palestinian Territory"
    }
  ],
  "updated_at": "2025-10-19T06:42:26.720074+00:00",
  "_kind": "geo_samples"
}