{
  "country_code": "PS",
  "country": "Palestinian Territory",
  "city": "Surif City",
  "geonameid": 281715,
  "target_addresses": 3,
  "samples": [
    {
      "lat": 31.658460601093857,
      "lon": 35.032682897156036,
      "geoinfo": {
        "display_name": "صوريف, Khirbat a-Dar, Surif, Area C, Judea and Samaria, Palestinian Territories",
        "road": null,
        "house_number": null,
        "neighbourhood": null,
        "suburb": null,
        "city_district": null,
        "city": "Surif",
        "state": "Judea and Samaria",
        "postcode": null,
        "country": "Palestinian Territories",
        "country_code": "ps"
      },
      "address": "Surif City, Judea and Samaria, Palestinian Territory"
    },
    {
      "lat": 31.67114563847061,
      "lon": 35.09779205688996,
      "geoinfo": {
        "display_name": "367, صوريف, Deir Musa village, Area C, Judea and Samaria, Palestinian Territories",
        "road": "367",
        "house_number": null,
        "neighbourhood": null,
        "suburb": null,
        "city_district": null,
        "city": "Deir Musa village",
        "state": "Judea and Samaria",
        "postcode": null,
        "country": "Palestinian Territories",
        "country_code": "ps"
      },
      "address": "367, Surif City, Judea and Samaria, Palestinian Territory"
    },
    {
      "lat": 31.638408946658355,
      "lon": 35.031590159557446,
      "geoinfo": {
        "display_name": "Surif - Hebron, صوريف, Surif, Area B, West Bank, Palestinian Territories",
        "road": "Surif - Hebron",
        "house_number": null,
        "neighbourhood": null,
        "suburb": null,
        "city_district": null,
        "city": "Surif",
        "state": null,
        "postcode": null,
        "country": "Palestinian Territories",
        "country_code": "ps"
      },
      "address": "Surif - Hebron, Surif City, Judea and Samaria, Palestinian Territory"
    },
    {
      "lat": 31.6539086687779,
      "lon": 35.05551760811768,
      "geoinfo": {
        "display_name": "شارع مدرسة شهداء صوريف, صوريف, Jordanian Police Station, Surif, Area B, West Bank, Palestinian Territories",
        "road": "شارع مدرسة شهداء صوريف",
        "house_number": null,
        "neighbourhood": null,
        "suburb": null,
        "city_district": null,
        "city": "Surif",
        "state": null,
        "postcode": null,
        "country": "Palestinian Territories",
        "country_code": "ps"
      },
      "address": "245, شارع مدرسة شهداء صوريف, 14343 Surif City, Palestinian Territory"
    },
    {
      "lat": 31.671065503346018,
      "lon": 35.09936272647085,
      "geoinfo": {
        "display_name": "367, صوريف, Deir Musa village, Area C, Judea and Samaria, Palestinian Territories",
        "road": "367",
        "house_number": null,
        "neighbourhood": null,
        "suburb": null,
        "city_district": null,
        "city": "Deir Musa village",
        "state": "Judea and Samaria",
        "postcode": null,
        "country": "Palestinian Territories",
        "country_code": "ps"
      },
      "address": "367, Surif City, 35624 Judea and Samaria, Palestinian Territory"
    },
    {
      "lat": 31.674819573044584,
      "lon": 35.05360941452353,
      "geoinfo": {
        "display_name": "Deir Musa village, Area C, Judea and Samaria, Palestinian Territories",
        "road": null,
        "house_number": null,
        "neighbourhood": null,
        "suburb": null,
        "city_district": null,
        "city": "Deir Musa village",
        "state": "Judea and Samaria",
        "postcode": null,
        "country": "Palestinian Territories",
        "country_code": "ps"
      },
      "address": "025, Surif City, 79883 Judea and Samaria, Palestinian Territory"
    }
  ],
  "updated_at": "2025-10-19T06:37:31.568260+00:00",
  "_kind": "geo_samples"
}