{
  "country_code": "PS",
  "country": "Palestinian Territory",
  "city": "Ţūlkarm",
  "geonameid": 281577,
  "target_addresses": 3,
  "samples": [
    {
      "lat": 32.30703042712899,
      "lon": 35.02314571179801,
      "geoinfo": {
        "display_name": "طولكرم, Tulkarm, Area A, West Bank, 302, Palestinian Territories",
        "road": null,
        "house_number": null,
        "neighbourhood": null,
        "suburb": null,
        "city_district": null,
        "city": "Tulkarm",
        "state": null,
        "postcode": "302",
        "country": "Palestinian Territories",
        "country_code": "ps"
      },
      "address": "Ţūlkarm, Judea and Samaria, Palestinian Territory"
    },
    {
      "lat": 32.273910713245385,
      "lon": 35.04685902341734,
      "geoinfo": {
        "display_name": "576, Izbat Shufa, Area C, Judea and Samaria, 302, Palestinian Territories",
        "road": "576",
        "house_number": null,
        "neighbourhood": null,
        "suburb": null,
        "city_district": null,
        "city": "Izbat Shufa",
        "state": "Judea and Samaria",
        "postcode": "302",
        "country": "Palestinian Territories",
        "country_code": "ps"
      },
      "address": "576, Ţūlkarm, Judea and Samaria, Palestinian Territory"
    },
    {
      "lat": 32.317869864570376,
      "lon": 35.06735216329175,
      "geoinfo": {
        "display_name": "Sharia Nablus, طولكرم, Nur Shams, Area C, Judea and Samaria, 302, Palestinian Territories",
        "road": "Sharia Nablus",
        "house_number": null,
        "neighbourhood": null,
        "suburb": null,
        "city_district": null,
        "city": "Nur Shams",
        "state": "Judea and Samaria",
        "postcode": "302",
        "country": "Palestinian Territories",
        "country_code": "ps"
      },
      "address": "Sharia Nablus, Ţūlkarm, Judea and Samaria, Palestinian Territory"
    },
    {
      "lat": 32.28235134455275,
      "lon": 35.063603229295914,
      "geoinfo": {
        "display_name": "Izbat Shufa, Area C, Judea and Samaria, 302, Palestinian Territories",
        "road": null,
        "house_number": null,
        "neighbourhood": null,
        "suburb": null,
        "city_district": null,
        "city": "Izbat Shufa",
        "state": "Judea and Samaria",
        "postcode": "302",
        "country": "Palestinian Territories",
        "country_code": "ps"
      },
      "address": "690, Ţūlkarm, 302 Judea and Samaria, Palestinian Territory"
    },
    {
      "lat": 32.31608254323412,
      "lon": 35.01803277500262,
      "geoinfo": {
        "display_name": "As-Sikkeh, طولكرم, Area C, Judea and Samaria, 302, Palestinian Territories",
        "road": "As-Sikkeh",
        "house_number": null,
        "neighbourhood": null,
        "suburb": null,
        "city_district": null,
        "city": null,
        "state": "Judea and Samaria",
        "postcode": "302",
        "country": "Palestinian Territories",
        "country_code": "ps"
      },
      "address": "265, As-Sikkeh, Ţūlkarm, 302 Judea and Samaria, Palestinian Territory"
    },
    {
      "lat": 32.29813444153131,
      "lon": 35.049262100826105,
      "geoinfo": {
        "display_name": "Khirbet at-Tayyah, Area C, Judea and Samaria, 302, Palestinian Territories",
        "road": null,
        "house_number": null,
        "neighbourhood": null,
        "suburb": "Khirbet at-Tayyah",
        "city_district": null,
        "city": null,
        "state": "Judea and Samaria",
        "postcode": "302",
        "country": "Palestinian Territories",
        "country_code": "ps"
      },
      "address": "358, Khirbet at-Tayyah, Ţūlkarm, 302 Judea and Samaria, Palestinian Territory"
    }
  ],
  "updated_at": "2025-10-19T09:15:57.772073+00:00",
  "_kind": "geo_samples"
}