{
  "country_code": "HK",
  "country": "Hong Kong",
  "city": "Laguna Verde",
  "geonameid": 12719440,
  "target_addresses": 4,
  "samples": [
    {
      "lat": 22.311355356820407,
      "lon": 114.14885080982906,
      "geoinfo": {
        "display_name": "Kau Wa Keng Village, Kau Wa Keng, New Territories, Hong Kong, China",
        "road": null,
        "house_number": null,
        "neighbourhood": null,
        "suburb": null,
        "city_district": null,
        "city": "Kau Wa Keng Village",
        "state": "Hong Kong",
        "postcode": null,
        "country": "China",
        "country_code": "cn"
      },
      "address": "Laguna Verde, Hong Kong, Hong Kong"
    },
    {
      "lat": 22.318805662923427,
      "lon": 114.22930046388441,
      "geoinfo": {
        "display_name": "Hiu Kwong Street, Kwun Tong Mid-Levels, Sau Mau Ping, Kwun Tong District, Kowloon, Hong Kong, China",
        "road": "Hiu Kwong Street",
        "house_number": null,
        "neighbourhood": null,
        "suburb": "Sau Mau Ping",
        "city_district": "Kwun Tong District",
        "city": "Kowloon",
        "state": "Hong Kong",
        "postcode": null,
        "country": "China",
        "country_code": "cn"
      },
      "address": "903, Hiu Kwong Street, Kwun Tong Mid-Levels, Sau Mau Ping, Kwun Tong District, Kowloon, 48052 Hong Kong, China"
    },
    {
      "lat": 22.32751477494506,
      "lon": 114.16650844127884,
      "geoinfo": {
        "display_name": "Boundary Street Flyover, Tong Mi, Un Chau, Sham Shui Po, Sham Shui Po District, Kowloon, Hong Kong, China",
        "road": "Boundary Street Flyover",
        "house_number": null,
        "neighbourhood": "Tong Mi",
        "suburb": "Sham Shui Po",
        "city_district": "Sham Shui Po District",
        "city": "Kowloon",
        "state": "Hong Kong",
        "postcode": null,
        "country": "China",
        "country_code": "cn"
      },
      "address": "873, Boundary Street Flyover, Tong Mi, Un Chau, Sham Shui Po, Sham Shui Po District, Kowloon, 08143 Hong Kong, China"
    },
    {
      "lat": 22.31619879972313,
      "lon": 114.16126775594432,
      "geoinfo": {
        "display_name": "Lin Cheung Road, Tai Kok Tsui, Yau Tsim Mong District, Kowloon, Hong Kong, China",
        "road": "Lin Cheung Road",
        "house_number": null,
        "neighbourhood": null,
        "suburb": "Tai Kok Tsui",
        "city_district": "Yau Tsim Mong District",
        "city": "Kowloon",
        "state": "Hong Kong",
        "postcode": null,
        "country": "China",
        "country_code": "cn"
      },
      "address": "249, Lin Cheung Road, Tai Kok Tsui, Yau Tsim Mong District, Kowloon, 03455 Hong Kong, China"
    }
  ],
  "updated_at": "2025-10-19T04:41:04.752845+00:00",
  "_kind": "geo_samples"
}