{
  "country_code": "HK",
  "country": "Hong Kong",
  "city": "Sam Shing",
  "geonameid": 12719540,
  "target_addresses": 4,
  "samples": [
    {
      "lat": 22.3700503557345,
      "lon": 113.9817981122544,
      "geoinfo": {
        "display_name": "Castle Peak Bay Waterfront Promenade 青山灣海濱長廊, Sam Shing, Castle Peak Bay, Tuen Mun, Tsing Shan Tsuen, Tuen Mun District, New Territories, Hong Kong, China",
        "road": "Castle Peak Bay Waterfront Promenade 青山灣海濱長廊",
        "house_number": null,
        "neighbourhood": "Sam Shing",
        "suburb": "Tuen Mun",
        "city_district": null,
        "city": "Tuen Mun District",
        "state": "Hong Kong",
        "postcode": null,
        "country": "China",
        "country_code": "cn"
      },
      "address": "Castle Peak Bay Waterfront Promenade 青山灣海濱長廊, Sam Shing, Hong Kong, Hong Kong"
    },
    {
      "lat": 22.35588914999231,
      "lon": 113.98982582457425,
      "geoinfo": {
        "display_name": "Area 59, Lok On Pai, Siu Lam, Siu Lam San Tsuen, Tuen Mun District, New Territories, Hong Kong, China",
        "road": null,
        "house_number": null,
        "neighbourhood": "Lok On Pai",
        "suburb": "Siu Lam",
        "city_district": null,
        "city": "Tuen Mun District",
        "state": "Hong Kong",
        "postcode": null,
        "country": "China",
        "country_code": "cn"
      },
      "address": "Area 59, Lok On Pai, Siu Lam, Siu Lam San Tsuen, Tuen Mun District, New Territories, 94063 Hong Kong, China"
    },
    {
      "lat": 22.37153644445446,
      "lon": 113.96151324203733,
      "geoinfo": {
        "display_name": "Mei Lok Lane, Butterfly Beach, Tuen Mun South, Tuen Mun District, New Territories, Hong Kong, China",
        "road": "Mei Lok Lane",
        "house_number": null,
        "neighbourhood": "Butterfly Beach",
        "suburb": null,
        "city_district": null,
        "city": "Tuen Mun District",
        "state": "Hong Kong",
        "postcode": null,
        "country": "China",
        "country_code": "cn"
      },
      "address": "355, Mei Lok Lane, Butterfly Beach, Tuen Mun South, Tuen Mun District, New Territories, 20972 Hong Kong, China"
    },
    {
      "lat": 22.425042699229582,
      "lon": 113.97574830198938,
      "geoinfo": {
        "display_name": "Tuen Tsz Wai, Kei Lun Wai, Tuen Mun District, New Territories, Hong Kong, China",
        "road": null,
        "house_number": null,
        "neighbourhood": null,
        "suburb": null,
        "city_district": null,
        "city": "Tuen Mun District",
        "state": "Hong Kong",
        "postcode": null,
        "country": "China",
        "country_code": "cn"
      },
      "address": "077, Tuen Tsz Wai, Kei Lun Wai, Tuen Mun District, New Territories, 09355 Hong Kong, China"
    }
  ],
  "updated_at": "2025-10-19T04:41:23.546322+00:00",
  "_kind": "geo_samples"
}