{
  "country_code": "HK",
  "country": "Hong Kong",
  "city": "Tiu Keng Leng",
  "geonameid": 1818550,
  "target_addresses": 4,
  "samples": [
    {
      "lat": 22.299749520657713,
      "lon": 114.23002058614124,
      "geoinfo": {
        "display_name": "Lam Tin Interchange, Yau Tong Road, Yau Tong Bay, Yau Tong, Kwun Tong District, Kowloon, Hong Kong, China",
        "road": "Yau Tong Road",
        "house_number": null,
        "neighbourhood": "Yau Tong Bay",
        "suburb": "Yau Tong",
        "city_district": "Kwun Tong District",
        "city": "Kowloon",
        "state": "Hong Kong",
        "postcode": null,
        "country": "China",
        "country_code": "cn"
      },
      "address": "Yau Tong Road, Tiu Keng Leng, Hong Kong, Hong Kong"
    },
    {
      "lat": 22.299902773359975,
      "lon": 114.20958670446105,
      "geoinfo": {
        "display_name": "Tsat Tsz Mui, Braemar Hill, Eastern District, Hong Kong Island, Hong Kong, China",
        "road": null,
        "house_number": null,
        "neighbourhood": "Tsat Tsz Mui",
        "suburb": "Eastern District",
        "city_district": null,
        "city": "Hong Kong Island",
        "state": "Hong Kong",
        "postcode": null,
        "country": "China",
        "country_code": "cn"
      },
      "address": "795, Tsat Tsz Mui, Braemar Hill, Eastern District, Hong Kong Island, 74162 Hong Kong, China"
    },
    {
      "lat": 22.315024294636594,
      "lon": 114.254893271618,
      "geoinfo": {
        "display_name": "65, Po Lam Road South, Mau Wu Tsai, Sai Kung District, Tseung Kwan O, New Territories, Hong Kong, China",
        "road": "Po Lam Road South",
        "house_number": "65",
        "neighbourhood": null,
        "suburb": "Sai Kung District",
        "city_district": null,
        "city": "Tseung Kwan O",
        "state": "Hong Kong",
        "postcode": null,
        "country": "China",
        "country_code": "cn"
      },
      "address": "65, Po Lam Road South, Mau Wu Tsai, Sai Kung District, Tseung Kwan O, New Territories, 21359 Hong Kong, China"
    },
    {
      "lat": 22.314992199280187,
      "lon": 114.22085773239881,
      "geoinfo": {
        "display_name": "Block 4, Ngau Tau Kok Road, Kwun Tong Town Centre, Kwun Tong, Kwun Tong District, Kowloon, Hong Kong, China",
        "road": "Ngau Tau Kok Road",
        "house_number": null,
        "neighbourhood": null,
        "suburb": "Kwun Tong",
        "city_district": "Kwun Tong District",
        "city": "Kowloon",
        "state": "Hong Kong",
        "postcode": null,
        "country": "China",
        "country_code": "cn"
      },
      "address": "Block 4, Ngau Tau Kok Road, Kwun Tong Town Centre, Kwun Tong, Kwun Tong District, Kowloon, 96398 Hong Kong, China"
    }
  ],
  "updated_at": "2025-10-19T04:39:37.637771+00:00",
  "_kind": "geo_samples"
}