{
  "country_code": "GA",
  "country": "Gabon",
  "city": "Akanda",
  "geonameid": 12640495,
  "target_addresses": 8,
  "samples": [
    {
      "lat": 0.6071245524873516,
      "lon": 9.370087470208816,
      "geoinfo": {
        "display_name": "Libreville, Estuaire Province, Gabon",
        "road": null,
        "house_number": null,
        "neighbourhood": null,
        "suburb": null,
        "city_district": null,
        "city": null,
        "state": "Estuaire Province",
        "postcode": null,
        "country": "Gabon",
        "country_code": "ga"
      },
      "address": "Akanda, Estuaire Province, Gabon"
    },
    {
      "lat": 0.5841704606582793,
      "lon": 9.326376103966233,
      "geoinfo": {
        "display_name": "Piste Militaire, Akanda, Libreville, Estuaire Province, Gabon",
        "road": "Piste Militaire",
        "house_number": null,
        "neighbourhood": null,
        "suburb": null,
        "city_district": null,
        "city": "Akanda",
        "state": "Estuaire Province",
        "postcode": null,
        "country": "Gabon",
        "country_code": "ga"
      },
      "address": "Piste Militaire, Akanda, Estuaire Province, Gabon"
    },
    {
      "lat": 0.5757788880279469,
      "lon": 9.352377092167385,
      "geoinfo": {
        "display_name": "L101, Akanda, Libreville, Estuaire Province, Gabon",
        "road": "L101",
        "house_number": null,
        "neighbourhood": null,
        "suburb": null,
        "city_district": null,
        "city": "Akanda",
        "state": "Estuaire Province",
        "postcode": null,
        "country": "Gabon",
        "country_code": "ga"
      },
      "address": "L101, Akanda, Estuaire Province, Gabon"
    },
    {
      "lat": 0.5782492828324196,
      "lon": 9.32919142566377,
      "geoinfo": {
        "display_name": "Circuit 5, Akanda, Libreville, Estuaire Province, Gabon",
        "road": "Circuit 5",
        "house_number": null,
        "neighbourhood": null,
        "suburb": null,
        "city_district": null,
        "city": "Akanda",
        "state": "Estuaire Province",
        "postcode": null,
        "country": "Gabon",
        "country_code": "ga"
      },
      "address": "Circuit 5, Akanda, Estuaire Province, Gabon"
    },
    {
      "lat": 0.5731983954280881,
      "lon": 9.315767087961104,
      "geoinfo": {
        "display_name": "Le circuit des arbres géants, Akanda, Libreville, Estuaire Province, Gabon",
        "road": "Le circuit des arbres géants",
        "house_number": null,
        "neighbourhood": null,
        "suburb": null,
        "city_district": null,
        "city": "Akanda",
        "state": "Estuaire Province",
        "postcode": null,
        "country": "Gabon",
        "country_code": "ga"
      },
      "address": "Le circuit des arbres géants, Akanda, Estuaire Province, Gabon"
    },
    {
      "lat": 0.5924737269770683,
      "lon": 9.289446456741935,
      "geoinfo": {
        "display_name": "Akanda, Libreville, Estuaire Province, Gabon",
        "road": null,
        "house_number": null,
        "neighbourhood": null,
        "suburb": null,
        "city_district": null,
        "city": "Akanda",
        "state": "Estuaire Province",
        "postcode": null,
        "country": "Gabon",
        "country_code": "ga"
      },
      "address": "859, Akanda, Libreville, 15363 Estuaire Province, Gabon"
    },
    {
      "lat": 0.6052600476332753,
      "lon": 9.329868205824065,
      "geoinfo": {
        "display_name": "L101, Libreville, Estuaire Province, Gabon",
        "road": "L101",
        "house_number": null,
        "neighbourhood": null,
        "suburb": null,
        "city_district": null,
        "city": null,
        "state": "Estuaire Province",
        "postcode": null,
        "country": "Gabon",
        "country_code": "ga"
      },
      "address": "L101, Libreville, 40531 Estuaire Province, Gabon"
    },
    {
      "lat": 0.6332365057322638,
      "lon": 9.301182655916298,
      "geoinfo": {
        "display_name": "Akanda, Libreville, Estuaire Province, Gabon",
        "road": null,
        "house_number": null,
        "neighbourhood": null,
        "suburb": null,
        "city_district": null,
        "city": "Akanda",
        "state": "Estuaire Province",
        "postcode": null,
        "country": "Gabon",
        "country_code": "ga"
      },
      "address": "586, Akanda, Libreville, 41947 Estuaire Province, Gabon"
    },
    {
      "lat": 0.6001774345162526,
      "lon": 9.297601812986365,
      "geoinfo": {
        "display_name": "Akanda, Libreville, Estuaire Province, Gabon",
        "road": null,
        "house_number": null,
        "neighbourhood": null,
        "suburb": null,
        "city_district": null,
        "city": "Akanda",
        "state": "Estuaire Province",
        "postcode": null,
        "country": "Gabon",
        "country_code": "ga"
      },
      "address": "423, Akanda, Libreville, 38693 Estuaire Province, Gabon"
    },
    {
      "lat": 0.58972666833266,
      "lon": 9.295594972503855,
      "geoinfo": {
        "display_name": "Akanda, Libreville, Estuaire Province, Gabon",
        "road": null,
        "house_number": null,
        "neighbourhood": null,
        "suburb": null,
        "city_district": null,
        "city": "Akanda",
        "state": "Estuaire Province",
        "postcode": null,
        "country": "Gabon",
        "country_code": "ga"
      },
      "address": "161, Akanda, Libreville, 17365 Estuaire Province, Gabon"
    },
    {
      "lat": 0.5915233123378804,
      "lon": 9.315583073285527,
      "geoinfo": {
        "display_name": "Piste Cap des Pères, Cap Esterias, Libreville, Estuaire Province, Gabon",
        "road": "Piste Cap des Pères",
        "house_number": null,
        "neighbourhood": null,
        "suburb": null,
        "city_district": null,
        "city": null,
        "state": "Estuaire Province",
        "postcode": null,
        "country": "Gabon",
        "country_code": "ga"
      },
      "address": "479, Piste Cap des Pères, Cap Esterias, Libreville, 64294 Estuaire Province, Gabon"
    },
    {
      "lat": 0.6165643790257931,
      "lon": 9.301676529614351,
      "geoinfo": {
        "display_name": "Cap Esterias, Libreville, Estuaire Province, Gabon",
        "road": null,
        "house_number": null,
        "neighbourhood": null,
        "suburb": null,
        "city_district": null,
        "city": null,
        "state": "Estuaire Province",
        "postcode": null,
        "country": "Gabon",
        "country_code": "ga"
      },
      "address": "101, Cap Esterias, Libreville, 81080 Estuaire Province, Gabon"
    },
    {
      "lat": 0.629180995250904,
      "lon": 9.352243040494892,
      "geoinfo": {
        "display_name": "Akanda, Libreville, Estuaire Province, Gabon",
        "road": null,
        "house_number": null,
        "neighbourhood": null,
        "suburb": null,
        "city_district": null,
        "city": "Akanda",
        "state": "Estuaire Province",
        "postcode": null,
        "country": "Gabon",
        "country_code": "ga"
      },
      "address": "653, Akanda, Libreville, 27732 Estuaire Province, Gabon"
    }
  ],
  "updated_at": "2025-10-19T04:13:28.418607+00:00",
  "_kind": "geo_samples"
}