{
  "country_code": "GA",
  "country": "Gabon",
  "city": "Libreville",
  "geonameid": 2399697,
  "target_addresses": 8,
  "samples": [
    {
      "lat": 0.37170893214856976,
      "lon": 9.428795500780666,
      "geoinfo": {
        "display_name": "Nombakele, Libreville, Estuaire Province, Gabon",
        "road": null,
        "house_number": null,
        "neighbourhood": null,
        "suburb": "Nombakele",
        "city_district": null,
        "city": "Libreville",
        "state": "Estuaire Province",
        "postcode": null,
        "country": "Gabon",
        "country_code": "ga"
      },
      "address": "Nombakele, Libreville, Estuaire Province, Gabon"
    },
    {
      "lat": 0.37053643297546557,
      "lon": 9.424882598449747,
      "geoinfo": {
        "display_name": "Centre Ville, Libreville, Estuaire Province, Gabon",
        "road": null,
        "house_number": null,
        "neighbourhood": null,
        "suburb": "Centre Ville",
        "city_district": null,
        "city": "Libreville",
        "state": "Estuaire Province",
        "postcode": null,
        "country": "Gabon",
        "country_code": "ga"
      },
      "address": "Centre Ville, Libreville, Estuaire Province, Gabon"
    },
    {
      "lat": 0.3918875339305143,
      "lon": 9.489396268234348,
      "geoinfo": {
        "display_name": "Beau-Séjour, Libreville, Estuaire Province, Gabon",
        "road": null,
        "house_number": null,
        "neighbourhood": null,
        "suburb": "Beau-Séjour",
        "city_district": null,
        "city": "Libreville",
        "state": "Estuaire Province",
        "postcode": null,
        "country": "Gabon",
        "country_code": "ga"
      },
      "address": "Beau-Séjour, Libreville, Estuaire Province, Gabon"
    },
    {
      "lat": 0.4005381069044095,
      "lon": 9.453313960726671,
      "geoinfo": {
        "display_name": "Petit Paris, Mont Bouet, Libreville, Estuaire Province, Gabon",
        "road": null,
        "house_number": null,
        "neighbourhood": "Petit Paris",
        "suburb": "Mont Bouet",
        "city_district": null,
        "city": "Libreville",
        "state": "Estuaire Province",
        "postcode": null,
        "country": "Gabon",
        "country_code": "ga"
      },
      "address": "Petit Paris, Libreville, Estuaire Province, Gabon"
    },
    {
      "lat": 0.3834532293200268,
      "lon": 9.490041279514113,
      "geoinfo": {
        "display_name": "Rue Yvette MBIA ENZENGNE, Mindoubé 2, Libreville, Estuaire Province, Gabon",
        "road": "Rue Yvette MBIA ENZENGNE",
        "house_number": null,
        "neighbourhood": null,
        "suburb": "Mindoubé 2",
        "city_district": null,
        "city": "Libreville",
        "state": "Estuaire Province",
        "postcode": null,
        "country": "Gabon",
        "country_code": "ga"
      },
      "address": "Rue Yvette MBIA ENZENGNE, Libreville, Estuaire Province, Gabon"
    },
    {
      "lat": 0.3942274126771271,
      "lon": 9.467013135088276,
      "geoinfo": {
        "display_name": "Belle-Vue, Libreville, Estuaire Province, Gabon",
        "road": null,
        "house_number": null,
        "neighbourhood": null,
        "suburb": "Belle-Vue",
        "city_district": null,
        "city": "Libreville",
        "state": "Estuaire Province",
        "postcode": null,
        "country": "Gabon",
        "country_code": "ga"
      },
      "address": "Belle-Vue, Libreville, Estuaire Province, Gabon"
    },
    {
      "lat": 0.39193500322634006,
      "lon": 9.443551996314746,
      "geoinfo": {
        "display_name": "Avenue Rose Francine Rogombe, Centre Ville, Libreville, Estuaire Province, Gabon",
        "road": "Avenue Rose Francine Rogombe",
        "house_number": null,
        "neighbourhood": null,
        "suburb": "Centre Ville",
        "city_district": null,
        "city": "Libreville",
        "state": "Estuaire Province",
        "postcode": null,
        "country": "Gabon",
        "country_code": "ga"
      },
      "address": "Avenue Rose Francine Rogombe, Libreville, Estuaire Province, Gabon"
    },
    {
      "lat": 0.4222354748440157,
      "lon": 9.463879428311591,
      "geoinfo": {
        "display_name": "Boulevard des BANTU, Sotega, Libreville, Estuaire Province, Gabon",
        "road": "Boulevard des BANTU",
        "house_number": null,
        "neighbourhood": null,
        "suburb": "Sotega",
        "city_district": null,
        "city": "Libreville",
        "state": "Estuaire Province",
        "postcode": null,
        "country": "Gabon",
        "country_code": "ga"
      },
      "address": "Boulevard des BANTU, Libreville, Estuaire Province, Gabon"
    },
    {
      "lat": 0.38714485908411195,
      "lon": 9.487542929599039,
      "geoinfo": {
        "display_name": "Rue Yvette MBIA ENZENGNE, Mindoubé 2, Libreville, Estuaire Province, Gabon",
        "road": "Rue Yvette MBIA ENZENGNE",
        "house_number": null,
        "neighbourhood": null,
        "suburb": "Mindoubé 2",
        "city_district": null,
        "city": "Libreville",
        "state": "Estuaire Province",
        "postcode": null,
        "country": "Gabon",
        "country_code": "ga"
      },
      "address": "912, Rue Yvette MBIA ENZENGNE, Mindoubé 2, Libreville, Estuaire Province, Gabon"
    },
    {
      "lat": 0.3574773430506599,
      "lon": 9.453459612006144,
      "geoinfo": {
        "display_name": "Michel Marine, Oloumi, Libreville, Estuaire Province, Gabon",
        "road": null,
        "house_number": null,
        "neighbourhood": "Michel Marine",
        "suburb": "Oloumi",
        "city_district": null,
        "city": "Libreville",
        "state": "Estuaire Province",
        "postcode": null,
        "country": "Gabon",
        "country_code": "ga"
      },
      "address": "177, Michel Marine, Oloumi, Libreville, 84017 Estuaire Province, Gabon"
    },
    {
      "lat": 0.36105683202182265,
      "lon": 9.434476115468888,
      "geoinfo": {
        "display_name": "Glass, Libreville, Estuaire Province, Gabon",
        "road": null,
        "house_number": null,
        "neighbourhood": null,
        "suburb": "Glass",
        "city_district": null,
        "city": "Libreville",
        "state": "Estuaire Province",
        "postcode": null,
        "country": "Gabon",
        "country_code": "ga"
      },
      "address": "365, Glass, Libreville, 07282 Estuaire Province, Gabon"
    },
    {
      "lat": 0.3815886489466834,
      "lon": 9.43334521642089,
      "geoinfo": {
        "display_name": "Centre Ville, Libreville, Estuaire Province, Gabon",
        "road": null,
        "house_number": null,
        "neighbourhood": null,
        "suburb": "Centre Ville",
        "city_district": null,
        "city": "Libreville",
        "state": "Estuaire Province",
        "postcode": null,
        "country": "Gabon",
        "country_code": "ga"
      },
      "address": "794, Centre Ville, Libreville, 23059 Estuaire Province, Gabon"
    },
    {
      "lat": 0.40626278553071077,
      "lon": 9.480298819220343,
      "geoinfo": {
        "display_name": "Terre-Nouvelle, Libreville, Estuaire Province, Gabon",
        "road": null,
        "house_number": null,
        "neighbourhood": null,
        "suburb": "Terre-Nouvelle",
        "city_district": null,
        "city": "Libreville",
        "state": "Estuaire Province",
        "postcode": null,
        "country": "Gabon",
        "country_code": "ga"
      },
      "address": "692, Terre-Nouvelle, Libreville, 03814 Estuaire Province, Gabon"
    },
    {
      "lat": 0.3827187640785474,
      "lon": 9.433080347420642,
      "geoinfo": {
        "display_name": "Centre Ville, Libreville, Estuaire Province, Gabon",
        "road": null,
        "house_number": null,
        "neighbourhood": null,
        "suburb": "Centre Ville",
        "city_district": null,
        "city": "Libreville",
        "state": "Estuaire Province",
        "postcode": null,
        "country": "Gabon",
        "country_code": "ga"
      },
      "address": "812, Centre Ville, Libreville, 43842 Estuaire Province, Gabon"
    },
    {
      "lat": 0.35055836193937545,
      "lon": 9.465686114967568,
      "geoinfo": {
        "display_name": "Pont-Nomba, Acaé, Owendo, Libreville, Estuaire Province, Gabon",
        "road": null,
        "house_number": null,
        "neighbourhood": null,
        "suburb": "Acaé",
        "city_district": null,
        "city": "Owendo",
        "state": "Estuaire Province",
        "postcode": null,
        "country": "Gabon",
        "country_code": "ga"
      },
      "address": "939, Pont-Nomba, Acaé, Owendo, Libreville, 28948 Estuaire Province, Gabon"
    },
    {
      "lat": 0.409540892800055,
      "lon": 9.423186770055597,
      "geoinfo": {
        "display_name": "lollypop bar, Boulevard de la Nation, Quaben, Louis, Libreville, Estuaire Province, Gabon",
        "road": "Boulevard de la Nation",
        "house_number": null,
        "neighbourhood": null,
        "suburb": "Louis",
        "city_district": null,
        "city": "Libreville",
        "state": "Estuaire Province",
        "postcode": null,
        "country": "Gabon",
        "country_code": "ga"
      },
      "address": "830, Boulevard de la Nation, Libreville, 64409 Estuaire Province, Gabon"
    }
  ],
  "updated_at": "2025-10-19T05:14:28.239383+00:00",
  "_kind": "geo_samples"
}