{
  "country_code": "GA",
  "country": "Gabon",
  "city": "Port-Gentil",
  "geonameid": 2396518,
  "target_addresses": 8,
  "samples": [
    {
      "lat": -0.7138679502382492,
      "lon": 8.781850353182156,
      "geoinfo": {
        "display_name": "Rue Joséphine Dupré, Rombintchozo, Port-Gentil, Ogooué-Maritime Province, Gabon",
        "road": "Rue Joséphine Dupré",
        "house_number": null,
        "neighbourhood": null,
        "suburb": "Rombintchozo",
        "city_district": null,
        "city": "Port-Gentil",
        "state": "Ogooué-Maritime Province",
        "postcode": null,
        "country": "Gabon",
        "country_code": "ga"
      },
      "address": "Rue Joséphine Dupré, Port-Gentil, Ogooué-Maritime Province, Gabon"
    },
    {
      "lat": -0.7168168072746836,
      "lon": 8.797149971410857,
      "geoinfo": {
        "display_name": "Jardin du Wharf, Rombintchozo, Port-Gentil, Ogooué-Maritime Province, Gabon",
        "road": null,
        "house_number": null,
        "neighbourhood": null,
        "suburb": "Rombintchozo",
        "city_district": null,
        "city": "Port-Gentil",
        "state": "Ogooué-Maritime Province",
        "postcode": null,
        "country": "Gabon",
        "country_code": "ga"
      },
      "address": "Rombintchozo, Port-Gentil, Ogooué-Maritime Province, Gabon"
    },
    {
      "lat": -0.6859644709728566,
      "lon": 8.779552160088352,
      "geoinfo": {
        "display_name": "Nouveau Port, Port-Gentil, Ogooué-Maritime Province, Gabon",
        "road": null,
        "house_number": null,
        "neighbourhood": null,
        "suburb": null,
        "city_district": null,
        "city": "Port-Gentil",
        "state": "Ogooué-Maritime Province",
        "postcode": null,
        "country": "Gabon",
        "country_code": "ga"
      },
      "address": "Port-Gentil, Ogooué-Maritime Province, Gabon"
    },
    {
      "lat": -0.7542584784014813,
      "lon": 8.783085898570617,
      "geoinfo": {
        "display_name": "Ntchengué, Matenda, Port-Gentil, Ogooué-Maritime Province, Gabon",
        "road": "Ntchengué",
        "house_number": null,
        "neighbourhood": "Matenda",
        "suburb": null,
        "city_district": null,
        "city": "Port-Gentil",
        "state": "Ogooué-Maritime Province",
        "postcode": null,
        "country": "Gabon",
        "country_code": "ga"
      },
      "address": "Ntchengué, Port-Gentil, Ogooué-Maritime Province, Gabon"
    },
    {
      "lat": -0.6783948957333892,
      "lon": 8.763270946330959,
      "geoinfo": {
        "display_name": "Route de Sogara, Port-Gentil, Ogooué-Maritime Province, Gabon",
        "road": "Route de Sogara",
        "house_number": null,
        "neighbourhood": null,
        "suburb": null,
        "city_district": null,
        "city": "Port-Gentil",
        "state": "Ogooué-Maritime Province",
        "postcode": null,
        "country": "Gabon",
        "country_code": "ga"
      },
      "address": "Route de Sogara, Port-Gentil, Ogooué-Maritime Province, Gabon"
    },
    {
      "lat": -0.708846461150632,
      "lon": 8.743754864165421,
      "geoinfo": {
        "display_name": "Golf Club de Port-Gentil, Cap Lopez, Port-Gentil, Ogooué-Maritime Province, Gabon",
        "road": "Cap Lopez",
        "house_number": null,
        "neighbourhood": null,
        "suburb": null,
        "city_district": null,
        "city": "Port-Gentil",
        "state": "Ogooué-Maritime Province",
        "postcode": null,
        "country": "Gabon",
        "country_code": "ga"
      },
      "address": "Cap Lopez, Port-Gentil, Ogooué-Maritime Province, Gabon"
    },
    {
      "lat": -0.7193239650351968,
      "lon": 8.805521421099055,
      "geoinfo": {
        "display_name": "Cité Akosso, Port-Gentil, Ogooué-Maritime Province, Gabon",
        "road": null,
        "house_number": null,
        "neighbourhood": "Cité Akosso",
        "suburb": null,
        "city_district": null,
        "city": "Port-Gentil",
        "state": "Ogooué-Maritime Province",
        "postcode": null,
        "country": "Gabon",
        "country_code": "ga"
      },
      "address": "Cité Akosso, Port-Gentil, Ogooué-Maritime Province, Gabon"
    },
    {
      "lat": -0.7543257333207584,
      "lon": 8.802019941644343,
      "geoinfo": {
        "display_name": "Matenda, Port-Gentil, Ogooué-Maritime Province, Gabon",
        "road": null,
        "house_number": null,
        "neighbourhood": "Matenda",
        "suburb": null,
        "city_district": null,
        "city": "Port-Gentil",
        "state": "Ogooué-Maritime Province",
        "postcode": null,
        "country": "Gabon",
        "country_code": "ga"
      },
      "address": "Matenda, Port-Gentil, Ogooué-Maritime Province, Gabon"
    },
    {
      "lat": -0.6980673259172471,
      "lon": 8.819725329172213,
      "geoinfo": {
        "display_name": "Port-Gentil, Ogooué-Maritime Province, Gabon",
        "road": null,
        "house_number": null,
        "neighbourhood": null,
        "suburb": null,
        "city_district": null,
        "city": "Port-Gentil",
        "state": "Ogooué-Maritime Province",
        "postcode": null,
        "country": "Gabon",
        "country_code": "ga"
      },
      "address": "025, Port-Gentil, 96923 Ogooué-Maritime Province, Gabon"
    },
    {
      "lat": -0.6894180316240608,
      "lon": 8.778648779630144,
      "geoinfo": {
        "display_name": "Nouveau Port, Port-Gentil, Ogooué-Maritime Province, Gabon",
        "road": null,
        "house_number": null,
        "neighbourhood": null,
        "suburb": null,
        "city_district": null,
        "city": "Port-Gentil",
        "state": "Ogooué-Maritime Province",
        "postcode": null,
        "country": "Gabon",
        "country_code": "ga"
      },
      "address": "129, Nouveau Port, Port-Gentil, 41443 Ogooué-Maritime Province, Gabon"
    },
    {
      "lat": -0.7470439960528263,
      "lon": 8.758398210048222,
      "geoinfo": {
        "display_name": "Port-Gentil, Ogooué-Maritime Province, Gabon",
        "road": null,
        "house_number": null,
        "neighbourhood": null,
        "suburb": null,
        "city_district": null,
        "city": "Port-Gentil",
        "state": "Ogooué-Maritime Province",
        "postcode": null,
        "country": "Gabon",
        "country_code": "ga"
      },
      "address": "012, Port-Gentil, 68762 Ogooué-Maritime Province, Gabon"
    },
    {
      "lat": -0.7511684108604973,
      "lon": 8.80092637230449,
      "geoinfo": {
        "display_name": "Port Joséphine, Cité Akosso, Port-Gentil, Ogooué-Maritime Province, Gabon",
        "road": null,
        "house_number": null,
        "neighbourhood": "Cité Akosso",
        "suburb": null,
        "city_district": null,
        "city": "Port-Gentil",
        "state": "Ogooué-Maritime Province",
        "postcode": null,
        "country": "Gabon",
        "country_code": "ga"
      },
      "address": "084, Port Joséphine, Cité Akosso, Port-Gentil, 33905 Ogooué-Maritime Province, Gabon"
    },
    {
      "lat": -0.7496022448687482,
      "lon": 8.806872289496678,
      "geoinfo": {
        "display_name": "Port Joséphine, Cité Akosso, Port-Gentil, Ogooué-Maritime Province, Gabon",
        "road": null,
        "house_number": null,
        "neighbourhood": "Cité Akosso",
        "suburb": null,
        "city_district": null,
        "city": "Port-Gentil",
        "state": "Ogooué-Maritime Province",
        "postcode": null,
        "country": "Gabon",
        "country_code": "ga"
      },
      "address": "465, Port Joséphine, Cité Akosso, Port-Gentil, 22734 Ogooué-Maritime Province, Gabon"
    },
    {
      "lat": -0.7084163659772681,
      "lon": 8.74643181580861,
      "geoinfo": {
        "display_name": "Port-Gentil, Ogooué-Maritime Province, Gabon",
        "road": null,
        "house_number": null,
        "neighbourhood": null,
        "suburb": null,
        "city_district": null,
        "city": "Port-Gentil",
        "state": "Ogooué-Maritime Province",
        "postcode": null,
        "country": "Gabon",
        "country_code": "ga"
      },
      "address": "990, Port-Gentil, 77389 Ogooué-Maritime Province, Gabon"
    },
    {
      "lat": -0.7386338844655643,
      "lon": 8.779593996818596,
      "geoinfo": {
        "display_name": "Cité Rose, Port-Gentil, Ogooué-Maritime Province, Gabon",
        "road": null,
        "house_number": null,
        "neighbourhood": "Cité Rose",
        "suburb": null,
        "city_district": null,
        "city": "Port-Gentil",
        "state": "Ogooué-Maritime Province",
        "postcode": null,
        "country": "Gabon",
        "country_code": "ga"
      },
      "address": "971, Cité Rose, Port-Gentil, 43463 Ogooué-Maritime Province, Gabon"
    },
    {
      "lat": -0.737174160106148,
      "lon": 8.777275555401907,
      "geoinfo": {
        "display_name": "Cité Rose, Rombintchozo, Port-Gentil, Ogooué-Maritime Province, Gabon",
        "road": null,
        "house_number": null,
        "neighbourhood": "Cité Rose",
        "suburb": "Rombintchozo",
        "city_district": null,
        "city": "Port-Gentil",
        "state": "Ogooué-Maritime Province",
        "postcode": null,
        "country": "Gabon",
        "country_code": "ga"
      },
      "address": "475, Cité Rose, Rombintchozo, Port-Gentil, 46061 Ogooué-Maritime Province, Gabon"
    }
  ],
  "updated_at": "2025-10-19T04:02:10.548106+00:00",
  "_kind": "geo_samples"
}