{
  "country_code": "GH",
  "country": "Ghana",
  "city": "Akim Oda",
  "geonameid": 2296564,
  "target_addresses": 2,
  "samples": [
    {
      "lat": 5.9632683203737935,
      "lon": -0.9652216844339456,
      "geoinfo": {
        "display_name": "Denkyembour District, Eastern Region, Ghana",
        "road": null,
        "house_number": null,
        "neighbourhood": null,
        "suburb": null,
        "city_district": null,
        "city": null,
        "state": "Eastern Region",
        "postcode": null,
        "country": "Ghana",
        "country_code": "gh"
      },
      "address": "Akim Oda, Eastern Region, Ghana"
    },
    {
      "lat": 5.902715463547777,
      "lon": -0.9996321318619733,
      "geoinfo": {
        "display_name": "R62, Oda, Birim South District, Eastern Region, Ghana",
        "road": "R62",
        "house_number": null,
        "neighbourhood": null,
        "suburb": null,
        "city_district": null,
        "city": "Oda",
        "state": "Eastern Region",
        "postcode": null,
        "country": "Ghana",
        "country_code": "gh"
      },
      "address": "R62, Akim Oda, Eastern Region, Ghana"
    },
    {
      "lat": 5.938298746523663,
      "lon": -0.9773812862886818,
      "geoinfo": {
        "display_name": "Akim Oda, Birim Central Municipal District, Eastern Region, Ghana",
        "road": null,
        "house_number": null,
        "neighbourhood": null,
        "suburb": null,
        "city_district": null,
        "city": "Akim Oda",
        "state": "Eastern Region",
        "postcode": null,
        "country": "Ghana",
        "country_code": "gh"
      },
      "address": "169, Akim Oda, Birim Central Municipal District, 54264 Eastern Region, Ghana"
    },
    {
      "lat": 5.900285776690119,
      "lon": -0.9578254424696168,
      "geoinfo": {
        "display_name": "Ntutumerin, Birim South District, Eastern Region, Ghana",
        "road": null,
        "house_number": null,
        "neighbourhood": null,
        "suburb": null,
        "city_district": null,
        "city": "Ntutumerin",
        "state": "Eastern Region",
        "postcode": null,
        "country": "Ghana",
        "country_code": "gh"
      },
      "address": "733, Akim Oda, 67568 Eastern Region, Ghana"
    }
  ],
  "updated_at": "2025-10-19T02:46:40.301789+00:00",
  "_kind": "geo_samples"
}