{
  "country_code": "GH",
  "country": "Ghana",
  "city": "Anloga",
  "geonameid": 2304548,
  "target_addresses": 2,
  "samples": [
    {
      "lat": 5.821759846497471,
      "lon": 0.9214629211088425,
      "geoinfo": {
        "display_name": "Woe, Keta Municipal District, Volta Region, Ghana",
        "road": null,
        "house_number": null,
        "neighbourhood": null,
        "suburb": null,
        "city_district": null,
        "city": "Woe",
        "state": "Volta Region",
        "postcode": null,
        "country": "Ghana",
        "country_code": "gh"
      },
      "address": "Anloga, Volta Region, Ghana"
    },
    {
      "lat": 5.795409302325629,
      "lon": 0.8782029982497142,
      "geoinfo": {
        "display_name": "Makolives Gas, R11, Whuti, Anloga District, Volta Region, Ghana",
        "road": "R11",
        "house_number": null,
        "neighbourhood": null,
        "suburb": null,
        "city_district": null,
        "city": "Whuti",
        "state": "Volta Region",
        "postcode": null,
        "country": "Ghana",
        "country_code": "gh"
      },
      "address": "R11, Anloga, Volta Region, Ghana"
    },
    {
      "lat": 5.804050950786712,
      "lon": 0.9339519330509822,
      "geoinfo": {
        "display_name": "Anloga District, Volta Region, Ghana",
        "road": null,
        "house_number": null,
        "neighbourhood": null,
        "suburb": null,
        "city_district": null,
        "city": null,
        "state": "Volta Region",
        "postcode": null,
        "country": "Ghana",
        "country_code": "gh"
      },
      "address": "348, Anloga District, 88307 Volta Region, Ghana"
    },
    {
      "lat": 5.802066052281431,
      "lon": 0.8953151623553279,
      "geoinfo": {
        "display_name": "Anloga, Anloga District, Volta Region, Ghana",
        "road": null,
        "house_number": null,
        "neighbourhood": null,
        "suburb": null,
        "city_district": null,
        "city": "Anloga",
        "state": "Volta Region",
        "postcode": null,
        "country": "Ghana",
        "country_code": "gh"
      },
      "address": "552, Anloga, Anloga District, 16589 Volta Region, Ghana"
    }
  ],
  "updated_at": "2025-10-19T04:09:57.297785+00:00",
  "_kind": "geo_samples"
}