{
  "country_code": "GH",
  "country": "Ghana",
  "city": "Assin Foso",
  "geonameid": 11467879,
  "target_addresses": 2,
  "samples": [
    {
      "lat": 5.673133661849888,
      "lon": -1.675199609207909,
      "geoinfo": {
        "display_name": "Subriso, Twifo Atti Morkwa District, Central Region, Ghana",
        "road": null,
        "house_number": null,
        "neighbourhood": null,
        "suburb": null,
        "city_district": null,
        "city": "Subriso",
        "state": "Central Region",
        "postcode": null,
        "country": "Ghana",
        "country_code": "gh"
      },
      "address": "Assin Foso, Central Region, Ghana"
    },
    {
      "lat": 5.683421602456965,
      "lon": -1.6168640816641509,
      "geoinfo": {
        "display_name": "Twifo Praso - Awisam Road, Sabenso, Morkwa-Bremeng, Twifo Atti Morkwa District, Central Region, Ghana",
        "road": "Twifo Praso - Awisam Road",
        "house_number": null,
        "neighbourhood": null,
        "suburb": null,
        "city_district": null,
        "city": "Morkwa-Bremeng",
        "state": "Central Region",
        "postcode": null,
        "country": "Ghana",
        "country_code": "gh"
      },
      "address": "172, Twifo Praso - Awisam Road, Sabenso, Morkwa-Bremeng, Twifo Atti Morkwa District, 53392 Central Region, Ghana"
    },
    {
      "lat": 5.693220492885107,
      "lon": -1.6113275267593197,
      "geoinfo": {
        "display_name": "Twifo Praso - Awisam Road, Sabenso, Morkwa-Bremeng, Twifo Atti Morkwa District, Central Region, Ghana",
        "road": "Twifo Praso - Awisam Road",
        "house_number": null,
        "neighbourhood": null,
        "suburb": null,
        "city_district": null,
        "city": "Morkwa-Bremeng",
        "state": "Central Region",
        "postcode": null,
        "country": "Ghana",
        "country_code": "gh"
      },
      "address": "849, Twifo Praso - Awisam Road, Sabenso, Morkwa-Bremeng, Twifo Atti Morkwa District, 56557 Central Region, Ghana"
    }
  ],
  "updated_at": "2025-10-19T04:25:09.141044+00:00",
  "_kind": "geo_samples"
}