{
  "country_code": "GH",
  "country": "Ghana",
  "city": "Kasoa",
  "geonameid": 2296458,
  "target_addresses": 2,
  "samples": [
    {
      "lat": 5.515980962043089,
      "lon": -0.41676037416653616,
      "geoinfo": {
        "display_name": "Nyanyano Kakraba, Kasoa, Gomoa East District, Central Region, Ghana",
        "road": null,
        "house_number": null,
        "neighbourhood": null,
        "suburb": "Nyanyano Kakraba",
        "city_district": null,
        "city": "Kasoa",
        "state": "Central Region",
        "postcode": null,
        "country": "Ghana",
        "country_code": "gh"
      },
      "address": "Nyanyano Kakraba, Kasoa, Central Region, Ghana"
    },
    {
      "lat": 5.503605497603365,
      "lon": -0.4353134368864777,
      "geoinfo": {
        "display_name": "Gomoa East District, Central Region, Ghana",
        "road": null,
        "house_number": null,
        "neighbourhood": null,
        "suburb": null,
        "city_district": null,
        "city": null,
        "state": "Central Region",
        "postcode": null,
        "country": "Ghana",
        "country_code": "gh"
      },
      "address": "Kasoa, Central Region, Ghana"
    },
    {
      "lat": 5.505042924585923,
      "lon": -0.4450680714040656,
      "geoinfo": {
        "display_name": "Gomoa East District, Central Region, Ghana",
        "road": null,
        "house_number": null,
        "neighbourhood": null,
        "suburb": null,
        "city_district": null,
        "city": null,
        "state": "Central Region",
        "postcode": null,
        "country": "Ghana",
        "country_code": "gh"
      },
      "address": "777, Kasoa, 38927 Central Region, Ghana"
    },
    {
      "lat": 5.56311555918323,
      "lon": -0.4404513405742889,
      "geoinfo": {
        "display_name": "Akweley Nkwanta, Awutu Senya East Municipal District, Central Region, Ghana",
        "road": null,
        "house_number": null,
        "neighbourhood": null,
        "suburb": "Akweley Nkwanta",
        "city_district": null,
        "city": null,
        "state": "Central Region",
        "postcode": null,
        "country": "Ghana",
        "country_code": "gh"
      },
      "address": "183, Akweley Nkwanta, Awutu Senya East Municipal District, 68479 Central Region, Ghana"
    }
  ],
  "updated_at": "2025-10-19T04:09:23.404442+00:00",
  "_kind": "geo_samples"
}