{
  "country_code": "GH",
  "country": "Ghana",
  "city": "Konongo",
  "geonameid": 2299349,
  "target_addresses": 2,
  "samples": [
    {
      "lat": 6.627055113471174,
      "lon": -1.1783471430871544,
      "geoinfo": {
        "display_name": "Asante-Akim Central Municipal District, Ashanti Region, Ghana",
        "road": null,
        "house_number": null,
        "neighbourhood": null,
        "suburb": null,
        "city_district": null,
        "city": null,
        "state": "Ashanti Region",
        "postcode": null,
        "country": "Ghana",
        "country_code": "gh"
      },
      "address": "Konongo, Ashanti Region, Ghana"
    },
    {
      "lat": 6.621819952789725,
      "lon": -1.2137603787683884,
      "geoinfo": {
        "display_name": "Tahiru Abdellah Street, Konongo, Asante-Akim Central Municipal District, Ashanti Region, Ghana",
        "road": "Tahiru Abdellah Street",
        "house_number": null,
        "neighbourhood": null,
        "suburb": null,
        "city_district": null,
        "city": "Konongo",
        "state": "Ashanti Region",
        "postcode": null,
        "country": "Ghana",
        "country_code": "gh"
      },
      "address": "Tahiru Abdellah Street, Konongo, Ashanti Region, Ghana"
    },
    {
      "lat": 6.606742051583169,
      "lon": -1.2267452948449804,
      "geoinfo": {
        "display_name": "Bomireso, Asante-Akim Central Municipal District, Ashanti Region, Ghana",
        "road": null,
        "house_number": null,
        "neighbourhood": null,
        "suburb": null,
        "city_district": null,
        "city": "Bomireso",
        "state": "Ashanti Region",
        "postcode": null,
        "country": "Ghana",
        "country_code": "gh"
      },
      "address": "603, Konongo, 17051 Ashanti Region, Ghana"
    },
    {
      "lat": 6.591842489520601,
      "lon": -1.2222651438437686,
      "geoinfo": {
        "display_name": "Bomireso, Asante-Akim Central Municipal District, Ashanti Region, Ghana",
        "road": null,
        "house_number": null,
        "neighbourhood": null,
        "suburb": null,
        "city_district": null,
        "city": "Bomireso",
        "state": "Ashanti Region",
        "postcode": null,
        "country": "Ghana",
        "country_code": "gh"
      },
      "address": "968, Konongo, 44978 Ashanti Region, Ghana"
    }
  ],
  "updated_at": "2025-10-19T04:23:22.377404+00:00",
  "_kind": "geo_samples"
}