{
  "country_code": "GH",
  "country": "Ghana",
  "city": "Medina Estates",
  "geonameid": 2298330,
  "target_addresses": 5,
  "samples": [
    {
      "lat": 5.684891261694393,
      "lon": -0.176035165055373,
      "geoinfo": {
        "display_name": "Ritz, La-Nkwantanang-Madina Municipal District, Greater Accra Region, Ghana",
        "road": null,
        "house_number": null,
        "neighbourhood": "Ritz",
        "suburb": null,
        "city_district": null,
        "city": null,
        "state": "Greater Accra Region",
        "postcode": null,
        "country": "Ghana",
        "country_code": "gh"
      },
      "address": "Ritz, La-Nkwantanang-Madina Municipal District, 76022 Greater Accra Region, Ghana"
    },
    {
      "lat": 5.682700588026639,
      "lon": -0.17571568764511175,
      "geoinfo": {
        "display_name": "Redco, North Legon, La-Nkwantanang-Madina Municipal District, Greater Accra Region, Ghana",
        "road": null,
        "house_number": null,
        "neighbourhood": "Redco",
        "suburb": "North Legon",
        "city_district": null,
        "city": null,
        "state": "Greater Accra Region",
        "postcode": null,
        "country": "Ghana",
        "country_code": "gh"
      },
      "address": "395, Redco, North Legon, La-Nkwantanang-Madina Municipal District, 26627 Greater Accra Region, Ghana"
    },
    {
      "lat": 5.6973924791471235,
      "lon": -0.14919118432607437,
      "geoinfo": {
        "display_name": "Ashaley Botwe, Adenta, Adenta Municipal District, Greater Accra Region, Ghana",
        "road": null,
        "house_number": null,
        "neighbourhood": null,
        "suburb": "Ashaley Botwe",
        "city_district": null,
        "city": "Adenta",
        "state": "Greater Accra Region",
        "postcode": null,
        "country": "Ghana",
        "country_code": "gh"
      },
      "address": "998, Ashaley Botwe, Adenta, Adenta Municipal District, 49139 Greater Accra Region, Ghana"
    },
    {
      "lat": 5.680936327501364,
      "lon": -0.1956704171953527,
      "geoinfo": {
        "display_name": "Dar Es Salaam Street, Ecomog, Agbogba, Ga East Municipal District, Greater Accra Region, Ghana",
        "road": "Dar Es Salaam Street",
        "house_number": null,
        "neighbourhood": "Ecomog",
        "suburb": "Agbogba",
        "city_district": null,
        "city": null,
        "state": "Greater Accra Region",
        "postcode": null,
        "country": "Ghana",
        "country_code": "gh"
      },
      "address": "258, Dar Es Salaam Street, Ecomog, Agbogba, Ga East Municipal District, 25285 Greater Accra Region, Ghana"
    },
    {
      "lat": 5.6557684869574905,
      "lon": -0.19671975098499528,
      "geoinfo": {
        "display_name": "Vice Chancellor's Crescent, Little Legon, Legon, Accra, Ayawaso West Municipal District, Greater Accra Region, Ghana",
        "road": "Vice Chancellor's Crescent",
        "house_number": null,
        "neighbourhood": null,
        "suburb": "Little Legon",
        "city_district": null,
        "city": "Accra",
        "state": "Greater Accra Region",
        "postcode": null,
        "country": "Ghana",
        "country_code": "gh"
      },
      "address": "073, Vice Chancellor's Crescent, Little Legon, Legon, Accra, Ayawaso West Municipal District, 41583 Greater Accra Region, Ghana"
    }
  ],
  "updated_at": "2025-10-19T04:34:18.658807+00:00",
  "_kind": "geo_samples"
}