{
  "country_code": "GH",
  "country": "Ghana",
  "city": "New Achimota",
  "geonameid": 8541923,
  "target_addresses": 2,
  "samples": [
    {
      "lat": 5.6275421473082305,
      "lon": -0.24530520939063014,
      "geoinfo": {
        "display_name": "5th Street, Mile 7, New Achimota, Ga North Municipal District, Greater Accra Region, Ghana",
        "road": "5th Street",
        "house_number": null,
        "neighbourhood": "Mile 7",
        "suburb": "New Achimota",
        "city_district": null,
        "city": null,
        "state": "Greater Accra Region",
        "postcode": null,
        "country": "Ghana",
        "country_code": "gh"
      },
      "address": "5th Street, New Achimota, Greater Accra Region, Ghana"
    },
    {
      "lat": 5.627671274183613,
      "lon": -0.23684086160841367,
      "geoinfo": {
        "display_name": "Mile 7, New Achimota, Ga North Municipal District, Greater Accra Region, Ghana",
        "road": null,
        "house_number": null,
        "neighbourhood": "Mile 7",
        "suburb": "New Achimota",
        "city_district": null,
        "city": null,
        "state": "Greater Accra Region",
        "postcode": null,
        "country": "Ghana",
        "country_code": "gh"
      },
      "address": "Mile 7, New Achimota, Greater Accra Region, Ghana"
    },
    {
      "lat": 5.610032420945748,
      "lon": -0.29915851081590683,
      "geoinfo": {
        "display_name": "Ablekuma, Ga Central Municipal District, Greater Accra Region, Ghana",
        "road": null,
        "house_number": null,
        "neighbourhood": null,
        "suburb": null,
        "city_district": null,
        "city": "Ablekuma",
        "state": "Greater Accra Region",
        "postcode": null,
        "country": "Ghana",
        "country_code": "gh"
      },
      "address": "419, Ablekuma, Ga Central Municipal District, 34707 Greater Accra Region, Ghana"
    },
    {
      "lat": 5.591908128025604,
      "lon": -0.25533594320796404,
      "geoinfo": {
        "display_name": "Darkuman, Accra, Ablekuma North Municipal District, Greater Accra Region, Ghana",
        "road": null,
        "house_number": null,
        "neighbourhood": null,
        "suburb": "Darkuman",
        "city_district": null,
        "city": "Accra",
        "state": "Greater Accra Region",
        "postcode": null,
        "country": "Ghana",
        "country_code": "gh"
      },
      "address": "680, Darkuman, Accra, Ablekuma North Municipal District, 95548 Greater Accra Region, Ghana"
    }
  ],
  "updated_at": "2025-10-19T02:29:25.293413+00:00",
  "_kind": "geo_samples"
}