{
  "country_code": "GH",
  "country": "Ghana",
  "city": "Tarkwa",
  "geonameid": 2294768,
  "target_addresses": 2,
  "samples": [
    {
      "lat": 5.300342594351827,
      "lon": -1.9852998510159234,
      "geoinfo": {
        "display_name": "Tarkwa Zongo, Tarkwa, Tarkwa-Nsuaem Municipal District, Western Region, Ghana",
        "road": null,
        "house_number": null,
        "neighbourhood": null,
        "suburb": "Tarkwa Zongo",
        "city_district": null,
        "city": "Tarkwa",
        "state": "Western Region",
        "postcode": null,
        "country": "Ghana",
        "country_code": "gh"
      },
      "address": "Tarkwa Zongo, Tarkwa, Western Region, Ghana"
    },
    {
      "lat": 5.302636620172214,
      "lon": -1.9756415283235396,
      "geoinfo": {
        "display_name": "Tarkwa, Tarkwa-Nsuaem Municipal District, Western Region, Ghana",
        "road": null,
        "house_number": null,
        "neighbourhood": null,
        "suburb": null,
        "city_district": null,
        "city": "Tarkwa",
        "state": "Western Region",
        "postcode": null,
        "country": "Ghana",
        "country_code": "gh"
      },
      "address": "Tarkwa, Western Region, Ghana"
    },
    {
      "lat": 5.296839453410389,
      "lon": -2.0226571097482995,
      "geoinfo": {
        "display_name": "Government Hill, Tarkwa, Tarkwa-Nsuaem Municipal District, Western Region, Ghana",
        "road": null,
        "house_number": null,
        "neighbourhood": null,
        "suburb": "Government Hill",
        "city_district": null,
        "city": "Tarkwa",
        "state": "Western Region",
        "postcode": null,
        "country": "Ghana",
        "country_code": "gh"
      },
      "address": "907, Government Hill, Tarkwa, Tarkwa-Nsuaem Municipal District, 20018 Western Region, Ghana"
    },
    {
      "lat": 5.2995322824098805,
      "lon": -2.027263571790425,
      "geoinfo": {
        "display_name": "Mine Haul Road, Tarkwa-Nsuaem Municipal District, Western Region, Ghana",
        "road": "Mine Haul Road",
        "house_number": null,
        "neighbourhood": null,
        "suburb": null,
        "city_district": null,
        "city": null,
        "state": "Western Region",
        "postcode": null,
        "country": "Ghana",
        "country_code": "gh"
      },
      "address": "396, Mine Haul Road, Tarkwa, 13604 Western Region, Ghana"
    }
  ],
  "updated_at": "2025-10-19T04:08:44.178395+00:00",
  "_kind": "geo_samples"
}