{
  "country_code": "CK",
  "country": "Cook Islands",
  "city": "Avarua",
  "geonameid": 4035715,
  "target_addresses": 100,
  "samples": [
    {
      "lat": -21.18027630744856,
      "lon": -159.74524203703626,
      "geoinfo": {
        "display_name": "Pue, Avarua, Rarotonga, Cook Islands",
        "road": null,
        "house_number": null,
        "neighbourhood": null,
        "suburb": "Pue",
        "city_district": null,
        "city": "Avarua",
        "state": "Rarotonga",
        "postcode": null,
        "country": "Cook Islands",
        "country_code": "ck"
      },
      "address": "Pue, Avarua, Rarotonga, Cook Islands"
    },
    {
      "lat": -21.166895684111086,
      "lon": -159.77717505087824,
      "geoinfo": {
        "display_name": "Avarua, Rarotonga, Cook Islands",
        "road": null,
        "house_number": null,
        "neighbourhood": null,
        "suburb": null,
        "city_district": null,
        "city": "Avarua",
        "state": "Rarotonga",
        "postcode": null,
        "country": "Cook Islands",
        "country_code": "ck"
      },
      "address": "Avarua, Rarotonga, Cook Islands"
    },
    {
      "lat": -21.214525413925244,
      "lon": -159.76487143186358,
      "geoinfo": {
        "display_name": "Happy Valley Road, Takuvaine Valley, Avarua, Rarotonga, Cook Islands",
        "road": "Happy Valley Road",
        "house_number": null,
        "neighbourhood": null,
        "suburb": null,
        "city_district": null,
        "city": "Avarua",
        "state": "Rarotonga",
        "postcode": null,
        "country": "Cook Islands",
        "country_code": "ck"
      },
      "address": "Happy Valley Road, Avarua, Rarotonga, Cook Islands"
    },
    {
      "lat": -21.215174671393868,
      "lon": -159.80095771653004,
      "geoinfo": {
        "display_name": "Hunters track along ridge, Avatiu, Nikao, Avarua, Rarotonga, Cook Islands",
        "road": "Hunters track along ridge",
        "house_number": null,
        "neighbourhood": null,
        "suburb": "Avatiu",
        "city_district": null,
        "city": "Avarua",
        "state": "Rarotonga",
        "postcode": null,
        "country": "Cook Islands",
        "country_code": "ck"
      },
      "address": "Hunters track along ridge, Avarua, Rarotonga, Cook Islands"
    },
    {
      "lat": -21.21531544142068,
      "lon": -159.7414118042246,
      "geoinfo": {
        "display_name": "Karekare Road, Matavera, Rarotonga, Cook Islands",
        "road": "Karekare Road",
        "house_number": null,
        "neighbourhood": null,
        "suburb": null,
        "city_district": null,
        "city": "Matavera",
        "state": "Rarotonga",
        "postcode": null,
        "country": "Cook Islands",
        "country_code": "ck"
      },
      "address": "Karekare Road, Avarua, Rarotonga, Cook Islands"
    },
    {
      "lat": -21.201120262646004,
      "lon": -159.796206556109,
      "geoinfo": {
        "display_name": "Ara Tapu, Avatiu, Nikao, Avarua, Rarotonga, Cook Islands",
        "road": "Ara Tapu",
        "house_number": null,
        "neighbourhood": null,
        "suburb": "Avatiu",
        "city_district": null,
        "city": "Avarua",
        "state": "Rarotonga",
        "postcode": null,
        "country": "Cook Islands",
        "country_code": "ck"
      },
      "address": "Ara Tapu, Avarua, Rarotonga, Cook Islands"
    },
    {
      "lat": -21.231793580413928,
      "lon": -159.77595812805686,
      "geoinfo": {
        "display_name": "Te Kou Track, Avarua, Rarotonga, Cook Islands",
        "road": "Te Kou Track",
        "house_number": null,
        "neighbourhood": null,
        "suburb": null,
        "city_district": null,
        "city": "Avarua",
        "state": "Rarotonga",
        "postcode": null,
        "country": "Cook Islands",
        "country_code": "ck"
      },
      "address": "Te Kou Track, Avarua, Rarotonga, Cook Islands"
    },
    {
      "lat": -21.228533571548443,
      "lon": -159.76249507013722,
      "geoinfo": {
        "display_name": "Not quite to top of Te Manga, Avarua, Rarotonga, Cook Islands",
        "road": "Not quite to top of Te Manga",
        "house_number": null,
        "neighbourhood": null,
        "suburb": null,
        "city_district": null,
        "city": "Avarua",
        "state": "Rarotonga",
        "postcode": null,
        "country": "Cook Islands",
        "country_code": "ck"
      },
      "address": "Not quite to top of Te Manga, Avarua, Rarotonga, Cook Islands"
    },
    {
      "lat": -21.224892468393268,
      "lon": -159.79576716349672,
      "geoinfo": {
        "display_name": "Valley access, Avatiu Valley, Avarua, Rarotonga, Cook Islands",
        "road": "Valley access",
        "house_number": null,
        "neighbourhood": null,
        "suburb": null,
        "city_district": null,
        "city": "Avarua",
        "state": "Rarotonga",
        "postcode": null,
        "country": "Cook Islands",
        "country_code": "ck"
      },
      "address": "Valley access, Avarua, Rarotonga, Cook Islands"
    },
    {
      "lat": -21.223740754828583,
      "lon": -159.74956453815616,
      "geoinfo": {
        "display_name": "Tupapa Road, Pue, Avarua, Rarotonga, Cook Islands",
        "road": "Tupapa Road",
        "house_number": null,
        "neighbourhood": null,
        "suburb": "Pue",
        "city_district": null,
        "city": "Avarua",
        "state": "Rarotonga",
        "postcode": null,
        "country": "Cook Islands",
        "country_code": "ck"
      },
      "address": "Tupapa Road, Avarua, Rarotonga, Cook Islands"
    },
    {
      "lat": -21.208224284750575,
      "lon": -159.77033863602307,
      "geoinfo": {
        "display_name": "Avarua Primary School, Ara Metua, Pue, Avarua, Rarotonga, Cook Islands",
        "road": "Ara Metua",
        "house_number": null,
        "neighbourhood": null,
        "suburb": "Pue",
        "city_district": null,
        "city": "Avarua",
        "state": "Rarotonga",
        "postcode": null,
        "country": "Cook Islands",
        "country_code": "ck"
      },
      "address": "Ara Metua, Avarua, Rarotonga, Cook Islands"
    },
    {
      "lat": -21.239438568254876,
      "lon": -159.78331601079645,
      "geoinfo": {
        "display_name": "Cross-Island Track, Takitumu, Rarotonga, Cook Islands",
        "road": "Cross-Island Track",
        "house_number": null,
        "neighbourhood": null,
        "suburb": null,
        "city_district": null,
        "city": "Takitumu",
        "state": "Rarotonga",
        "postcode": null,
        "country": "Cook Islands",
        "country_code": "ck"
      },
      "address": "Cross-Island Track, Avarua, Rarotonga, Cook Islands"
    },
    {
      "lat": -21.182438809748714,
      "lon": -159.79651902224876,
      "geoinfo": {
        "display_name": "Avatiu, Avarua, Rarotonga, Cook Islands",
        "road": null,
        "house_number": null,
        "neighbourhood": null,
        "suburb": "Avatiu",
        "city_district": null,
        "city": "Avarua",
        "state": "Rarotonga",
        "postcode": null,
        "country": "Cook Islands",
        "country_code": "ck"
      },
      "address": "Avatiu, Avarua, Rarotonga, Cook Islands"
    },
    {
      "lat": -21.225276784417453,
      "lon": -159.79201711323628,
      "geoinfo": {
        "display_name": "Uruau Drive, Avatiu Valley, Avarua, Rarotonga, Cook Islands",
        "road": "Uruau Drive",
        "house_number": null,
        "neighbourhood": null,
        "suburb": null,
        "city_district": null,
        "city": "Avarua",
        "state": "Rarotonga",
        "postcode": null,
        "country": "Cook Islands",
        "country_code": "ck"
      },
      "address": "Uruau Drive, Avarua, Rarotonga, Cook Islands"
    },
    {
      "lat": -21.213163317007197,
      "lon": -159.82003848488188,
      "geoinfo": {
        "display_name": "Hospital Hill track, Arorangi, Rarotonga, Cook Islands",
        "road": "Hospital Hill track",
        "house_number": null,
        "neighbourhood": null,
        "suburb": null,
        "city_district": null,
        "city": "Arorangi",
        "state": "Rarotonga",
        "postcode": null,
        "country": "Cook Islands",
        "country_code": "ck"
      },
      "address": "Hospital Hill track, Avarua, Rarotonga, Cook Islands"
    },
    {
      "lat": -21.202881389434893,
      "lon": -159.79100836220366,
      "geoinfo": {
        "display_name": "Tongatai Drive, Avatiu, Avarua, Rarotonga, Cook Islands",
        "road": "Tongatai Drive",
        "house_number": null,
        "neighbourhood": null,
        "suburb": "Avatiu",
        "city_district": null,
        "city": "Avarua",
        "state": "Rarotonga",
        "postcode": null,
        "country": "Cook Islands",
        "country_code": "ck"
      },
      "address": "Tongatai Drive, Avarua, Rarotonga, Cook Islands"
    },
    {
      "lat": -21.20330160384537,
      "lon": -159.77872342058623,
      "geoinfo": {
        "display_name": "Marine Drive, Avatiu, Avarua, Rarotonga, Cook Islands",
        "road": "Marine Drive",
        "house_number": null,
        "neighbourhood": null,
        "suburb": "Avatiu",
        "city_district": null,
        "city": "Avarua",
        "state": "Rarotonga",
        "postcode": null,
        "country": "Cook Islands",
        "country_code": "ck"
      },
      "address": "Marine Drive, Avarua, Rarotonga, Cook Islands"
    },
    {
      "lat": -21.211067141462337,
      "lon": -159.7872741958392,
      "geoinfo": {
        "display_name": "Vairoa Road, Avatiu, Avarua, Rarotonga, Cook Islands",
        "road": "Vairoa Road",
        "house_number": null,
        "neighbourhood": null,
        "suburb": "Avatiu",
        "city_district": null,
        "city": "Avarua",
        "state": "Rarotonga",
        "postcode": null,
        "country": "Cook Islands",
        "country_code": "ck"
      },
      "address": "Vairoa Road, Avarua, Rarotonga, Cook Islands"
    },
    {
      "lat": -21.20527507704332,
      "lon": -159.802923316697,
      "geoinfo": {
        "display_name": "Karika Road, Avatiu, Nikao, Avarua, Rarotonga, Cook Islands",
        "road": "Karika Road",
        "house_number": null,
        "neighbourhood": null,
        "suburb": "Avatiu",
        "city_district": null,
        "city": "Avarua",
        "state": "Rarotonga",
        "postcode": null,
        "country": "Cook Islands",
        "country_code": "ck"
      },
      "address": "Karika Road, Avarua, Rarotonga, Cook Islands"
    },
    {
      "lat": -21.204726081931355,
      "lon": -159.81187993105132,
      "geoinfo": {
        "display_name": "Farm field access, Nikao, Avarua, Rarotonga, Cook Islands",
        "road": "Farm field access",
        "house_number": null,
        "neighbourhood": null,
        "suburb": null,
        "city_district": null,
        "city": "Avarua",
        "state": "Rarotonga",
        "postcode": null,
        "country": "Cook Islands",
        "country_code": "ck"
      },
      "address": "Farm field access, Avarua, Rarotonga, Cook Islands"
    },
    {
      "lat": -21.20094655853545,
      "lon": -159.79366453384694,
      "geoinfo": {
        "display_name": "Putua Road, Avatiu, Avarua, Rarotonga, Cook Islands",
        "road": "Putua Road",
        "house_number": null,
        "neighbourhood": null,
        "suburb": "Avatiu",
        "city_district": null,
        "city": "Avarua",
        "state": "Rarotonga",
        "postcode": null,
        "country": "Cook Islands",
        "country_code": "ck"
      },
      "address": "Putua Road, Avarua, Rarotonga, Cook Islands"
    },
    {
      "lat": -21.241167145787013,
      "lon": -159.7804982757137,
      "geoinfo": {
        "display_name": "Into \"Crater\", Avarua, Rarotonga, Cook Islands",
        "road": "Into \"Crater\"",
        "house_number": null,
        "neighbourhood": null,
        "suburb": null,
        "city_district": null,
        "city": "Avarua",
        "state": "Rarotonga",
        "postcode": null,
        "country": "Cook Islands",
        "country_code": "ck"
      },
      "address": "Into \"Crater\", Avarua, Rarotonga, Cook Islands"
    },
    {
      "lat": -21.221596400301397,
      "lon": -159.78639221335615,
      "geoinfo": {
        "display_name": "Maungatea Bluff track, Avatiu, Avarua, Rarotonga, Cook Islands",
        "road": "Maungatea Bluff track",
        "house_number": null,
        "neighbourhood": null,
        "suburb": "Avatiu",
        "city_district": null,
        "city": "Avarua",
        "state": "Rarotonga",
        "postcode": null,
        "country": "Cook Islands",
        "country_code": "ck"
      },
      "address": "Maungatea Bluff track, Avarua, Rarotonga, Cook Islands"
    },
    {
      "lat": -21.209712765998407,
      "lon": -159.79635783236367,
      "geoinfo": {
        "display_name": "Arerangi Drive, Avatiu, Avarua, Rarotonga, Cook Islands",
        "road": "Arerangi Drive",
        "house_number": null,
        "neighbourhood": null,
        "suburb": "Avatiu",
        "city_district": null,
        "city": "Avarua",
        "state": "Rarotonga",
        "postcode": null,
        "country": "Cook Islands",
        "country_code": "ck"
      },
      "address": "Arerangi Drive, Avarua, Rarotonga, Cook Islands"
    },
    {
      "lat": -21.202987869302824,
      "lon": -159.82276437204024,
      "geoinfo": {
        "display_name": "Public Park, Nikao, Avarua, Rarotonga, Cook Islands",
        "road": "Public Park",
        "house_number": null,
        "neighbourhood": null,
        "suburb": null,
        "city_district": null,
        "city": "Avarua",
        "state": "Rarotonga",
        "postcode": null,
        "country": "Cook Islands",
        "country_code": "ck"
      },
      "address": "Public Park, Avarua, Rarotonga, Cook Islands"
    },
    {
      "lat": -21.23168043991345,
      "lon": -159.79560928346723,
      "geoinfo": {
        "display_name": "Raro Safari Tours Private Track, Avatiu Valley, Avarua, Rarotonga, Cook Islands",
        "road": "Raro Safari Tours Private Track",
        "house_number": null,
        "neighbourhood": null,
        "suburb": null,
        "city_district": null,
        "city": "Avarua",
        "state": "Rarotonga",
        "postcode": null,
        "country": "Cook Islands",
        "country_code": "ck"
      },
      "address": "Raro Safari Tours Private Track, Avarua, Rarotonga, Cook Islands"
    },
    {
      "lat": -21.23010532121185,
      "lon": -159.78505174211654,
      "geoinfo": {
        "display_name": "taro field access, Takuvaine Valley, Avarua, Rarotonga, Cook Islands",
        "road": "taro field access",
        "house_number": null,
        "neighbourhood": null,
        "suburb": null,
        "city_district": null,
        "city": "Avarua",
        "state": "Rarotonga",
        "postcode": null,
        "country": "Cook Islands",
        "country_code": "ck"
      },
      "address": "taro field access, Avarua, Rarotonga, Cook Islands"
    },
    {
      "lat": -21.211901038521592,
      "lon": -159.78610545321547,
      "geoinfo": {
        "display_name": "Te Matepa Road, Avatiu, Avarua, Rarotonga, Cook Islands",
        "road": "Te Matepa Road",
        "house_number": null,
        "neighbourhood": null,
        "suburb": "Avatiu",
        "city_district": null,
        "city": "Avarua",
        "state": "Rarotonga",
        "postcode": null,
        "country": "Cook Islands",
        "country_code": "ck"
      },
      "address": "Te Matepa Road, Avarua, Rarotonga, Cook Islands"
    },
    {
      "lat": -21.22929138658057,
      "lon": -159.7681950296737,
      "geoinfo": {
        "display_name": "field access -, Takuvaine Valley, Avarua, Rarotonga, Cook Islands",
        "road": "field access -",
        "house_number": null,
        "neighbourhood": null,
        "suburb": null,
        "city_district": null,
        "city": "Avarua",
        "state": "Rarotonga",
        "postcode": null,
        "country": "Cook Islands",
        "country_code": "ck"
      },
      "address": "field access -, Avarua, Rarotonga, Cook Islands"
    },
    {
      "lat": -21.21242728414535,
      "lon": -159.80623957817042,
      "geoinfo": {
        "display_name": "Tereora Track, Nikao, Avarua, Rarotonga, Cook Islands",
        "road": "Tereora Track",
        "house_number": null,
        "neighbourhood": null,
        "suburb": null,
        "city_district": null,
        "city": "Avarua",
        "state": "Rarotonga",
        "postcode": null,
        "country": "Cook Islands",
        "country_code": "ck"
      },
      "address": "Tereora Track, Avarua, Rarotonga, Cook Islands"
    },
    {
      "lat": -21.212054361351356,
      "lon": -159.81846346463396,
      "geoinfo": {
        "display_name": "Pleasant Forest Walk, Nikao, Avarua, Rarotonga, Cook Islands",
        "road": "Pleasant Forest Walk",
        "house_number": null,
        "neighbourhood": null,
        "suburb": null,
        "city_district": null,
        "city": "Avarua",
        "state": "Rarotonga",
        "postcode": null,
        "country": "Cook Islands",
        "country_code": "ck"
      },
      "address": "Pleasant Forest Walk, Avarua, Rarotonga, Cook Islands"
    },
    {
      "lat": -21.205227322292746,
      "lon": -159.80492924851507,
      "geoinfo": {
        "display_name": "Tereora Road, Nikao, Avarua, Rarotonga, Cook Islands",
        "road": "Tereora Road",
        "house_number": null,
        "neighbourhood": null,
        "suburb": null,
        "city_district": null,
        "city": "Avarua",
        "state": "Rarotonga",
        "postcode": null,
        "country": "Cook Islands",
        "country_code": "ck"
      },
      "address": "Tereora Road, Avarua, Rarotonga, Cook Islands"
    },
    {
      "lat": -21.223614055960343,
      "lon": -159.76118829315956,
      "geoinfo": {
        "display_name": "To viewpoint, Avarua, Rarotonga, Cook Islands",
        "road": "To viewpoint",
        "house_number": null,
        "neighbourhood": null,
        "suburb": null,
        "city_district": null,
        "city": "Avarua",
        "state": "Rarotonga",
        "postcode": null,
        "country": "Cook Islands",
        "country_code": "ck"
      },
      "address": "To viewpoint, Avarua, Rarotonga, Cook Islands"
    },
    {
      "lat": -21.212640555371912,
      "lon": -159.80832080496322,
      "geoinfo": {
        "display_name": "alternate - find your own, Nikao, Avarua, Rarotonga, Cook Islands",
        "road": "alternate - find your own",
        "house_number": null,
        "neighbourhood": null,
        "suburb": null,
        "city_district": null,
        "city": "Avarua",
        "state": "Rarotonga",
        "postcode": null,
        "country": "Cook Islands",
        "country_code": "ck"
      },
      "address": "alternate - find your own, Avarua, Rarotonga, Cook Islands"
    },
    {
      "lat": -21.2046923755333,
      "lon": -159.8147681666249,
      "geoinfo": {
        "display_name": "Te Ravaki North, Nikao, Avarua, Rarotonga, Cook Islands",
        "road": "Te Ravaki North",
        "house_number": null,
        "neighbourhood": null,
        "suburb": null,
        "city_district": null,
        "city": "Avarua",
        "state": "Rarotonga",
        "postcode": null,
        "country": "Cook Islands",
        "country_code": "ck"
      },
      "address": "Te Ravaki North, Avarua, Rarotonga, Cook Islands"
    },
    {
      "lat": -21.219098819380935,
      "lon": -159.759066805384,
      "geoinfo": {
        "display_name": "Ikurangi Track, Avarua, Rarotonga, Cook Islands",
        "road": "Ikurangi Track",
        "house_number": null,
        "neighbourhood": null,
        "suburb": null,
        "city_district": null,
        "city": "Avarua",
        "state": "Rarotonga",
        "postcode": null,
        "country": "Cook Islands",
        "country_code": "ck"
      },
      "address": "Ikurangi Track, Avarua, Rarotonga, Cook Islands"
    },
    {
      "lat": -21.206498791277113,
      "lon": -159.75469576547906,
      "geoinfo": {
        "display_name": "Punataia Road, Pue, Avarua, Rarotonga, Cook Islands",
        "road": "Punataia Road",
        "house_number": null,
        "neighbourhood": null,
        "suburb": "Pue",
        "city_district": null,
        "city": "Avarua",
        "state": "Rarotonga",
        "postcode": null,
        "country": "Cook Islands",
        "country_code": "ck"
      },
      "address": "Punataia Road, Avarua, Rarotonga, Cook Islands"
    },
    {
      "lat": -21.203601548793053,
      "lon": -159.7824438275883,
      "geoinfo": {
        "display_name": "Punanga Nui Market, Ruatonga Road, Avatiu, Avarua, Rarotonga, Cook Islands",
        "road": "Ruatonga Road",
        "house_number": null,
        "neighbourhood": null,
        "suburb": "Avatiu",
        "city_district": null,
        "city": "Avarua",
        "state": "Rarotonga",
        "postcode": null,
        "country": "Cook Islands",
        "country_code": "ck"
      },
      "address": "Ruatonga Road, Avarua, Rarotonga, Cook Islands"
    },
    {
      "lat": -21.215107746231357,
      "lon": -159.81328851832572,
      "geoinfo": {
        "display_name": "Find your own, Nikao, Avarua, Rarotonga, Cook Islands",
        "road": "Find your own",
        "house_number": null,
        "neighbourhood": null,
        "suburb": null,
        "city_district": null,
        "city": "Avarua",
        "state": "Rarotonga",
        "postcode": null,
        "country": "Cook Islands",
        "country_code": "ck"
      },
      "address": "Find your own, Avarua, Rarotonga, Cook Islands"
    },
    {
      "lat": -21.2129452782568,
      "lon": -159.7467663897307,
      "geoinfo": {
        "display_name": "Maotangi Road, Pue, Avarua, Rarotonga, Cook Islands",
        "road": "Maotangi Road",
        "house_number": null,
        "neighbourhood": null,
        "suburb": "Pue",
        "city_district": null,
        "city": "Avarua",
        "state": "Rarotonga",
        "postcode": null,
        "country": "Cook Islands",
        "country_code": "ck"
      },
      "address": "Maotangi Road, Avarua, Rarotonga, Cook Islands"
    },
    {
      "lat": -21.20685247364766,
      "lon": -159.77724859738112,
      "geoinfo": {
        "display_name": "Tutakimoa Road, Avatiu, Avarua, Rarotonga, Cook Islands",
        "road": "Tutakimoa Road",
        "house_number": null,
        "neighbourhood": null,
        "suburb": "Avatiu",
        "city_district": null,
        "city": "Avarua",
        "state": "Rarotonga",
        "postcode": null,
        "country": "Cook Islands",
        "country_code": "ck"
      },
      "address": "Tutakimoa Road, Avarua, Rarotonga, Cook Islands"
    },
    {
      "lat": -21.210147048808555,
      "lon": -159.76793015169045,
      "geoinfo": {
        "display_name": "Ngatipa Drive, Pue, Avarua, Rarotonga, Cook Islands",
        "road": "Ngatipa Drive",
        "house_number": null,
        "neighbourhood": null,
        "suburb": "Pue",
        "city_district": null,
        "city": "Avarua",
        "state": "Rarotonga",
        "postcode": null,
        "country": "Cook Islands",
        "country_code": "ck"
      },
      "address": "Ngatipa Drive, Avarua, Rarotonga, Cook Islands"
    },
    {
      "lat": -21.213337709055644,
      "lon": -159.79750754523351,
      "geoinfo": {
        "display_name": "Pine forest ridge, Avatiu, Avarua, Rarotonga, Cook Islands",
        "road": "Pine forest ridge",
        "house_number": null,
        "neighbourhood": null,
        "suburb": "Avatiu",
        "city_district": null,
        "city": "Avarua",
        "state": "Rarotonga",
        "postcode": null,
        "country": "Cook Islands",
        "country_code": "ck"
      },
      "address": "Pine forest ridge, Avarua, Rarotonga, Cook Islands"
    },
    {
      "lat": -21.20960537648664,
      "lon": -159.74927813386978,
      "geoinfo": {
        "display_name": "Kiikii Road, Pue, Avarua, Rarotonga, Cook Islands",
        "road": "Kiikii Road",
        "house_number": null,
        "neighbourhood": null,
        "suburb": "Pue",
        "city_district": null,
        "city": "Avarua",
        "state": "Rarotonga",
        "postcode": null,
        "country": "Cook Islands",
        "country_code": "ck"
      },
      "address": "Kiikii Road, Avarua, Rarotonga, Cook Islands"
    },
    {
      "lat": -21.209795633757178,
      "lon": -159.814602827218,
      "geoinfo": {
        "display_name": "Ruaine Lane, Nikao, Avarua, Rarotonga, Cook Islands",
        "road": "Ruaine Lane",
        "house_number": null,
        "neighbourhood": null,
        "suburb": null,
        "city_district": null,
        "city": "Avarua",
        "state": "Rarotonga",
        "postcode": null,
        "country": "Cook Islands",
        "country_code": "ck"
      },
      "address": "Ruaine Lane, Avarua, Rarotonga, Cook Islands"
    },
    {
      "lat": -21.21078572869469,
      "lon": -159.80177127999923,
      "geoinfo": {
        "display_name": "Karika road, Avatiu, Nikao, Avarua, Rarotonga, Cook Islands",
        "road": "Karika road",
        "house_number": null,
        "neighbourhood": null,
        "suburb": "Avatiu",
        "city_district": null,
        "city": "Avarua",
        "state": "Rarotonga",
        "postcode": null,
        "country": "Cook Islands",
        "country_code": "ck"
      },
      "address": "Karika road, Avarua, Rarotonga, Cook Islands"
    },
    {
      "lat": -21.217805203991333,
      "lon": -159.77488869771625,
      "geoinfo": {
        "display_name": "Happy Valley Road, Takuvaine Valley, Avarua, Rarotonga, Cook Islands",
        "road": "Happy Valley Road",
        "house_number": null,
        "neighbourhood": null,
        "suburb": null,
        "city_district": null,
        "city": "Avarua",
        "state": "Rarotonga",
        "postcode": null,
        "country": "Cook Islands",
        "country_code": "ck"
      },
      "address": "025, Happy Valley Road, Takuvaine Valley, Avarua, 70251 Rarotonga, Cook Islands"
    },
    {
      "lat": -21.174217820396983,
      "lon": -159.7670452519873,
      "geoinfo": {
        "display_name": "Pue, Avarua, Rarotonga, Cook Islands",
        "road": null,
        "house_number": null,
        "neighbourhood": null,
        "suburb": "Pue",
        "city_district": null,
        "city": "Avarua",
        "state": "Rarotonga",
        "postcode": null,
        "country": "Cook Islands",
        "country_code": "ck"
      },
      "address": "123, Pue, Avarua, 42016 Rarotonga, Cook Islands"
    },
    {
      "lat": -21.17501058690754,
      "lon": -159.77185749233416,
      "geoinfo": {
        "display_name": "Pue, Avarua, Rarotonga, Cook Islands",
        "road": null,
        "house_number": null,
        "neighbourhood": null,
        "suburb": "Pue",
        "city_district": null,
        "city": "Avarua",
        "state": "Rarotonga",
        "postcode": null,
        "country": "Cook Islands",
        "country_code": "ck"
      },
      "address": "055, Pue, Avarua, 91366 Rarotonga, Cook Islands"
    },
    {
      "lat": -21.174306649649598,
      "lon": -159.7840955352851,
      "geoinfo": {
        "display_name": "Avatiu, Avarua, Rarotonga, Cook Islands",
        "road": null,
        "house_number": null,
        "neighbourhood": null,
        "suburb": "Avatiu",
        "city_district": null,
        "city": "Avarua",
        "state": "Rarotonga",
        "postcode": null,
        "country": "Cook Islands",
        "country_code": "ck"
      },
      "address": "340, Avatiu, Avarua, 24993 Rarotonga, Cook Islands"
    },
    {
      "lat": -21.186963411046502,
      "lon": -159.7461859937393,
      "geoinfo": {
        "display_name": "Pue, Avarua, Rarotonga, Cook Islands",
        "road": null,
        "house_number": null,
        "neighbourhood": null,
        "suburb": "Pue",
        "city_district": null,
        "city": "Avarua",
        "state": "Rarotonga",
        "postcode": null,
        "country": "Cook Islands",
        "country_code": "ck"
      },
      "address": "266, Pue, Avarua, 60835 Rarotonga, Cook Islands"
    },
    {
      "lat": -21.196845925945702,
      "lon": -159.75138956266025,
      "geoinfo": {
        "display_name": "Pue, Avarua, Rarotonga, Cook Islands",
        "road": null,
        "house_number": null,
        "neighbourhood": null,
        "suburb": "Pue",
        "city_district": null,
        "city": "Avarua",
        "state": "Rarotonga",
        "postcode": null,
        "country": "Cook Islands",
        "country_code": "ck"
      },
      "address": "542, Pue, Avarua, 51176 Rarotonga, Cook Islands"
    },
    {
      "lat": -21.173884509771423,
      "lon": -159.7498790159761,
      "geoinfo": {
        "display_name": "Pue, Avarua, Rarotonga, Cook Islands",
        "road": null,
        "house_number": null,
        "neighbourhood": null,
        "suburb": "Pue",
        "city_district": null,
        "city": "Avarua",
        "state": "Rarotonga",
        "postcode": null,
        "country": "Cook Islands",
        "country_code": "ck"
      },
      "address": "668, Pue, Avarua, 51561 Rarotonga, Cook Islands"
    },
    {
      "lat": -21.187491749631523,
      "lon": -159.8036567240348,
      "geoinfo": {
        "display_name": "Nikao, Avarua, Rarotonga, Cook Islands",
        "road": null,
        "house_number": null,
        "neighbourhood": null,
        "suburb": null,
        "city_district": null,
        "city": "Avarua",
        "state": "Rarotonga",
        "postcode": null,
        "country": "Cook Islands",
        "country_code": "ck"
      },
      "address": "321, Nikao, Avarua, 88096 Rarotonga, Cook Islands"
    },
    {
      "lat": -21.174605519246466,
      "lon": -159.79265018768604,
      "geoinfo": {
        "display_name": "Avatiu, Avarua, Rarotonga, Cook Islands",
        "road": null,
        "house_number": null,
        "neighbourhood": null,
        "suburb": "Avatiu",
        "city_district": null,
        "city": "Avarua",
        "state": "Rarotonga",
        "postcode": null,
        "country": "Cook Islands",
        "country_code": "ck"
      },
      "address": "750, Avatiu, Avarua, 98890 Rarotonga, Cook Islands"
    },
    {
      "lat": -21.216766396673595,
      "lon": -159.78526920409328,
      "geoinfo": {
        "display_name": "Te Matepa Road, Avatiu, Avarua, Rarotonga, Cook Islands",
        "road": "Te Matepa Road",
        "house_number": null,
        "neighbourhood": null,
        "suburb": "Avatiu",
        "city_district": null,
        "city": "Avarua",
        "state": "Rarotonga",
        "postcode": null,
        "country": "Cook Islands",
        "country_code": "ck"
      },
      "address": "795, Te Matepa Road, Avatiu, Avarua, 32990 Rarotonga, Cook Islands"
    },
    {
      "lat": -21.212635396238557,
      "lon": -159.7766432356848,
      "geoinfo": {
        "display_name": "Ara Metua, Avatiu, Avarua, Rarotonga, Cook Islands",
        "road": "Ara Metua",
        "house_number": null,
        "neighbourhood": null,
        "suburb": "Avatiu",
        "city_district": null,
        "city": "Avarua",
        "state": "Rarotonga",
        "postcode": null,
        "country": "Cook Islands",
        "country_code": "ck"
      },
      "address": "214, Ara Metua, Avatiu, Avarua, 11479 Rarotonga, Cook Islands"
    },
    {
      "lat": -21.19897838407234,
      "lon": -159.76943870840685,
      "geoinfo": {
        "display_name": "Pue, Avarua, Rarotonga, Cook Islands",
        "road": null,
        "house_number": null,
        "neighbourhood": null,
        "suburb": "Pue",
        "city_district": null,
        "city": "Avarua",
        "state": "Rarotonga",
        "postcode": null,
        "country": "Cook Islands",
        "country_code": "ck"
      },
      "address": "549, Pue, Avarua, 18337 Rarotonga, Cook Islands"
    },
    {
      "lat": -21.165933491561358,
      "lon": -159.76146920838966,
      "geoinfo": {
        "display_name": "Pue, Avarua, Rarotonga, Cook Islands",
        "road": null,
        "house_number": null,
        "neighbourhood": null,
        "suburb": "Pue",
        "city_district": null,
        "city": "Avarua",
        "state": "Rarotonga",
        "postcode": null,
        "country": "Cook Islands",
        "country_code": "ck"
      },
      "address": "681, Pue, Avarua, 84014 Rarotonga, Cook Islands"
    },
    {
      "lat": -21.237642085989823,
      "lon": -159.77719394845042,
      "geoinfo": {
        "display_name": "Te Kou Track, Avarua, Rarotonga, Cook Islands",
        "road": "Te Kou Track",
        "house_number": null,
        "neighbourhood": null,
        "suburb": null,
        "city_district": null,
        "city": "Avarua",
        "state": "Rarotonga",
        "postcode": null,
        "country": "Cook Islands",
        "country_code": "ck"
      },
      "address": "334, Te Kou Track, Avarua, 62488 Rarotonga, Cook Islands"
    },
    {
      "lat": -21.191782130119602,
      "lon": -159.75799955113416,
      "geoinfo": {
        "display_name": "Pue, Avarua, Rarotonga, Cook Islands",
        "road": null,
        "house_number": null,
        "neighbourhood": null,
        "suburb": "Pue",
        "city_district": null,
        "city": "Avarua",
        "state": "Rarotonga",
        "postcode": null,
        "country": "Cook Islands",
        "country_code": "ck"
      },
      "address": "379, Pue, Avarua, 61658 Rarotonga, Cook Islands"
    },
    {
      "lat": -21.23718841018393,
      "lon": -159.79039924674638,
      "geoinfo": {
        "display_name": "Cross-Island Track, Vaimaanga, Avarua, Rarotonga, Cook Islands",
        "road": "Cross-Island Track",
        "house_number": null,
        "neighbourhood": null,
        "suburb": null,
        "city_district": null,
        "city": "Avarua",
        "state": "Rarotonga",
        "postcode": null,
        "country": "Cook Islands",
        "country_code": "ck"
      },
      "address": "869, Cross-Island Track, Vaimaanga, Avarua, 09382 Rarotonga, Cook Islands"
    },
    {
      "lat": -21.214228990407964,
      "lon": -159.80237193430645,
      "geoinfo": {
        "display_name": "Hunters track along ridge, Avatiu, Nikao, Avarua, Rarotonga, Cook Islands",
        "road": "Hunters track along ridge",
        "house_number": null,
        "neighbourhood": null,
        "suburb": "Avatiu",
        "city_district": null,
        "city": "Avarua",
        "state": "Rarotonga",
        "postcode": null,
        "country": "Cook Islands",
        "country_code": "ck"
      },
      "address": "219, Hunters track along ridge, Avatiu, Nikao, Avarua, 41732 Rarotonga, Cook Islands"
    },
    {
      "lat": -21.202399223485244,
      "lon": -159.7825890716763,
      "geoinfo": {
        "display_name": "Punanga Nui Market, Ara Tapu, Avatiu, Avarua, Rarotonga, Cook Islands",
        "road": "Ara Tapu",
        "house_number": null,
        "neighbourhood": null,
        "suburb": "Avatiu",
        "city_district": null,
        "city": "Avarua",
        "state": "Rarotonga",
        "postcode": null,
        "country": "Cook Islands",
        "country_code": "ck"
      },
      "address": "564, Ara Tapu, Avarua, 59484 Rarotonga, Cook Islands"
    },
    {
      "lat": -21.166214327849218,
      "lon": -159.7617234934856,
      "geoinfo": {
        "display_name": "Pue, Avarua, Rarotonga, Cook Islands",
        "road": null,
        "house_number": null,
        "neighbourhood": null,
        "suburb": "Pue",
        "city_district": null,
        "city": "Avarua",
        "state": "Rarotonga",
        "postcode": null,
        "country": "Cook Islands",
        "country_code": "ck"
      },
      "address": "848, Pue, Avarua, 69454 Rarotonga, Cook Islands"
    },
    {
      "lat": -21.205498743661575,
      "lon": -159.75040378138758,
      "geoinfo": {
        "display_name": "Ara Tapu, Pue, Avarua, Rarotonga, Cook Islands",
        "road": "Ara Tapu",
        "house_number": null,
        "neighbourhood": null,
        "suburb": "Pue",
        "city_district": null,
        "city": "Avarua",
        "state": "Rarotonga",
        "postcode": null,
        "country": "Cook Islands",
        "country_code": "ck"
      },
      "address": "329, Ara Tapu, Pue, Avarua, 40718 Rarotonga, Cook Islands"
    },
    {
      "lat": -21.176999214242954,
      "lon": -159.77449937861306,
      "geoinfo": {
        "display_name": "Pue, Avarua, Rarotonga, Cook Islands",
        "road": null,
        "house_number": null,
        "neighbourhood": null,
        "suburb": "Pue",
        "city_district": null,
        "city": "Avarua",
        "state": "Rarotonga",
        "postcode": null,
        "country": "Cook Islands",
        "country_code": "ck"
      },
      "address": "953, Pue, Avarua, 99379 Rarotonga, Cook Islands"
    },
    {
      "lat": -21.19207687385938,
      "lon": -159.77691012959997,
      "geoinfo": {
        "display_name": "Avatiu, Avarua, Rarotonga, Cook Islands",
        "road": null,
        "house_number": null,
        "neighbourhood": null,
        "suburb": "Avatiu",
        "city_district": null,
        "city": "Avarua",
        "state": "Rarotonga",
        "postcode": null,
        "country": "Cook Islands",
        "country_code": "ck"
      },
      "address": "405, Avatiu, Avarua, 72871 Rarotonga, Cook Islands"
    },
    {
      "lat": -21.239825121595352,
      "lon": -159.78048297139932,
      "geoinfo": {
        "display_name": "Into \"Crater\", Avarua, Rarotonga, Cook Islands",
        "road": "Into \"Crater\"",
        "house_number": null,
        "neighbourhood": null,
        "suburb": null,
        "city_district": null,
        "city": "Avarua",
        "state": "Rarotonga",
        "postcode": null,
        "country": "Cook Islands",
        "country_code": "ck"
      },
      "address": "750, Into \"Crater\", Avarua, 00923 Rarotonga, Cook Islands"
    },
    {
      "lat": -21.230843716684277,
      "lon": -159.77739558723445,
      "geoinfo": {
        "display_name": "taro field access, Takuvaine Valley, Avarua, Rarotonga, Cook Islands",
        "road": "taro field access",
        "house_number": null,
        "neighbourhood": null,
        "suburb": null,
        "city_district": null,
        "city": "Avarua",
        "state": "Rarotonga",
        "postcode": null,
        "country": "Cook Islands",
        "country_code": "ck"
      },
      "address": "513, taro field access, Takuvaine Valley, Avarua, 34522 Rarotonga, Cook Islands"
    },
    {
      "lat": -21.16899755731099,
      "lon": -159.75893181871936,
      "geoinfo": {
        "display_name": "Pue, Avarua, Rarotonga, Cook Islands",
        "road": null,
        "house_number": null,
        "neighbourhood": null,
        "suburb": "Pue",
        "city_district": null,
        "city": "Avarua",
        "state": "Rarotonga",
        "postcode": null,
        "country": "Cook Islands",
        "country_code": "ck"
      },
      "address": "029, Pue, Avarua, 85291 Rarotonga, Cook Islands"
    },
    {
      "lat": -21.217173451820308,
      "lon": -159.76893168299932,
      "geoinfo": {
        "display_name": "Happy Valley Road, Takuvaine Valley, Avarua, Rarotonga, Cook Islands",
        "road": "Happy Valley Road",
        "house_number": null,
        "neighbourhood": null,
        "suburb": null,
        "city_district": null,
        "city": "Avarua",
        "state": "Rarotonga",
        "postcode": null,
        "country": "Cook Islands",
        "country_code": "ck"
      },
      "address": "386, Happy Valley Road, Takuvaine Valley, Avarua, 07359 Rarotonga, Cook Islands"
    },
    {
      "lat": -21.22697175268695,
      "lon": -159.78578390350472,
      "geoinfo": {
        "display_name": "Avatiu Valley, Avarua, Rarotonga, Cook Islands",
        "road": null,
        "house_number": null,
        "neighbourhood": null,
        "suburb": null,
        "city_district": null,
        "city": "Avarua",
        "state": "Rarotonga",
        "postcode": null,
        "country": "Cook Islands",
        "country_code": "ck"
      },
      "address": "525, Avatiu Valley, Avarua, 92698 Rarotonga, Cook Islands"
    },
    {
      "lat": -21.19142435373899,
      "lon": -159.7940053001023,
      "geoinfo": {
        "display_name": "Avatiu, Avarua, Rarotonga, Cook Islands",
        "road": null,
        "house_number": null,
        "neighbourhood": null,
        "suburb": "Avatiu",
        "city_district": null,
        "city": "Avarua",
        "state": "Rarotonga",
        "postcode": null,
        "country": "Cook Islands",
        "country_code": "ck"
      },
      "address": "684, Avatiu, Avarua, 04464 Rarotonga, Cook Islands"
    },
    {
      "lat": -21.228073024394494,
      "lon": -159.76549105876697,
      "geoinfo": {
        "display_name": "Not quite to top of Te Manga, Avarua, Rarotonga, Cook Islands",
        "road": "Not quite to top of Te Manga",
        "house_number": null,
        "neighbourhood": null,
        "suburb": null,
        "city_district": null,
        "city": "Avarua",
        "state": "Rarotonga",
        "postcode": null,
        "country": "Cook Islands",
        "country_code": "ck"
      },
      "address": "636, Not quite to top of Te Manga, Avarua, 31820 Rarotonga, Cook Islands"
    },
    {
      "lat": -21.17379838545408,
      "lon": -159.76234936083748,
      "geoinfo": {
        "display_name": "Pue, Avarua, Rarotonga, Cook Islands",
        "road": null,
        "house_number": null,
        "neighbourhood": null,
        "suburb": "Pue",
        "city_district": null,
        "city": "Avarua",
        "state": "Rarotonga",
        "postcode": null,
        "country": "Cook Islands",
        "country_code": "ck"
      },
      "address": "475, Pue, Avarua, 14988 Rarotonga, Cook Islands"
    },
    {
      "lat": -21.16275698377931,
      "lon": -159.77677194989948,
      "geoinfo": {
        "display_name": "Avarua, Rarotonga, Cook Islands",
        "road": null,
        "house_number": null,
        "neighbourhood": null,
        "suburb": null,
        "city_district": null,
        "city": "Avarua",
        "state": "Rarotonga",
        "postcode": null,
        "country": "Cook Islands",
        "country_code": "ck"
      },
      "address": "263, Avarua, 68184 Rarotonga, Cook Islands"
    },
    {
      "lat": -21.196524917684854,
      "lon": -159.74818515216097,
      "geoinfo": {
        "display_name": "Pue, Avarua, Rarotonga, Cook Islands",
        "road": null,
        "house_number": null,
        "neighbourhood": null,
        "suburb": "Pue",
        "city_district": null,
        "city": "Avarua",
        "state": "Rarotonga",
        "postcode": null,
        "country": "Cook Islands",
        "country_code": "ck"
      },
      "address": "150, Pue, Avarua, 85033 Rarotonga, Cook Islands"
    },
    {
      "lat": -21.177242476325002,
      "lon": -159.78134109767166,
      "geoinfo": {
        "display_name": "Avatiu, Avarua, Rarotonga, Cook Islands",
        "road": null,
        "house_number": null,
        "neighbourhood": null,
        "suburb": "Avatiu",
        "city_district": null,
        "city": "Avarua",
        "state": "Rarotonga",
        "postcode": null,
        "country": "Cook Islands",
        "country_code": "ck"
      },
      "address": "957, Avatiu, Avarua, 95913 Rarotonga, Cook Islands"
    },
    {
      "lat": -21.16987543852463,
      "lon": -159.77565581881262,
      "geoinfo": {
        "display_name": "Pue, Avarua, Rarotonga, Cook Islands",
        "road": null,
        "house_number": null,
        "neighbourhood": null,
        "suburb": "Pue",
        "city_district": null,
        "city": "Avarua",
        "state": "Rarotonga",
        "postcode": null,
        "country": "Cook Islands",
        "country_code": "ck"
      },
      "address": "460, Pue, Avarua, 88565 Rarotonga, Cook Islands"
    },
    {
      "lat": -21.22080644362232,
      "lon": -159.7753273002484,
      "geoinfo": {
        "display_name": "Happy Valley Road, Takuvaine Valley, Avarua, Rarotonga, Cook Islands",
        "road": "Happy Valley Road",
        "house_number": null,
        "neighbourhood": null,
        "suburb": null,
        "city_district": null,
        "city": "Avarua",
        "state": "Rarotonga",
        "postcode": null,
        "country": "Cook Islands",
        "country_code": "ck"
      },
      "address": "621, Happy Valley Road, Takuvaine Valley, Avarua, 23613 Rarotonga, Cook Islands"
    },
    {
      "lat": -21.21671667687002,
      "lon": -159.74460100281175,
      "geoinfo": {
        "display_name": "Ara Metua, Pue, Matavera, Rarotonga, Cook Islands",
        "road": "Ara Metua",
        "house_number": null,
        "neighbourhood": null,
        "suburb": "Pue",
        "city_district": null,
        "city": "Matavera",
        "state": "Rarotonga",
        "postcode": null,
        "country": "Cook Islands",
        "country_code": "ck"
      },
      "address": "194, Ara Metua, Avarua, 57451 Rarotonga, Cook Islands"
    },
    {
      "lat": -21.208038072288957,
      "lon": -159.8196378934719,
      "geoinfo": {
        "display_name": "Rarotonga Golf Course, Ara Metua, Avatiu, Nikao, Avarua, Rarotonga, Cook Islands",
        "road": "Ara Metua",
        "house_number": null,
        "neighbourhood": null,
        "suburb": "Avatiu",
        "city_district": null,
        "city": "Avarua",
        "state": "Rarotonga",
        "postcode": null,
        "country": "Cook Islands",
        "country_code": "ck"
      },
      "address": "512, Ara Metua, Avarua, 02475 Rarotonga, Cook Islands"
    },
    {
      "lat": -21.167107103997473,
      "lon": -159.77959293378692,
      "geoinfo": {
        "display_name": "Avarua, Rarotonga, Cook Islands",
        "road": null,
        "house_number": null,
        "neighbourhood": null,
        "suburb": null,
        "city_district": null,
        "city": "Avarua",
        "state": "Rarotonga",
        "postcode": null,
        "country": "Cook Islands",
        "country_code": "ck"
      },
      "address": "994, Avarua, 26782 Rarotonga, Cook Islands"
    },
    {
      "lat": -21.237823322239038,
      "lon": -159.76064911152818,
      "geoinfo": {
        "display_name": "Not quite to top of Te Manga, Avarua, Rarotonga, Cook Islands",
        "road": "Not quite to top of Te Manga",
        "house_number": null,
        "neighbourhood": null,
        "suburb": null,
        "city_district": null,
        "city": "Avarua",
        "state": "Rarotonga",
        "postcode": null,
        "country": "Cook Islands",
        "country_code": "ck"
      },
      "address": "167, Not quite to top of Te Manga, Avarua, 14446 Rarotonga, Cook Islands"
    },
    {
      "lat": -21.211666582045503,
      "lon": -159.743921288089,
      "geoinfo": {
        "display_name": "Ara Tapu, Avarua, Rarotonga, Cook Islands",
        "road": "Ara Tapu",
        "house_number": null,
        "neighbourhood": null,
        "suburb": null,
        "city_district": null,
        "city": "Avarua",
        "state": "Rarotonga",
        "postcode": null,
        "country": "Cook Islands",
        "country_code": "ck"
      },
      "address": "301, Ara Tapu, Avarua, 50195 Rarotonga, Cook Islands"
    },
    {
      "lat": -21.202914071665838,
      "lon": -159.74621391120638,
      "geoinfo": {
        "display_name": "Ara Tapu, Pue, Avarua, Rarotonga, Cook Islands",
        "road": "Ara Tapu",
        "house_number": null,
        "neighbourhood": null,
        "suburb": "Pue",
        "city_district": null,
        "city": "Avarua",
        "state": "Rarotonga",
        "postcode": null,
        "country": "Cook Islands",
        "country_code": "ck"
      },
      "address": "394, Ara Tapu, Pue, Avarua, 37199 Rarotonga, Cook Islands"
    },
    {
      "lat": -21.208947641614433,
      "lon": -159.7801404002509,
      "geoinfo": {
        "display_name": "Ara Metua, Avatiu, Avarua, Rarotonga, Cook Islands",
        "road": "Ara Metua",
        "house_number": null,
        "neighbourhood": null,
        "suburb": "Avatiu",
        "city_district": null,
        "city": "Avarua",
        "state": "Rarotonga",
        "postcode": null,
        "country": "Cook Islands",
        "country_code": "ck"
      },
      "address": "044, Ara Metua, Avatiu, Avarua, 12175 Rarotonga, Cook Islands"
    },
    {
      "lat": -21.201282563350826,
      "lon": -159.77262545166192,
      "geoinfo": {
        "display_name": "Ara Tapu, Pue, Avarua, Rarotonga, Cook Islands",
        "road": "Ara Tapu",
        "house_number": null,
        "neighbourhood": null,
        "suburb": "Pue",
        "city_district": null,
        "city": "Avarua",
        "state": "Rarotonga",
        "postcode": null,
        "country": "Cook Islands",
        "country_code": "ck"
      },
      "address": "291, Ara Tapu, Pue, Avarua, 13766 Rarotonga, Cook Islands"
    },
    {
      "lat": -21.205654665300177,
      "lon": -159.76958295700553,
      "geoinfo": {
        "display_name": "Victoria Road, Pue, Avarua, Rarotonga, Cook Islands",
        "road": "Victoria Road",
        "house_number": null,
        "neighbourhood": null,
        "suburb": "Pue",
        "city_district": null,
        "city": "Avarua",
        "state": "Rarotonga",
        "postcode": null,
        "country": "Cook Islands",
        "country_code": "ck"
      },
      "address": "689, Victoria Road, Pue, Avarua, 26851 Rarotonga, Cook Islands"
    },
    {
      "lat": -21.21080731368263,
      "lon": -159.8063211055007,
      "geoinfo": {
        "display_name": "Tereora Track, Nikao, Avarua, Rarotonga, Cook Islands",
        "road": "Tereora Track",
        "house_number": null,
        "neighbourhood": null,
        "suburb": null,
        "city_district": null,
        "city": "Avarua",
        "state": "Rarotonga",
        "postcode": null,
        "country": "Cook Islands",
        "country_code": "ck"
      },
      "address": "754, Tereora Track, Nikao, Avarua, 37953 Rarotonga, Cook Islands"
    },
    {
      "lat": -21.192182311312568,
      "lon": -159.8192416486492,
      "geoinfo": {
        "display_name": "Nikao, Avarua, Rarotonga, Cook Islands",
        "road": null,
        "house_number": null,
        "neighbourhood": null,
        "suburb": null,
        "city_district": null,
        "city": "Avarua",
        "state": "Rarotonga",
        "postcode": null,
        "country": "Cook Islands",
        "country_code": "ck"
      },
      "address": "641, Nikao, Avarua, 85579 Rarotonga, Cook Islands"
    },
    {
      "lat": -21.21117466329037,
      "lon": -159.7857208613052,
      "geoinfo": {
        "display_name": "Te Matepa Road, Avatiu, Avarua, Rarotonga, Cook Islands",
        "road": "Te Matepa Road",
        "house_number": null,
        "neighbourhood": null,
        "suburb": "Avatiu",
        "city_district": null,
        "city": "Avarua",
        "state": "Rarotonga",
        "postcode": null,
        "country": "Cook Islands",
        "country_code": "ck"
      },
      "address": "708, Te Matepa Road, Avatiu, Avarua, 28692 Rarotonga, Cook Islands"
    },
    {
      "lat": -21.213445150520347,
      "lon": -159.81787809194884,
      "geoinfo": {
        "display_name": "Pleasant Forest Walk, Nikao, Avarua, Rarotonga, Cook Islands",
        "road": "Pleasant Forest Walk",
        "house_number": null,
        "neighbourhood": null,
        "suburb": null,
        "city_district": null,
        "city": "Avarua",
        "state": "Rarotonga",
        "postcode": null,
        "country": "Cook Islands",
        "country_code": "ck"
      },
      "address": "464, Pleasant Forest Walk, Nikao, Avarua, 10754 Rarotonga, Cook Islands"
    },
    {
      "lat": -21.200929450038746,
      "lon": -159.75032117356156,
      "geoinfo": {
        "display_name": "Kiikii Hotel, Ara Tapu, Pue, Avarua, Rarotonga, Cook Islands",
        "road": "Ara Tapu",
        "house_number": null,
        "neighbourhood": null,
        "suburb": "Pue",
        "city_district": null,
        "city": "Avarua",
        "state": "Rarotonga",
        "postcode": null,
        "country": "Cook Islands",
        "country_code": "ck"
      },
      "address": "385, Ara Tapu, Avarua, 97235 Rarotonga, Cook Islands"
    },
    {
      "lat": -21.163923130749563,
      "lon": -159.77617473083922,
      "geoinfo": {
        "display_name": "Avarua, Rarotonga, Cook Islands",
        "road": null,
        "house_number": null,
        "neighbourhood": null,
        "suburb": null,
        "city_district": null,
        "city": "Avarua",
        "state": "Rarotonga",
        "postcode": null,
        "country": "Cook Islands",
        "country_code": "ck"
      },
      "address": "721, Avarua, 23916 Rarotonga, Cook Islands"
    },
    {
      "lat": -21.16495708871166,
      "lon": -159.78731263461157,
      "geoinfo": {
        "display_name": "Avarua, Rarotonga, Cook Islands",
        "road": null,
        "house_number": null,
        "neighbourhood": null,
        "suburb": null,
        "city_district": null,
        "city": "Avarua",
        "state": "Rarotonga",
        "postcode": null,
        "country": "Cook Islands",
        "country_code": "ck"
      },
      "address": "027, Avarua, 09624 Rarotonga, Cook Islands"
    },
    {
      "lat": -21.20153248990796,
      "lon": -159.73783285774616,
      "geoinfo": {
        "display_name": "Pue, Avarua, Rarotonga, Cook Islands",
        "road": null,
        "house_number": null,
        "neighbourhood": null,
        "suburb": "Pue",
        "city_district": null,
        "city": "Avarua",
        "state": "Rarotonga",
        "postcode": null,
        "country": "Cook Islands",
        "country_code": "ck"
      },
      "address": "980, Pue, Avarua, 48751 Rarotonga, Cook Islands"
    },
    {
      "lat": -21.234314066038454,
      "lon": -159.80572228416202,
      "geoinfo": {
        "display_name": "Arorangi District, Arorangi, Rarotonga, Cook Islands",
        "road": null,
        "house_number": null,
        "neighbourhood": null,
        "suburb": null,
        "city_district": null,
        "city": "Arorangi",
        "state": "Rarotonga",
        "postcode": null,
        "country": "Cook Islands",
        "country_code": "ck"
      },
      "address": "176, Avarua, 65343 Rarotonga, Cook Islands"
    },
    {
      "lat": -21.169590707696486,
      "lon": -159.76914961075022,
      "geoinfo": {
        "display_name": "Pue, Avarua, Rarotonga, Cook Islands",
        "road": null,
        "house_number": null,
        "neighbourhood": null,
        "suburb": "Pue",
        "city_district": null,
        "city": "Avarua",
        "state": "Rarotonga",
        "postcode": null,
        "country": "Cook Islands",
        "country_code": "ck"
      },
      "address": "893, Pue, Avarua, 72660 Rarotonga, Cook Islands"
    },
    {
      "lat": -21.232887391836083,
      "lon": -159.76340614146878,
      "geoinfo": {
        "display_name": "Not quite to top of Te Manga, Avarua, Rarotonga, Cook Islands",
        "road": "Not quite to top of Te Manga",
        "house_number": null,
        "neighbourhood": null,
        "suburb": null,
        "city_district": null,
        "city": "Avarua",
        "state": "Rarotonga",
        "postcode": null,
        "country": "Cook Islands",
        "country_code": "ck"
      },
      "address": "019, Not quite to top of Te Manga, Avarua, 25520 Rarotonga, Cook Islands"
    },
    {
      "lat": -21.212927916576003,
      "lon": -159.73900059689322,
      "geoinfo": {
        "display_name": "Ara Tapu, Avarua, Rarotonga, Cook Islands",
        "road": "Ara Tapu",
        "house_number": null,
        "neighbourhood": null,
        "suburb": null,
        "city_district": null,
        "city": "Avarua",
        "state": "Rarotonga",
        "postcode": null,
        "country": "Cook Islands",
        "country_code": "ck"
      },
      "address": "270, Ara Tapu, Avarua, 34702 Rarotonga, Cook Islands"
    },
    {
      "lat": -21.171067098584796,
      "lon": -159.7870320541252,
      "geoinfo": {
        "display_name": "Avatiu, Avarua, Rarotonga, Cook Islands",
        "road": null,
        "house_number": null,
        "neighbourhood": null,
        "suburb": "Avatiu",
        "city_district": null,
        "city": "Avarua",
        "state": "Rarotonga",
        "postcode": null,
        "country": "Cook Islands",
        "country_code": "ck"
      },
      "address": "668, Avatiu, Avarua, 27752 Rarotonga, Cook Islands"
    },
    {
      "lat": -21.237712707017945,
      "lon": -159.7680500447272,
      "geoinfo": {
        "display_name": "Not quite to top of Te Manga, Avarua, Rarotonga, Cook Islands",
        "road": "Not quite to top of Te Manga",
        "house_number": null,
        "neighbourhood": null,
        "suburb": null,
        "city_district": null,
        "city": "Avarua",
        "state": "Rarotonga",
        "postcode": null,
        "country": "Cook Islands",
        "country_code": "ck"
      },
      "address": "658, Not quite to top of Te Manga, Avarua, 90646 Rarotonga, Cook Islands"
    },
    {
      "lat": -21.22314113393966,
      "lon": -159.77652928303775,
      "geoinfo": {
        "display_name": "Maungatea Bluff track, Avatiu, Avarua, Rarotonga, Cook Islands",
        "road": "Maungatea Bluff track",
        "house_number": null,
        "neighbourhood": null,
        "suburb": "Avatiu",
        "city_district": null,
        "city": "Avarua",
        "state": "Rarotonga",
        "postcode": null,
        "country": "Cook Islands",
        "country_code": "ck"
      },
      "address": "499, Maungatea Bluff track, Avatiu, Avarua, 17767 Rarotonga, Cook Islands"
    },
    {
      "lat": -21.16976462686585,
      "lon": -159.78559922615875,
      "geoinfo": {
        "display_name": "Avatiu, Avarua, Rarotonga, Cook Islands",
        "road": null,
        "house_number": null,
        "neighbourhood": null,
        "suburb": "Avatiu",
        "city_district": null,
        "city": "Avarua",
        "state": "Rarotonga",
        "postcode": null,
        "country": "Cook Islands",
        "country_code": "ck"
      },
      "address": "624, Avatiu, Avarua, 49825 Rarotonga, Cook Islands"
    },
    {
      "lat": -21.20740390848514,
      "lon": -159.78524481436727,
      "geoinfo": {
        "display_name": "Avatiu, Avarua, Rarotonga, Cook Islands",
        "road": null,
        "house_number": null,
        "neighbourhood": null,
        "suburb": "Avatiu",
        "city_district": null,
        "city": "Avarua",
        "state": "Rarotonga",
        "postcode": null,
        "country": "Cook Islands",
        "country_code": "ck"
      },
      "address": "911, Avatiu, Avarua, 88430 Rarotonga, Cook Islands"
    },
    {
      "lat": -21.210267727544565,
      "lon": -159.77820518618617,
      "geoinfo": {
        "display_name": "Ara Metua, Avatiu, Avarua, Rarotonga, Cook Islands",
        "road": "Ara Metua",
        "house_number": null,
        "neighbourhood": null,
        "suburb": "Avatiu",
        "city_district": null,
        "city": "Avarua",
        "state": "Rarotonga",
        "postcode": null,
        "country": "Cook Islands",
        "country_code": "ck"
      },
      "address": "678, Ara Metua, Avatiu, Avarua, 65946 Rarotonga, Cook Islands"
    },
    {
      "lat": -21.212743049515684,
      "lon": -159.80383442263195,
      "geoinfo": {
        "display_name": "Hunters track along ridge, Avatiu, Nikao, Avarua, Rarotonga, Cook Islands",
        "road": "Hunters track along ridge",
        "house_number": null,
        "neighbourhood": null,
        "suburb": "Avatiu",
        "city_district": null,
        "city": "Avarua",
        "state": "Rarotonga",
        "postcode": null,
        "country": "Cook Islands",
        "country_code": "ck"
      },
      "address": "651, Hunters track along ridge, Avatiu, Nikao, Avarua, 72096 Rarotonga, Cook Islands"
    },
    {
      "lat": -21.21547772014568,
      "lon": -159.8191295900505,
      "geoinfo": {
        "display_name": "Pleasant Forest Walk, Nikao, Avarua, Rarotonga, Cook Islands",
        "road": "Pleasant Forest Walk",
        "house_number": null,
        "neighbourhood": null,
        "suburb": null,
        "city_district": null,
        "city": "Avarua",
        "state": "Rarotonga",
        "postcode": null,
        "country": "Cook Islands",
        "country_code": "ck"
      },
      "address": "832, Pleasant Forest Walk, Nikao, Avarua, 91953 Rarotonga, Cook Islands"
    },
    {
      "lat": -21.208189666913203,
      "lon": -159.73729575491066,
      "geoinfo": {
        "display_name": "Ara Tapu, Avarua, Rarotonga, Cook Islands",
        "road": "Ara Tapu",
        "house_number": null,
        "neighbourhood": null,
        "suburb": null,
        "city_district": null,
        "city": "Avarua",
        "state": "Rarotonga",
        "postcode": null,
        "country": "Cook Islands",
        "country_code": "ck"
      },
      "address": "213, Ara Tapu, Avarua, 85147 Rarotonga, Cook Islands"
    },
    {
      "lat": -21.168151224586552,
      "lon": -159.7985121808433,
      "geoinfo": {
        "display_name": "Avarua, Rarotonga, Cook Islands",
        "road": null,
        "house_number": null,
        "neighbourhood": null,
        "suburb": null,
        "city_district": null,
        "city": "Avarua",
        "state": "Rarotonga",
        "postcode": null,
        "country": "Cook Islands",
        "country_code": "ck"
      },
      "address": "036, Avarua, 19323 Rarotonga, Cook Islands"
    },
    {
      "lat": -21.185746236251084,
      "lon": -159.768668037273,
      "geoinfo": {
        "display_name": "Pue, Avarua, Rarotonga, Cook Islands",
        "road": null,
        "house_number": null,
        "neighbourhood": null,
        "suburb": "Pue",
        "city_district": null,
        "city": "Avarua",
        "state": "Rarotonga",
        "postcode": null,
        "country": "Cook Islands",
        "country_code": "ck"
      },
      "address": "963, Pue, Avarua, 50172 Rarotonga, Cook Islands"
    },
    {
      "lat": -21.192796624416026,
      "lon": -159.8112316429666,
      "geoinfo": {
        "display_name": "Nikao, Avarua, Rarotonga, Cook Islands",
        "road": null,
        "house_number": null,
        "neighbourhood": null,
        "suburb": null,
        "city_district": null,
        "city": "Avarua",
        "state": "Rarotonga",
        "postcode": null,
        "country": "Cook Islands",
        "country_code": "ck"
      },
      "address": "775, Nikao, Avarua, 54712 Rarotonga, Cook Islands"
    },
    {
      "lat": -21.231131691407263,
      "lon": -159.73713937837053,
      "geoinfo": {
        "display_name": "Ara Metua, Matavera, Rarotonga, Cook Islands",
        "road": "Ara Metua",
        "house_number": null,
        "neighbourhood": null,
        "suburb": null,
        "city_district": null,
        "city": "Matavera",
        "state": "Rarotonga",
        "postcode": null,
        "country": "Cook Islands",
        "country_code": "ck"
      },
      "address": "269, Ara Metua, Avarua, 07243 Rarotonga, Cook Islands"
    },
    {
      "lat": -21.184779308534768,
      "lon": -159.76772891123764,
      "geoinfo": {
        "display_name": "Pue, Avarua, Rarotonga, Cook Islands",
        "road": null,
        "house_number": null,
        "neighbourhood": null,
        "suburb": "Pue",
        "city_district": null,
        "city": "Avarua",
        "state": "Rarotonga",
        "postcode": null,
        "country": "Cook Islands",
        "country_code": "ck"
      },
      "address": "043, Pue, Avarua, 35321 Rarotonga, Cook Islands"
    },
    {
      "lat": -21.22421296182649,
      "lon": -159.7551775104199,
      "geoinfo": {
        "display_name": "Tupapa Road, Pue, Avarua, Rarotonga, Cook Islands",
        "road": "Tupapa Road",
        "house_number": null,
        "neighbourhood": null,
        "suburb": "Pue",
        "city_district": null,
        "city": "Avarua",
        "state": "Rarotonga",
        "postcode": null,
        "country": "Cook Islands",
        "country_code": "ck"
      },
      "address": "471, Tupapa Road, Pue, Avarua, 71437 Rarotonga, Cook Islands"
    },
    {
      "lat": -21.226200874560124,
      "lon": -159.75478855430808,
      "geoinfo": {
        "display_name": "Tupapa Road, Pue, Avarua, Rarotonga, Cook Islands",
        "road": "Tupapa Road",
        "house_number": null,
        "neighbourhood": null,
        "suburb": "Pue",
        "city_district": null,
        "city": "Avarua",
        "state": "Rarotonga",
        "postcode": null,
        "country": "Cook Islands",
        "country_code": "ck"
      },
      "address": "180, Tupapa Road, Pue, Avarua, 14009 Rarotonga, Cook Islands"
    },
    {
      "lat": -21.22748200230703,
      "lon": -159.76272426623842,
      "geoinfo": {
        "display_name": "Not quite to top of Te Manga, Avarua, Rarotonga, Cook Islands",
        "road": "Not quite to top of Te Manga",
        "house_number": null,
        "neighbourhood": null,
        "suburb": null,
        "city_district": null,
        "city": "Avarua",
        "state": "Rarotonga",
        "postcode": null,
        "country": "Cook Islands",
        "country_code": "ck"
      },
      "address": "314, Not quite to top of Te Manga, Avarua, 87533 Rarotonga, Cook Islands"
    },
    {
      "lat": -21.227410612383757,
      "lon": -159.7566318107667,
      "geoinfo": {
        "display_name": "Not quite to top of Te Manga, Avarua, Rarotonga, Cook Islands",
        "road": "Not quite to top of Te Manga",
        "house_number": null,
        "neighbourhood": null,
        "suburb": null,
        "city_district": null,
        "city": "Avarua",
        "state": "Rarotonga",
        "postcode": null,
        "country": "Cook Islands",
        "country_code": "ck"
      },
      "address": "704, Not quite to top of Te Manga, Avarua, 42893 Rarotonga, Cook Islands"
    },
    {
      "lat": -21.192147587337246,
      "lon": -159.75079514745906,
      "geoinfo": {
        "display_name": "Pue, Avarua, Rarotonga, Cook Islands",
        "road": null,
        "house_number": null,
        "neighbourhood": null,
        "suburb": "Pue",
        "city_district": null,
        "city": "Avarua",
        "state": "Rarotonga",
        "postcode": null,
        "country": "Cook Islands",
        "country_code": "ck"
      },
      "address": "264, Pue, Avarua, 28679 Rarotonga, Cook Islands"
    },
    {
      "lat": -21.172013307440146,
      "lon": -159.76918782111076,
      "geoinfo": {
        "display_name": "Pue, Avarua, Rarotonga, Cook Islands",
        "road": null,
        "house_number": null,
        "neighbourhood": null,
        "suburb": "Pue",
        "city_district": null,
        "city": "Avarua",
        "state": "Rarotonga",
        "postcode": null,
        "country": "Cook Islands",
        "country_code": "ck"
      },
      "address": "837, Pue, Avarua, 00463 Rarotonga, Cook Islands"
    },
    {
      "lat": -21.21311893596075,
      "lon": -159.77411534709805,
      "geoinfo": {
        "display_name": "Happy Valley Road, Takuvaine Valley, Avarua, Rarotonga, Cook Islands",
        "road": "Happy Valley Road",
        "house_number": null,
        "neighbourhood": null,
        "suburb": null,
        "city_district": null,
        "city": "Avarua",
        "state": "Rarotonga",
        "postcode": null,
        "country": "Cook Islands",
        "country_code": "ck"
      },
      "address": "648, Happy Valley Road, Takuvaine Valley, Avarua, 99042 Rarotonga, Cook Islands"
    },
    {
      "lat": -21.202227694120605,
      "lon": -159.75783648361232,
      "geoinfo": {
        "display_name": "Game Fishing Club, Ara Tapu, Pue, Avarua, Rarotonga, Cook Islands",
        "road": "Ara Tapu",
        "house_number": null,
        "neighbourhood": null,
        "suburb": "Pue",
        "city_district": null,
        "city": "Avarua",
        "state": "Rarotonga",
        "postcode": null,
        "country": "Cook Islands",
        "country_code": "ck"
      },
      "address": "110, Ara Tapu, Avarua, 85479 Rarotonga, Cook Islands"
    },
    {
      "lat": -21.208739847403404,
      "lon": -159.73165817309535,
      "geoinfo": {
        "display_name": "Pue, Avarua, Rarotonga, Cook Islands",
        "road": null,
        "house_number": null,
        "neighbourhood": null,
        "suburb": "Pue",
        "city_district": null,
        "city": "Avarua",
        "state": "Rarotonga",
        "postcode": null,
        "country": "Cook Islands",
        "country_code": "ck"
      },
      "address": "027, Pue, Avarua, 35482 Rarotonga, Cook Islands"
    },
    {
      "lat": -21.223011612878853,
      "lon": -159.76368614400022,
      "geoinfo": {
        "display_name": "Ikurangi Track, Avarua, Rarotonga, Cook Islands",
        "road": "Ikurangi Track",
        "house_number": null,
        "neighbourhood": null,
        "suburb": null,
        "city_district": null,
        "city": "Avarua",
        "state": "Rarotonga",
        "postcode": null,
        "country": "Cook Islands",
        "country_code": "ck"
      },
      "address": "976, Ikurangi Track, Avarua, 63371 Rarotonga, Cook Islands"
    },
    {
      "lat": -21.201701468634536,
      "lon": -159.73661750845184,
      "geoinfo": {
        "display_name": "Pue, Avarua, Rarotonga, Cook Islands",
        "road": null,
        "house_number": null,
        "neighbourhood": null,
        "suburb": "Pue",
        "city_district": null,
        "city": "Avarua",
        "state": "Rarotonga",
        "postcode": null,
        "country": "Cook Islands",
        "country_code": "ck"
      },
      "address": "966, Pue, Avarua, 97990 Rarotonga, Cook Islands"
    },
    {
      "lat": -21.233456800327307,
      "lon": -159.78914474169576,
      "geoinfo": {
        "display_name": "Cross-Island Track, Vaimaanga, Avarua, Rarotonga, Cook Islands",
        "road": "Cross-Island Track",
        "house_number": null,
        "neighbourhood": null,
        "suburb": null,
        "city_district": null,
        "city": "Avarua",
        "state": "Rarotonga",
        "postcode": null,
        "country": "Cook Islands",
        "country_code": "ck"
      },
      "address": "776, Cross-Island Track, Vaimaanga, Avarua, 75116 Rarotonga, Cook Islands"
    },
    {
      "lat": -21.197650550772572,
      "lon": -159.73340993613974,
      "geoinfo": {
        "display_name": "Pue, Avarua, Rarotonga, Cook Islands",
        "road": null,
        "house_number": null,
        "neighbourhood": null,
        "suburb": "Pue",
        "city_district": null,
        "city": "Avarua",
        "state": "Rarotonga",
        "postcode": null,
        "country": "Cook Islands",
        "country_code": "ck"
      },
      "address": "590, Pue, Avarua, 18025 Rarotonga, Cook Islands"
    },
    {
      "lat": -21.22240380824073,
      "lon": -159.7488278819494,
      "geoinfo": {
        "display_name": "Tupapa Road, Pue, Avarua, Rarotonga, Cook Islands",
        "road": "Tupapa Road",
        "house_number": null,
        "neighbourhood": null,
        "suburb": "Pue",
        "city_district": null,
        "city": "Avarua",
        "state": "Rarotonga",
        "postcode": null,
        "country": "Cook Islands",
        "country_code": "ck"
      },
      "address": "936, Tupapa Road, Pue, Avarua, 18793 Rarotonga, Cook Islands"
    },
    {
      "lat": -21.217422598227216,
      "lon": -159.74590546374407,
      "geoinfo": {
        "display_name": "Matavera, Rarotonga, Cook Islands",
        "road": null,
        "house_number": null,
        "neighbourhood": null,
        "suburb": null,
        "city_district": null,
        "city": "Matavera",
        "state": "Rarotonga",
        "postcode": null,
        "country": "Cook Islands",
        "country_code": "ck"
      },
      "address": "349, Avarua, 36277 Rarotonga, Cook Islands"
    }
  ],
  "updated_at": "2025-10-19T03:17:38.217093+00:00",
  "_kind": "geo_samples"
}