{
  "country_code": "UY",
  "country": "Uruguay",
  "city": "Mercedes",
  "geonameid": 3441684,
  "target_addresses": 4,
  "samples": [
    {
      "lat": -33.28872256831653,
      "lon": -58.05069690506639,
      "geoinfo": {
        "display_name": "Ruta 95, Soriano, Uruguay",
        "road": "Ruta 95",
        "house_number": null,
        "neighbourhood": null,
        "suburb": null,
        "city_district": null,
        "city": null,
        "state": "Soriano",
        "postcode": null,
        "country": "Uruguay",
        "country_code": "uy"
      },
      "address": "Ruta 95, Mercedes, Soriano, Uruguay"
    },
    {
      "lat": -33.28753580972682,
      "lon": -58.02363848273613,
      "geoinfo": {
        "display_name": "1013, General Manuel Oribe, Mercedes, Soriano, 75000, Uruguay",
        "road": "General Manuel Oribe",
        "house_number": "1013",
        "neighbourhood": null,
        "suburb": null,
        "city_district": null,
        "city": "Mercedes",
        "state": "Soriano",
        "postcode": "75000",
        "country": "Uruguay",
        "country_code": "uy"
      },
      "address": "1013 General Manuel Oribe, Mercedes, Soriano, Uruguay"
    },
    {
      "lat": -33.25956287322941,
      "lon": -58.04370748930155,
      "geoinfo": {
        "display_name": "Hipódromo, Mercedes, Soriano, 75000, Uruguay",
        "road": null,
        "house_number": null,
        "neighbourhood": "Hipódromo",
        "suburb": null,
        "city_district": null,
        "city": "Mercedes",
        "state": "Soriano",
        "postcode": "75000",
        "country": "Uruguay",
        "country_code": "uy"
      },
      "address": "Hipódromo, Mercedes, Soriano, Uruguay"
    },
    {
      "lat": -33.28378208798832,
      "lon": -58.01109498542919,
      "geoinfo": {
        "display_name": "Soriano, 75000, Uruguay",
        "road": null,
        "house_number": null,
        "neighbourhood": null,
        "suburb": null,
        "city_district": null,
        "city": null,
        "state": "Soriano",
        "postcode": "75000",
        "country": "Uruguay",
        "country_code": "uy"
      },
      "address": "Mercedes, Soriano, Uruguay"
    },
    {
      "lat": -33.28461849407072,
      "lon": -58.05704219294529,
      "geoinfo": {
        "display_name": "Ruta 95, Soriano, Uruguay",
        "road": "Ruta 95",
        "house_number": null,
        "neighbourhood": null,
        "suburb": null,
        "city_district": null,
        "city": null,
        "state": "Soriano",
        "postcode": null,
        "country": "Uruguay",
        "country_code": "uy"
      },
      "address": "Ruta 95, Mercedes, 22510 Soriano, Uruguay"
    },
    {
      "lat": -33.266550912336356,
      "lon": -58.046954707356704,
      "geoinfo": {
        "display_name": "Mercedes, Soriano, 75000, Uruguay",
        "road": null,
        "house_number": null,
        "neighbourhood": null,
        "suburb": null,
        "city_district": null,
        "city": "Mercedes",
        "state": "Soriano",
        "postcode": "75000",
        "country": "Uruguay",
        "country_code": "uy"
      },
      "address": "330, Mercedes, Soriano, 75000, Uruguay"
    },
    {
      "lat": -33.28473485648045,
      "lon": -58.01955343139043,
      "geoinfo": {
        "display_name": "27, Ruta 2 Grito de Asencio, Soriano, 75000, Uruguay",
        "road": "Ruta 2 Grito de Asencio",
        "house_number": "27",
        "neighbourhood": null,
        "suburb": null,
        "city_district": null,
        "city": null,
        "state": "Soriano",
        "postcode": "75000",
        "country": "Uruguay",
        "country_code": "uy"
      },
      "address": "27, Ruta 2 Grito de Asencio, Soriano, 75000, Uruguay"
    },
    {
      "lat": -33.27100617304112,
      "lon": -58.06428521680727,
      "geoinfo": {
        "display_name": "Soriano, Uruguay",
        "road": null,
        "house_number": null,
        "neighbourhood": null,
        "suburb": null,
        "city_district": null,
        "city": null,
        "state": "Soriano",
        "postcode": null,
        "country": "Uruguay",
        "country_code": "uy"
      },
      "address": "631, Mercedes, 61815 Soriano, Uruguay"
    }
  ],
  "updated_at": "2025-10-19T06:24:22.309195+00:00",
  "_kind": "geo_samples"
}