{
  "country_code": "UY",
  "country": "Uruguay",
  "city": "Progreso",
  "geonameid": 3440963,
  "target_addresses": 4,
  "samples": [
    {
      "lat": -34.644547560466705,
      "lon": -56.21197708618532,
      "geoinfo": {
        "display_name": "2, Rocha, Progreso, Municipio de Las Piedras, Canelones, 15900, Uruguay",
        "road": "Rocha",
        "house_number": "2",
        "neighbourhood": null,
        "suburb": null,
        "city_district": null,
        "city": "Progreso",
        "state": "Canelones",
        "postcode": "15900",
        "country": "Uruguay",
        "country_code": "uy"
      },
      "address": "2 Rocha, Progreso, Canelones, Uruguay"
    },
    {
      "lat": -34.647457721842805,
      "lon": -56.171461034871854,
      "geoinfo": {
        "display_name": "18 de Mayo, Municipio de Las Piedras, Canelones, 90300, Uruguay",
        "road": null,
        "house_number": null,
        "neighbourhood": null,
        "suburb": null,
        "city_district": null,
        "city": "18 de Mayo",
        "state": "Canelones",
        "postcode": "90300",
        "country": "Uruguay",
        "country_code": "uy"
      },
      "address": "Progreso, Canelones, Uruguay"
    },
    {
      "lat": -34.65818114301437,
      "lon": -56.22236481550031,
      "geoinfo": {
        "display_name": "5805, Dora Pumar de González, Progreso, Municipio de Las Piedras, Canelones, 15900, Uruguay",
        "road": "Dora Pumar de González",
        "house_number": "5805",
        "neighbourhood": null,
        "suburb": null,
        "city_district": null,
        "city": "Progreso",
        "state": "Canelones",
        "postcode": "15900",
        "country": "Uruguay",
        "country_code": "uy"
      },
      "address": "5805 Dora Pumar de González, Progreso, Canelones, Uruguay"
    },
    {
      "lat": -34.65507639327941,
      "lon": -56.23273080117022,
      "geoinfo": {
        "display_name": "70, General Artigas, Progreso, Municipio de Las Piedras, Canelones, 15900, Uruguay",
        "road": "General Artigas",
        "house_number": "70",
        "neighbourhood": null,
        "suburb": null,
        "city_district": null,
        "city": "Progreso",
        "state": "Canelones",
        "postcode": "15900",
        "country": "Uruguay",
        "country_code": "uy"
      },
      "address": "70 General Artigas, Progreso, Canelones, Uruguay"
    },
    {
      "lat": -34.71080678657767,
      "lon": -56.20962777856261,
      "geoinfo": {
        "display_name": "24, Ruta 67, Villa Regina, 18 de Mayo, Municipio de Las Piedras, Canelones, 15900, Uruguay",
        "road": "Ruta 67",
        "house_number": "24",
        "neighbourhood": "Villa Regina",
        "suburb": null,
        "city_district": null,
        "city": "18 de Mayo",
        "state": "Canelones",
        "postcode": "15900",
        "country": "Uruguay",
        "country_code": "uy"
      },
      "address": "24, Ruta 67, Villa Regina, 18 de Mayo, Municipio de Las Piedras, Canelones, 15900, Uruguay"
    },
    {
      "lat": -34.65935503576617,
      "lon": -56.19973508250358,
      "geoinfo": {
        "display_name": "2, Montevideo, 18 de Mayo, Municipio de Las Piedras, Canelones, 15900, Uruguay",
        "road": "Montevideo",
        "house_number": "2",
        "neighbourhood": null,
        "suburb": null,
        "city_district": null,
        "city": "18 de Mayo",
        "state": "Canelones",
        "postcode": "15900",
        "country": "Uruguay",
        "country_code": "uy"
      },
      "address": "2, Montevideo, 18 de Mayo, Municipio de Las Piedras, Canelones, 15900, Uruguay"
    },
    {
      "lat": -34.668876746389074,
      "lon": -56.22921761307567,
      "geoinfo": {
        "display_name": "Hermano Engelberto Francois Duchene, Progreso, Municipio de Las Piedras, Canelones, 90300, Uruguay",
        "road": "Hermano Engelberto Francois Duchene",
        "house_number": null,
        "neighbourhood": null,
        "suburb": null,
        "city_district": null,
        "city": "Progreso",
        "state": "Canelones",
        "postcode": "90300",
        "country": "Uruguay",
        "country_code": "uy"
      },
      "address": "117, Hermano Engelberto Francois Duchene, Progreso, Municipio de Las Piedras, Canelones, 90300, Uruguay"
    },
    {
      "lat": -34.70930525132419,
      "lon": -56.22164932330541,
      "geoinfo": {
        "display_name": "3601, Ituzaingó, Villa Dorado, 18 de Mayo, Municipio de Las Piedras, Canelones, 15900, Uruguay",
        "road": "Ituzaingó",
        "house_number": "3601",
        "neighbourhood": "Villa Dorado",
        "suburb": null,
        "city_district": null,
        "city": "18 de Mayo",
        "state": "Canelones",
        "postcode": "15900",
        "country": "Uruguay",
        "country_code": "uy"
      },
      "address": "3601, Ituzaingó, Villa Dorado, 18 de Mayo, Municipio de Las Piedras, Canelones, 15900, Uruguay"
    }
  ],
  "updated_at": "2025-10-19T05:36:02.328607+00:00",
  "_kind": "geo_samples"
}