{
  "country_code": "UY",
  "country": "Uruguay",
  "city": "Salto",
  "geonameid": 3440714,
  "target_addresses": 4,
  "samples": [
    {
      "lat": -31.36709791009932,
      "lon": -57.913882659957125,
      "geoinfo": {
        "display_name": "Concordia, Da Rosa, Salto, 50000, Uruguay",
        "road": "Concordia",
        "house_number": null,
        "neighbourhood": "Da Rosa",
        "suburb": null,
        "city_district": null,
        "city": "Salto",
        "state": "Salto",
        "postcode": "50000",
        "country": "Uruguay",
        "country_code": "uy"
      },
      "address": "Concordia, Salto, Salto, Uruguay"
    },
    {
      "lat": -31.428538026207306,
      "lon": -57.980883683370394,
      "geoinfo": {
        "display_name": "Avenida Mario Apaulazza, Villa Maguey, Salto, Uruguay",
        "road": "Avenida Mario Apaulazza",
        "house_number": null,
        "neighbourhood": null,
        "suburb": null,
        "city_district": null,
        "city": null,
        "state": "Salto",
        "postcode": null,
        "country": "Uruguay",
        "country_code": "uy"
      },
      "address": "Avenida Mario Apaulazza, Salto, Salto, Uruguay"
    },
    {
      "lat": -31.361213855222996,
      "lon": -57.973607695649505,
      "geoinfo": {
        "display_name": "Avenida Saturnino Ribes, La Humedad, Salto, 50000, Uruguay",
        "road": "Avenida Saturnino Ribes",
        "house_number": null,
        "neighbourhood": "La Humedad",
        "suburb": null,
        "city_district": null,
        "city": "Salto",
        "state": "Salto",
        "postcode": "50000",
        "country": "Uruguay",
        "country_code": "uy"
      },
      "address": "Avenida Saturnino Ribes, Salto, Salto, Uruguay"
    },
    {
      "lat": -31.366457514961226,
      "lon": -57.9604004788006,
      "geoinfo": {
        "display_name": "Dos Naciones, Salto, 50000, Uruguay",
        "road": null,
        "house_number": null,
        "neighbourhood": "Dos Naciones",
        "suburb": null,
        "city_district": null,
        "city": "Salto",
        "state": "Salto",
        "postcode": "50000",
        "country": "Uruguay",
        "country_code": "uy"
      },
      "address": "Dos Naciones, Salto, Salto, Uruguay"
    },
    {
      "lat": -31.37954499194486,
      "lon": -57.9797663246293,
      "geoinfo": {
        "display_name": "Paseo de la costa, Salto, 50000, Uruguay",
        "road": "Paseo de la costa",
        "house_number": null,
        "neighbourhood": null,
        "suburb": null,
        "city_district": null,
        "city": "Salto",
        "state": "Salto",
        "postcode": "50000",
        "country": "Uruguay",
        "country_code": "uy"
      },
      "address": "850, Paseo de la costa, Salto, 50000, Uruguay"
    },
    {
      "lat": -31.351231602981354,
      "lon": -57.954861873130966,
      "geoinfo": {
        "display_name": "Barrio Norte, Salto, 50000, Uruguay",
        "road": null,
        "house_number": null,
        "neighbourhood": "Barrio Norte",
        "suburb": null,
        "city_district": null,
        "city": "Salto",
        "state": "Salto",
        "postcode": "50000",
        "country": "Uruguay",
        "country_code": "uy"
      },
      "address": "390, Barrio Norte, Salto, 50000, Uruguay"
    },
    {
      "lat": -31.41295885712482,
      "lon": -57.979280532526644,
      "geoinfo": {
        "display_name": "Doctor Tom√°s Green, Lorenzo Cattaneo Faga, Horacio Quiroga, Salto, 50000, Uruguay",
        "road": "Lorenzo Cattaneo Faga",
        "house_number": null,
        "neighbourhood": "Horacio Quiroga",
        "suburb": null,
        "city_district": null,
        "city": "Salto",
        "state": "Salto",
        "postcode": "50000",
        "country": "Uruguay",
        "country_code": "uy"
      },
      "address": "159, Lorenzo Cattaneo Faga, Salto, 50000 Salto, Uruguay"
    },
    {
      "lat": -31.40651727688386,
      "lon": -57.91437368675913,
      "geoinfo": {
        "display_name": "Artigas, Salto, 50000, Uruguay",
        "road": null,
        "house_number": null,
        "neighbourhood": "Artigas",
        "suburb": null,
        "city_district": null,
        "city": null,
        "state": "Salto",
        "postcode": "50000",
        "country": "Uruguay",
        "country_code": "uy"
      },
      "address": "953, Artigas, Salto, 50000 Salto, Uruguay"
    }
  ],
  "updated_at": "2025-10-19T06:23:43.722061+00:00",
  "_kind": "geo_samples"
}