{
  "country_code": "UY",
  "country": "Uruguay",
  "city": "San José de Mayo",
  "geonameid": 3440639,
  "target_addresses": 4,
  "samples": [
    {
      "lat": -34.299777841088215,
      "lon": -56.73868742285891,
      "geoinfo": {
        "display_name": "Camino al Paso del Rey, San José, Uruguay",
        "road": "Camino al Paso del Rey",
        "house_number": null,
        "neighbourhood": null,
        "suburb": null,
        "city_district": null,
        "city": null,
        "state": "San José",
        "postcode": null,
        "country": "Uruguay",
        "country_code": "uy"
      },
      "address": "Camino al Paso del Rey, San José de Mayo, San José, Uruguay"
    },
    {
      "lat": -34.377612666336404,
      "lon": -56.72699243092758,
      "geoinfo": {
        "display_name": "Ruta 3 General José Gervasio Artigas, San José, 80000, Uruguay",
        "road": "Ruta 3 General José Gervasio Artigas",
        "house_number": null,
        "neighbourhood": null,
        "suburb": null,
        "city_district": null,
        "city": null,
        "state": "San José",
        "postcode": "80000",
        "country": "Uruguay",
        "country_code": "uy"
      },
      "address": "Ruta 3 General José Gervasio Artigas, San José de Mayo, San José, Uruguay"
    },
    {
      "lat": -34.336223848596035,
      "lon": -56.70984941178918,
      "geoinfo": {
        "display_name": "716, Zorrilla de San Martín, San José, 80000, Uruguay",
        "road": "Zorrilla de San Martín",
        "house_number": "716",
        "neighbourhood": null,
        "suburb": null,
        "city_district": null,
        "city": "San José",
        "state": "San José",
        "postcode": "80000",
        "country": "Uruguay",
        "country_code": "uy"
      },
      "address": "716 Zorrilla de San Martín, San José de Mayo, San José, Uruguay"
    },
    {
      "lat": -34.335426443457706,
      "lon": -56.70737657208336,
      "geoinfo": {
        "display_name": "819, Zorrilla de San Martín, San José, 80000, Uruguay",
        "road": "Zorrilla de San Martín",
        "house_number": "819",
        "neighbourhood": null,
        "suburb": null,
        "city_district": null,
        "city": "San José",
        "state": "San José",
        "postcode": "80000",
        "country": "Uruguay",
        "country_code": "uy"
      },
      "address": "819 Zorrilla de San Martín, San José de Mayo, San José, Uruguay"
    },
    {
      "lat": -34.31122383879471,
      "lon": -56.726151318024854,
      "geoinfo": {
        "display_name": "San José, Uruguay",
        "road": null,
        "house_number": null,
        "neighbourhood": null,
        "suburb": null,
        "city_district": null,
        "city": null,
        "state": "San José",
        "postcode": null,
        "country": "Uruguay",
        "country_code": "uy"
      },
      "address": "451, San José de Mayo, 91850 San José, Uruguay"
    },
    {
      "lat": -34.36307782851485,
      "lon": -56.75540551044006,
      "geoinfo": {
        "display_name": "Camino del Carretón, San José, 80000, Uruguay",
        "road": "Camino del Carretón",
        "house_number": null,
        "neighbourhood": null,
        "suburb": null,
        "city_district": null,
        "city": "San José",
        "state": "San José",
        "postcode": "80000",
        "country": "Uruguay",
        "country_code": "uy"
      },
      "address": "051, Camino del Carretón, San José, 80000, Uruguay"
    },
    {
      "lat": -34.30334442201906,
      "lon": -56.69403236569395,
      "geoinfo": {
        "display_name": "San José, Uruguay",
        "road": null,
        "house_number": null,
        "neighbourhood": null,
        "suburb": null,
        "city_district": null,
        "city": null,
        "state": "San José",
        "postcode": null,
        "country": "Uruguay",
        "country_code": "uy"
      },
      "address": "095, San José de Mayo, 18462 San José, Uruguay"
    },
    {
      "lat": -34.325825079648055,
      "lon": -56.70472448621286,
      "geoinfo": {
        "display_name": "934, Costa Rica, San José, 80000, Uruguay",
        "road": "Costa Rica",
        "house_number": "934",
        "neighbourhood": null,
        "suburb": null,
        "city_district": null,
        "city": "San José",
        "state": "San José",
        "postcode": "80000",
        "country": "Uruguay",
        "country_code": "uy"
      },
      "address": "934, Costa Rica, San José, 80000, Uruguay"
    }
  ],
  "updated_at": "2025-10-19T07:49:02.408999+00:00",
  "_kind": "geo_samples"
}