{
  "country_code": "UY",
  "country": "Uruguay",
  "city": "San Carlos",
  "geonameid": 3440696,
  "target_addresses": 4,
  "samples": [
    {
      "lat": -34.80967617068857,
      "lon": -54.94178848844803,
      "geoinfo": {
        "display_name": "Carlos Seijo, Maldonado, 20400, Uruguay",
        "road": "Carlos Seijo",
        "house_number": null,
        "neighbourhood": null,
        "suburb": null,
        "city_district": null,
        "city": null,
        "state": "Maldonado",
        "postcode": "20400",
        "country": "Uruguay",
        "country_code": "uy"
      },
      "address": "Carlos Seijo, San Carlos, Maldonado, Uruguay"
    },
    {
      "lat": -34.80195952332863,
      "lon": -54.93378940827151,
      "geoinfo": {
        "display_name": "San Carlos, Maldonado, 20400, Uruguay",
        "road": null,
        "house_number": null,
        "neighbourhood": null,
        "suburb": null,
        "city_district": null,
        "city": "San Carlos",
        "state": "Maldonado",
        "postcode": "20400",
        "country": "Uruguay",
        "country_code": "uy"
      },
      "address": "San Carlos, Maldonado, Uruguay"
    },
    {
      "lat": -34.793174236808504,
      "lon": -54.94196413495914,
      "geoinfo": {
        "display_name": "Camino a Molino Lavagna, Maldonado, 20400, Uruguay",
        "road": "Camino a Molino Lavagna",
        "house_number": null,
        "neighbourhood": null,
        "suburb": null,
        "city_district": null,
        "city": null,
        "state": "Maldonado",
        "postcode": "20400",
        "country": "Uruguay",
        "country_code": "uy"
      },
      "address": "Camino a Molino Lavagna, San Carlos, Maldonado, Uruguay"
    },
    {
      "lat": -34.79027251443984,
      "lon": -54.91037612222203,
      "geoinfo": {
        "display_name": "611, Alejo Fernández Chávez, San Carlos, Maldonado, 20400, Uruguay",
        "road": "Alejo Fernández Chávez",
        "house_number": "611",
        "neighbourhood": null,
        "suburb": null,
        "city_district": null,
        "city": "San Carlos",
        "state": "Maldonado",
        "postcode": "20400",
        "country": "Uruguay",
        "country_code": "uy"
      },
      "address": "611 Alejo Fernández Chávez, San Carlos, Maldonado, Uruguay"
    },
    {
      "lat": -34.83415408167348,
      "lon": -54.93263645352195,
      "geoinfo": {
        "display_name": "Maldonado, Uruguay",
        "road": null,
        "house_number": null,
        "neighbourhood": null,
        "suburb": null,
        "city_district": null,
        "city": null,
        "state": "Maldonado",
        "postcode": null,
        "country": "Uruguay",
        "country_code": "uy"
      },
      "address": "429, San Carlos, 94889 Maldonado, Uruguay"
    },
    {
      "lat": -34.80241246866502,
      "lon": -54.888158870312964,
      "geoinfo": {
        "display_name": "Camino del Cerro Eguzquiza, Maldonado, 20400, Uruguay",
        "road": "Camino del Cerro Eguzquiza",
        "house_number": null,
        "neighbourhood": null,
        "suburb": null,
        "city_district": null,
        "city": null,
        "state": "Maldonado",
        "postcode": "20400",
        "country": "Uruguay",
        "country_code": "uy"
      },
      "address": "448, Camino del Cerro Eguzquiza, Maldonado, 20400, Uruguay"
    },
    {
      "lat": -34.80099652298988,
      "lon": -54.88811109332866,
      "geoinfo": {
        "display_name": "Camino a Quinta Medina, Maldonado, 20400, Uruguay",
        "road": "Camino a Quinta Medina",
        "house_number": null,
        "neighbourhood": null,
        "suburb": null,
        "city_district": null,
        "city": null,
        "state": "Maldonado",
        "postcode": "20400",
        "country": "Uruguay",
        "country_code": "uy"
      },
      "address": "337, Camino a Quinta Medina, Maldonado, 20400, Uruguay"
    },
    {
      "lat": -34.788647755938875,
      "lon": -54.935650033552484,
      "geoinfo": {
        "display_name": "4264, Vecinal Costanera a Maldonado, San Carlos, Maldonado, 20400, Uruguay",
        "road": "Vecinal Costanera a Maldonado",
        "house_number": "4264",
        "neighbourhood": null,
        "suburb": null,
        "city_district": null,
        "city": "San Carlos",
        "state": "Maldonado",
        "postcode": "20400",
        "country": "Uruguay",
        "country_code": "uy"
      },
      "address": "4264, Vecinal Costanera a Maldonado, San Carlos, Maldonado, 20400, Uruguay"
    }
  ],
  "updated_at": "2025-10-19T07:43:58.374546+00:00",
  "_kind": "geo_samples"
}