{
  "country_code": "UY",
  "country": "Uruguay",
  "city": "Trinidad",
  "geonameid": 3439748,
  "target_addresses": 4,
  "samples": [
    {
      "lat": -33.55952107818128,
      "lon": -56.89422338080477,
      "geoinfo": {
        "display_name": "Flores, Uruguay",
        "road": null,
        "house_number": null,
        "neighbourhood": null,
        "suburb": null,
        "city_district": null,
        "city": null,
        "state": "Flores",
        "postcode": null,
        "country": "Uruguay",
        "country_code": "uy"
      },
      "address": "Trinidad, Flores, Uruguay"
    },
    {
      "lat": -33.530554146598305,
      "lon": -56.90703944607669,
      "geoinfo": {
        "display_name": "Ruta 57, Trinidad, Flores, 85000, Uruguay",
        "road": "Ruta 57",
        "house_number": null,
        "neighbourhood": null,
        "suburb": null,
        "city_district": null,
        "city": "Trinidad",
        "state": "Flores",
        "postcode": "85000",
        "country": "Uruguay",
        "country_code": "uy"
      },
      "address": "Ruta 57, Trinidad, Flores, Uruguay"
    },
    {
      "lat": -33.52908586453321,
      "lon": -56.87205331418802,
      "geoinfo": {
        "display_name": "A Juan Pablo, Trinidad, Flores, 85000, Uruguay",
        "road": "A Juan Pablo",
        "house_number": null,
        "neighbourhood": null,
        "suburb": null,
        "city_district": null,
        "city": "Trinidad",
        "state": "Flores",
        "postcode": "85000",
        "country": "Uruguay",
        "country_code": "uy"
      },
      "address": "A Juan Pablo, Trinidad, Flores, Uruguay"
    },
    {
      "lat": -33.51238899979046,
      "lon": -56.91482236447075,
      "geoinfo": {
        "display_name": "Ruta 3 General José Gervasio Artigas, Flores, 85000, Uruguay",
        "road": "Ruta 3 General José Gervasio Artigas",
        "house_number": null,
        "neighbourhood": null,
        "suburb": null,
        "city_district": null,
        "city": null,
        "state": "Flores",
        "postcode": "85000",
        "country": "Uruguay",
        "country_code": "uy"
      },
      "address": "Ruta 3 General José Gervasio Artigas, Trinidad, Flores, Uruguay"
    },
    {
      "lat": -33.53289895228654,
      "lon": -56.92585056821395,
      "geoinfo": {
        "display_name": "Flores, 85000, Uruguay",
        "road": null,
        "house_number": null,
        "neighbourhood": null,
        "suburb": null,
        "city_district": null,
        "city": null,
        "state": "Flores",
        "postcode": "85000",
        "country": "Uruguay",
        "country_code": "uy"
      },
      "address": "563, Trinidad, 85000 Flores, Uruguay"
    },
    {
      "lat": -33.49643157808228,
      "lon": -56.885670942575494,
      "geoinfo": {
        "display_name": "Flores, 85000, Uruguay",
        "road": null,
        "house_number": null,
        "neighbourhood": null,
        "suburb": null,
        "city_district": null,
        "city": null,
        "state": "Flores",
        "postcode": "85000",
        "country": "Uruguay",
        "country_code": "uy"
      },
      "address": "086, Trinidad, 85000 Flores, Uruguay"
    },
    {
      "lat": -33.53308837567272,
      "lon": -56.904968493508264,
      "geoinfo": {
        "display_name": "25 de Mayo, Trinidad, Flores, 85000, Uruguay",
        "road": "25 de Mayo",
        "house_number": null,
        "neighbourhood": null,
        "suburb": null,
        "city_district": null,
        "city": "Trinidad",
        "state": "Flores",
        "postcode": "85000",
        "country": "Uruguay",
        "country_code": "uy"
      },
      "address": "25 de Mayo, Trinidad, Flores, 85000, Uruguay"
    },
    {
      "lat": -33.52270714066483,
      "lon": -56.8710769227015,
      "geoinfo": {
        "display_name": "A Juan Pablo, Trinidad, Flores, 85000, Uruguay",
        "road": "A Juan Pablo",
        "house_number": null,
        "neighbourhood": null,
        "suburb": null,
        "city_district": null,
        "city": "Trinidad",
        "state": "Flores",
        "postcode": "85000",
        "country": "Uruguay",
        "country_code": "uy"
      },
      "address": "609, A Juan Pablo, Trinidad, Flores, 85000, Uruguay"
    }
  ],
  "updated_at": "2025-10-19T07:24:43.702593+00:00",
  "_kind": "geo_samples"
}