{
  "country_code": "BW",
  "country": "Botswana",
  "city": "Jwaneng",
  "geonameid": 8308627,
  "target_addresses": 4,
  "samples": [
    {
      "lat": -24.58270492408773,
      "lon": 24.727585247404356,
      "geoinfo": {
        "display_name": "Cresta Hotel Road, Jwaneng, Jwaneng Town, Botswana",
        "road": "Cresta Hotel Road",
        "house_number": null,
        "neighbourhood": null,
        "suburb": null,
        "city_district": null,
        "city": "Jwaneng",
        "state": "Jwaneng Town",
        "postcode": null,
        "country": "Botswana",
        "country_code": "bw"
      },
      "address": "Cresta Hotel Road, Jwaneng, Jwaneng Town, Botswana"
    },
    {
      "lat": -24.568109581754655,
      "lon": 24.753758247986045,
      "geoinfo": {
        "display_name": "Southern District, Botswana",
        "road": null,
        "house_number": null,
        "neighbourhood": null,
        "suburb": null,
        "city_district": null,
        "city": null,
        "state": "Southern District",
        "postcode": null,
        "country": "Botswana",
        "country_code": "bw"
      },
      "address": "Jwaneng, Southern District, Botswana"
    },
    {
      "lat": -24.56970956553072,
      "lon": 24.734035691117594,
      "geoinfo": {
        "display_name": "Jwaneng Diamond Mine Road, Southern District, Botswana",
        "road": "Jwaneng Diamond Mine Road",
        "house_number": null,
        "neighbourhood": null,
        "suburb": null,
        "city_district": null,
        "city": null,
        "state": "Southern District",
        "postcode": null,
        "country": "Botswana",
        "country_code": "bw"
      },
      "address": "Jwaneng Diamond Mine Road, Jwaneng, Southern District, Botswana"
    },
    {
      "lat": -24.63413036682577,
      "lon": 24.75324453032642,
      "geoinfo": {
        "display_name": "Jwaneng, Jwaneng Town, Botswana",
        "road": null,
        "house_number": null,
        "neighbourhood": null,
        "suburb": null,
        "city_district": null,
        "city": "Jwaneng",
        "state": "Jwaneng Town",
        "postcode": null,
        "country": "Botswana",
        "country_code": "bw"
      },
      "address": "Jwaneng, Jwaneng Town, Botswana"
    },
    {
      "lat": -24.618774558666892,
      "lon": 24.740987291994383,
      "geoinfo": {
        "display_name": "Jwaneng, Jwaneng Town, Botswana",
        "road": null,
        "house_number": null,
        "neighbourhood": null,
        "suburb": null,
        "city_district": null,
        "city": "Jwaneng",
        "state": "Jwaneng Town",
        "postcode": null,
        "country": "Botswana",
        "country_code": "bw"
      },
      "address": "637, Jwaneng, 84999 Jwaneng Town, Botswana"
    },
    {
      "lat": -24.582527148178983,
      "lon": 24.71593205238853,
      "geoinfo": {
        "display_name": "Jwaneng, Jwaneng Town, Botswana",
        "road": null,
        "house_number": null,
        "neighbourhood": null,
        "suburb": null,
        "city_district": null,
        "city": "Jwaneng",
        "state": "Jwaneng Town",
        "postcode": null,
        "country": "Botswana",
        "country_code": "bw"
      },
      "address": "069, Jwaneng, 43230 Jwaneng Town, Botswana"
    },
    {
      "lat": -24.597128491684266,
      "lon": 24.68426417014894,
      "geoinfo": {
        "display_name": "Jwaneng, Jwaneng Town, Botswana",
        "road": null,
        "house_number": null,
        "neighbourhood": null,
        "suburb": null,
        "city_district": null,
        "city": "Jwaneng",
        "state": "Jwaneng Town",
        "postcode": null,
        "country": "Botswana",
        "country_code": "bw"
      },
      "address": "393, Jwaneng, 72795 Jwaneng Town, Botswana"
    },
    {
      "lat": -24.59999830923592,
      "lon": 24.70801738602124,
      "geoinfo": {
        "display_name": "Sir Seretse Khama Avenue, Jwaneng, Jwaneng Town, Botswana",
        "road": "Sir Seretse Khama Avenue",
        "house_number": null,
        "neighbourhood": null,
        "suburb": null,
        "city_district": null,
        "city": "Jwaneng",
        "state": "Jwaneng Town",
        "postcode": null,
        "country": "Botswana",
        "country_code": "bw"
      },
      "address": "623, Sir Seretse Khama Avenue, Jwaneng, 27178 Jwaneng Town, Botswana"
    }
  ],
  "updated_at": "2025-10-19T03:17:05.380461+00:00",
  "_kind": "geo_samples"
}