{
  "country_code": "BW",
  "country": "Botswana",
  "city": "Kanye",
  "geonameid": 933685,
  "target_addresses": 4,
  "samples": [
    {
      "lat": -24.944608340442553,
      "lon": 25.310075646701947,
      "geoinfo": {
        "display_name": "A10, Kanye, Southern District, Botswana",
        "road": "A10",
        "house_number": null,
        "neighbourhood": null,
        "suburb": null,
        "city_district": null,
        "city": "Kanye",
        "state": "Southern District",
        "postcode": null,
        "country": "Botswana",
        "country_code": "bw"
      },
      "address": "A10, Kanye, Southern District, Botswana"
    },
    {
      "lat": -24.975052230362028,
      "lon": 25.31979113202696,
      "geoinfo": {
        "display_name": "Kanye, Southern District, Botswana",
        "road": null,
        "house_number": null,
        "neighbourhood": null,
        "suburb": null,
        "city_district": null,
        "city": "Kanye",
        "state": "Southern District",
        "postcode": null,
        "country": "Botswana",
        "country_code": "bw"
      },
      "address": "Kanye, Southern District, Botswana"
    },
    {
      "lat": -24.962615866577625,
      "lon": 25.354659017198333,
      "geoinfo": {
        "display_name": "Ravos Technical College, Tselaesele Street, Kanye, Southern District, Botswana",
        "road": "Tselaesele Street",
        "house_number": null,
        "neighbourhood": null,
        "suburb": null,
        "city_district": null,
        "city": "Kanye",
        "state": "Southern District",
        "postcode": null,
        "country": "Botswana",
        "country_code": "bw"
      },
      "address": "Tselaesele Street, Kanye, Southern District, Botswana"
    },
    {
      "lat": -24.988670204822583,
      "lon": 25.312882456596007,
      "geoinfo": {
        "display_name": "Lodubeng, Kanye, Southern District, Botswana",
        "road": null,
        "house_number": null,
        "neighbourhood": null,
        "suburb": "Lodubeng",
        "city_district": null,
        "city": "Kanye",
        "state": "Southern District",
        "postcode": null,
        "country": "Botswana",
        "country_code": "bw"
      },
      "address": "Lodubeng, Kanye, Southern District, Botswana"
    },
    {
      "lat": -24.966340071950107,
      "lon": 25.335191157695995,
      "geoinfo": {
        "display_name": "Kanye, Southern District, Botswana",
        "road": null,
        "house_number": null,
        "neighbourhood": null,
        "suburb": null,
        "city_district": null,
        "city": "Kanye",
        "state": "Southern District",
        "postcode": null,
        "country": "Botswana",
        "country_code": "bw"
      },
      "address": "447, Kanye, 67652 Southern District, Botswana"
    },
    {
      "lat": -24.983930839920507,
      "lon": 25.308997536352052,
      "geoinfo": {
        "display_name": "Lodubeng, Kanye, Southern District, Botswana",
        "road": null,
        "house_number": null,
        "neighbourhood": null,
        "suburb": "Lodubeng",
        "city_district": null,
        "city": "Kanye",
        "state": "Southern District",
        "postcode": null,
        "country": "Botswana",
        "country_code": "bw"
      },
      "address": "504, Lodubeng, Kanye, 25701 Southern District, Botswana"
    },
    {
      "lat": -24.957946370987717,
      "lon": 25.344798593336467,
      "geoinfo": {
        "display_name": "Otlaadisa Avenue, Kanye, Southern District, Botswana",
        "road": "Otlaadisa Avenue",
        "house_number": null,
        "neighbourhood": null,
        "suburb": null,
        "city_district": null,
        "city": "Kanye",
        "state": "Southern District",
        "postcode": null,
        "country": "Botswana",
        "country_code": "bw"
      },
      "address": "485, Otlaadisa Avenue, Kanye, 35065 Southern District, Botswana"
    },
    {
      "lat": -24.97679200807937,
      "lon": 25.363879003914693,
      "geoinfo": {
        "display_name": "Kanye, Southern District, Botswana",
        "road": null,
        "house_number": null,
        "neighbourhood": null,
        "suburb": null,
        "city_district": null,
        "city": "Kanye",
        "state": "Southern District",
        "postcode": null,
        "country": "Botswana",
        "country_code": "bw"
      },
      "address": "500, Kanye, 05089 Southern District, Botswana"
    }
  ],
  "updated_at": "2025-10-19T02:58:57.026572+00:00",
  "_kind": "geo_samples"
}