{
  "country_code": "BW",
  "country": "Botswana",
  "city": "Maun",
  "geonameid": 933366,
  "target_addresses": 4,
  "samples": [
    {
      "lat": -19.960778253299278,
      "lon": 23.445038708503414,
      "geoinfo": {
        "display_name": "Maun, Botswana",
        "road": null,
        "house_number": null,
        "neighbourhood": null,
        "suburb": null,
        "city_district": null,
        "city": "Maun",
        "state": null,
        "postcode": null,
        "country": "Botswana",
        "country_code": "bw"
      },
      "address": "Maun, Botswana"
    },
    {
      "lat": -20.00478194554008,
      "lon": 23.42090950869679,
      "geoinfo": {
        "display_name": "Mall of Maun, Mathiba I Street, Maun, Botswana",
        "road": "Mathiba I Street",
        "house_number": null,
        "neighbourhood": null,
        "suburb": null,
        "city_district": null,
        "city": "Maun",
        "state": null,
        "postcode": null,
        "country": "Botswana",
        "country_code": "bw"
      },
      "address": "Mathiba I Street, Maun, Botswana"
    },
    {
      "lat": -19.979089407637492,
      "lon": 23.431731234415114,
      "geoinfo": {
        "display_name": "Lesogo Street, Maun, Botswana",
        "road": "Lesogo Street",
        "house_number": null,
        "neighbourhood": null,
        "suburb": null,
        "city_district": null,
        "city": "Maun",
        "state": null,
        "postcode": null,
        "country": "Botswana",
        "country_code": "bw"
      },
      "address": "Lesogo Street, Maun, Botswana"
    },
    {
      "lat": -19.978146646458214,
      "lon": 23.421866075756686,
      "geoinfo": {
        "display_name": "Apron 1, Mophane Avenue, Maun, Botswana",
        "road": "Mophane Avenue",
        "house_number": null,
        "neighbourhood": null,
        "suburb": null,
        "city_district": null,
        "city": "Maun",
        "state": null,
        "postcode": null,
        "country": "Botswana",
        "country_code": "bw"
      },
      "address": "Mophane Avenue, Maun, Botswana"
    },
    {
      "lat": -20.00759315160702,
      "lon": 23.431574859565973,
      "geoinfo": {
        "display_name": "Sekgoma Road, Maun, Botswana",
        "road": "Sekgoma Road",
        "house_number": null,
        "neighbourhood": null,
        "suburb": null,
        "city_district": null,
        "city": "Maun",
        "state": null,
        "postcode": null,
        "country": "Botswana",
        "country_code": "bw"
      },
      "address": "081, Sekgoma Road, 03496 Maun, Botswana"
    },
    {
      "lat": -19.978325084597245,
      "lon": 23.422250599916627,
      "geoinfo": {
        "display_name": "WoMen Against Rape, Plot 517, Mathiba I Street, Maun, 0000, Botswana",
        "road": "Mathiba I Street",
        "house_number": "Plot 517",
        "neighbourhood": null,
        "suburb": null,
        "city_district": null,
        "city": "Maun",
        "state": null,
        "postcode": "0000",
        "country": "Botswana",
        "country_code": "bw"
      },
      "address": "WoMen Against Rape, Plot 517, Mathiba I Street, Maun, 0000, Botswana"
    },
    {
      "lat": -19.962818523931407,
      "lon": 23.437583400223968,
      "geoinfo": {
        "display_name": "Principal, Maun, Botswana",
        "road": "Principal",
        "house_number": null,
        "neighbourhood": null,
        "suburb": null,
        "city_district": null,
        "city": "Maun",
        "state": null,
        "postcode": null,
        "country": "Botswana",
        "country_code": "bw"
      },
      "address": "685, Principal, 17624 Maun, Botswana"
    }
  ],
  "updated_at": "2025-10-19T03:05:37.315286+00:00",
  "_kind": "geo_samples"
}