{
  "country_code": "GN",
  "country": "Guinea",
  "city": "Camayenne",
  "geonameid": 2422488,
  "target_addresses": 3,
  "samples": [
    {
      "lat": 9.536198056702762,
      "lon": -13.70008151841313,
      "geoinfo": {
        "display_name": "Lieux dit \"Brésil\", Cameroun, Dixinn, Conakry, 299, Guinea",
        "road": null,
        "house_number": null,
        "neighbourhood": null,
        "suburb": "Cameroun",
        "city_district": "Dixinn",
        "city": "Conakry",
        "state": null,
        "postcode": "299",
        "country": "Guinea",
        "country_code": "gn"
      },
      "address": "Cameroun, Camayenne, Guinea"
    },
    {
      "lat": 9.533037492290877,
      "lon": -13.683662243015187,
      "geoinfo": {
        "display_name": "Mosquée Fayçale, Route Donka, Centre Islamique, Camayenne, Dixinn, Conakry, 299, Guinea",
        "road": "Route Donka",
        "house_number": null,
        "neighbourhood": null,
        "suburb": "Camayenne",
        "city_district": "Dixinn",
        "city": "Conakry",
        "state": null,
        "postcode": "299",
        "country": "Guinea",
        "country_code": "gn"
      },
      "address": "Route Donka, Camayenne, Guinea"
    },
    {
      "lat": 9.518208803730666,
      "lon": -13.696650787439445,
      "geoinfo": {
        "display_name": "Rue KA. 084, Tombo, Kaloum, Conakry, 299, Guinea",
        "road": "Rue KA. 084",
        "house_number": null,
        "neighbourhood": null,
        "suburb": "Tombo",
        "city_district": "Kaloum",
        "city": "Conakry",
        "state": null,
        "postcode": "299",
        "country": "Guinea",
        "country_code": "gn"
      },
      "address": "Rue KA. 084, Camayenne, Guinea"
    },
    {
      "lat": 9.54945066934971,
      "lon": -13.657941568978766,
      "geoinfo": {
        "display_name": "Route du Niger, Touquiwondy, Matam, Conakry, 299, Guinea",
        "road": "Route du Niger",
        "house_number": null,
        "neighbourhood": null,
        "suburb": "Touquiwondy",
        "city_district": "Matam",
        "city": "Conakry",
        "state": null,
        "postcode": "299",
        "country": "Guinea",
        "country_code": "gn"
      },
      "address": "005, Route du Niger, Touquiwondy, Matam, Conakry, 299, Guinea"
    },
    {
      "lat": 9.499631570944853,
      "lon": -13.682249864017807,
      "geoinfo": {
        "display_name": "Coleah, Lansébounyji, Matam, Conakry, 299, Guinea",
        "road": null,
        "house_number": null,
        "neighbourhood": null,
        "suburb": "Coleah",
        "city_district": "Matam",
        "city": "Conakry",
        "state": null,
        "postcode": "299",
        "country": "Guinea",
        "country_code": "gn"
      },
      "address": "524, Coleah, Lansébounyji, Matam, Conakry, 299, Guinea"
    },
    {
      "lat": 9.526772540355452,
      "lon": -13.691754734487718,
      "geoinfo": {
        "display_name": "Avenue Simandou, Cameroun, Dixinn, Conakry, 299, Guinea",
        "road": "Avenue Simandou",
        "house_number": null,
        "neighbourhood": null,
        "suburb": "Cameroun",
        "city_district": "Dixinn",
        "city": "Conakry",
        "state": null,
        "postcode": "299",
        "country": "Guinea",
        "country_code": "gn"
      },
      "address": "163, Avenue Simandou, Cameroun, Dixinn, Conakry, 299, Guinea"
    }
  ],
  "updated_at": "2025-10-19T04:11:21.541343+00:00",
  "_kind": "geo_samples"
}