{
  "country_code": "GN",
  "country": "Guinea",
  "city": "Télimélé",
  "geonameid": 2414926,
  "target_addresses": 3,
  "samples": [
    {
      "lat": 10.932739132310278,
      "lon": -13.048632075281882,
      "geoinfo": {
        "display_name": "Souloudji, Télimélé Prefecture, Kindia Region, Guinea",
        "road": null,
        "house_number": null,
        "neighbourhood": null,
        "suburb": null,
        "city_district": null,
        "city": null,
        "state": "Kindia Region",
        "postcode": null,
        "country": "Guinea",
        "country_code": "gn"
      },
      "address": "Télimélé, Kindia Region, Guinea"
    },
    {
      "lat": 10.891113594057906,
      "lon": -13.035863553453659,
      "geoinfo": {
        "display_name": "Dara Cité, Télimélé, Télimélé Prefecture, Kindia Region, Guinea",
        "road": null,
        "house_number": null,
        "neighbourhood": "Dara Cité",
        "suburb": null,
        "city_district": null,
        "city": "Télimélé",
        "state": "Kindia Region",
        "postcode": null,
        "country": "Guinea",
        "country_code": "gn"
      },
      "address": "Dara Cité, Télimélé, Kindia Region, Guinea"
    },
    {
      "lat": 10.875534354432352,
      "lon": -13.007631654870835,
      "geoinfo": {
        "display_name": "N24, Tontere, Télimélé, Télimélé Prefecture, Kindia Region, Guinea",
        "road": "N24",
        "house_number": null,
        "neighbourhood": null,
        "suburb": null,
        "city_district": null,
        "city": "Télimélé",
        "state": "Kindia Region",
        "postcode": null,
        "country": "Guinea",
        "country_code": "gn"
      },
      "address": "N24, Télimélé, Kindia Region, Guinea"
    },
    {
      "lat": 10.931688520352067,
      "lon": -13.065689449588323,
      "geoinfo": {
        "display_name": "Bowe Louggue, Télimélé Prefecture, Kindia Region, Guinea",
        "road": null,
        "house_number": null,
        "neighbourhood": null,
        "suburb": null,
        "city_district": null,
        "city": null,
        "state": "Kindia Region",
        "postcode": null,
        "country": "Guinea",
        "country_code": "gn"
      },
      "address": "667, Bowe Louggue, Télimélé Prefecture, 84488 Kindia Region, Guinea"
    },
    {
      "lat": 10.891575845631706,
      "lon": -13.00981618222437,
      "geoinfo": {
        "display_name": "Towngo, Télimélé, Télimélé Prefecture, Kindia Region, Guinea",
        "road": null,
        "house_number": null,
        "neighbourhood": null,
        "suburb": null,
        "city_district": null,
        "city": "Télimélé",
        "state": "Kindia Region",
        "postcode": null,
        "country": "Guinea",
        "country_code": "gn"
      },
      "address": "930, Towngo, Télimélé, Télimélé Prefecture, 41686 Kindia Region, Guinea"
    },
    {
      "lat": 10.91989504711304,
      "lon": -13.029261949476567,
      "geoinfo": {
        "display_name": "N24, Ley Wendou, Télimélé, Télimélé Prefecture, Kindia Region, Guinea",
        "road": "N24",
        "house_number": null,
        "neighbourhood": "Ley Wendou",
        "suburb": null,
        "city_district": null,
        "city": "Télimélé",
        "state": "Kindia Region",
        "postcode": null,
        "country": "Guinea",
        "country_code": "gn"
      },
      "address": "N24, Ley Wendou, Télimélé, Télimélé Prefecture, 17957 Kindia Region, Guinea"
    }
  ],
  "updated_at": "2025-10-19T04:28:17.997443+00:00",
  "_kind": "geo_samples"
}