{
  "country_code": "CX",
  "country": "Christmas Island",
  "city": "Flying Fish Cove",
  "geonameid": 2078127,
  "target_addresses": 100,
  "samples": [
    {
      "lat": -10.454017582004344,
      "lon": 105.65473177430353,
      "geoinfo": {
        "display_name": "Murray Road, Christmas Island, Shire of Christmas Island, Christmas Island, 6798, Australia",
        "road": "Murray Road",
        "house_number": null,
        "neighbourhood": null,
        "suburb": null,
        "city_district": "Christmas Island",
        "city": null,
        "state": null,
        "postcode": "6798",
        "country": "Australia",
        "country_code": "au"
      },
      "address": "Murray Road, Flying Fish Cove, Christmas Island"
    },
    {
      "lat": -10.403074852452503,
      "lon": 105.70363648908632,
      "geoinfo": {
        "display_name": "Flying Fish Cove, Shire of Christmas Island, Christmas Island, 6798, Australia",
        "road": null,
        "house_number": null,
        "neighbourhood": null,
        "suburb": null,
        "city_district": null,
        "city": "Flying Fish Cove",
        "state": null,
        "postcode": "6798",
        "country": "Australia",
        "country_code": "au"
      },
      "address": "Flying Fish Cove, Christmas Island"
    },
    {
      "lat": -10.41466271526001,
      "lon": 105.68728311015678,
      "geoinfo": {
        "display_name": "Golf Course-Casino Road, Silver City, Christmas Island, Flying Fish Cove, Shire of Christmas Island, Christmas Island, 6798, Australia",
        "road": "Golf Course-Casino Road",
        "house_number": null,
        "neighbourhood": "Silver City",
        "suburb": null,
        "city_district": "Christmas Island",
        "city": "Flying Fish Cove",
        "state": null,
        "postcode": "6798",
        "country": "Australia",
        "country_code": "au"
      },
      "address": "Golf Course-Casino Road, Flying Fish Cove, Christmas Island"
    },
    {
      "lat": -10.407486917882952,
      "lon": 105.69171141884568,
      "geoinfo": {
        "display_name": "Silver City, Christmas Island, Flying Fish Cove, Shire of Christmas Island, Christmas Island, 6798, Australia",
        "road": null,
        "house_number": null,
        "neighbourhood": "Silver City",
        "suburb": null,
        "city_district": "Christmas Island",
        "city": "Flying Fish Cove",
        "state": null,
        "postcode": "6798",
        "country": "Australia",
        "country_code": "au"
      },
      "address": "Silver City, Flying Fish Cove, Christmas Island"
    },
    {
      "lat": -10.450093586623217,
      "lon": 105.67286951183401,
      "geoinfo": {
        "display_name": "Drumsite, Christmas Island, Flying Fish Cove, Shire of Christmas Island, Christmas Island, 6798, Australia",
        "road": null,
        "house_number": null,
        "neighbourhood": "Drumsite",
        "suburb": null,
        "city_district": "Christmas Island",
        "city": "Flying Fish Cove",
        "state": null,
        "postcode": "6798",
        "country": "Australia",
        "country_code": "au"
      },
      "address": "Drumsite, Flying Fish Cove, Christmas Island"
    },
    {
      "lat": -10.44523897330181,
      "lon": 105.68642656500599,
      "geoinfo": {
        "display_name": "Phosphate Hill Road, Christmas Island, Shire of Christmas Island, Christmas Island, 6798, Australia",
        "road": "Phosphate Hill Road",
        "house_number": null,
        "neighbourhood": null,
        "suburb": null,
        "city_district": "Christmas Island",
        "city": null,
        "state": null,
        "postcode": "6798",
        "country": "Australia",
        "country_code": "au"
      },
      "address": "Phosphate Hill Road, Flying Fish Cove, Christmas Island"
    },
    {
      "lat": -10.463246811836951,
      "lon": 105.67369406428382,
      "geoinfo": {
        "display_name": "Christmas Island, Shire of Christmas Island, Christmas Island, 6798, Australia",
        "road": null,
        "house_number": null,
        "neighbourhood": null,
        "suburb": null,
        "city_district": "Christmas Island",
        "city": null,
        "state": null,
        "postcode": "6798",
        "country": "Australia",
        "country_code": "au"
      },
      "address": "Christmas Island, Flying Fish Cove, Christmas Island"
    },
    {
      "lat": -10.42313273131702,
      "lon": 105.66671815294303,
      "geoinfo": {
        "display_name": "Smith's Point Road, Kampong, Christmas Island, Flying Fish Cove, Shire of Christmas Island, Christmas Island, 6798, Australia",
        "road": "Smith's Point Road",
        "house_number": null,
        "neighbourhood": "Kampong",
        "suburb": null,
        "city_district": "Christmas Island",
        "city": "Flying Fish Cove",
        "state": null,
        "postcode": "6798",
        "country": "Australia",
        "country_code": "au"
      },
      "address": "Smith's Point Road, Flying Fish Cove, Christmas Island"
    },
    {
      "lat": -10.42960745807262,
      "lon": 105.67566383262967,
      "geoinfo": {
        "display_name": "Lam Lok Loh, Drumsite, Christmas Island, Flying Fish Cove, Shire of Christmas Island, Christmas Island, 6798, Australia",
        "road": "Lam Lok Loh",
        "house_number": null,
        "neighbourhood": "Drumsite",
        "suburb": null,
        "city_district": "Christmas Island",
        "city": "Flying Fish Cove",
        "state": null,
        "postcode": "6798",
        "country": "Australia",
        "country_code": "au"
      },
      "address": "Lam Lok Loh, Flying Fish Cove, Christmas Island"
    },
    {
      "lat": -10.422343200898665,
      "lon": 105.69267010710905,
      "geoinfo": {
        "display_name": "Quarry Road, Poon Saan, Christmas Island, Flying Fish Cove, Shire of Christmas Island, Christmas Island, 6798, Australia",
        "road": "Quarry Road",
        "house_number": null,
        "neighbourhood": "Poon Saan",
        "suburb": null,
        "city_district": "Christmas Island",
        "city": "Flying Fish Cove",
        "state": null,
        "postcode": "6798",
        "country": "Australia",
        "country_code": "au"
      },
      "address": "Quarry Road, Flying Fish Cove, Christmas Island"
    },
    {
      "lat": -10.42728520738325,
      "lon": 105.67106122972875,
      "geoinfo": {
        "display_name": "Jalan Pantai, Kampong, Christmas Island, Flying Fish Cove, Shire of Christmas Island, Christmas Island, 6798, Australia",
        "road": "Jalan Pantai",
        "house_number": null,
        "neighbourhood": "Kampong",
        "suburb": null,
        "city_district": "Christmas Island",
        "city": "Flying Fish Cove",
        "state": null,
        "postcode": "6798",
        "country": "Australia",
        "country_code": "au"
      },
      "address": "Jalan Pantai, Flying Fish Cove, Christmas Island"
    },
    {
      "lat": -10.4241015592803,
      "lon": 105.67476629232976,
      "geoinfo": {
        "display_name": "Seaview Drive, Silver City, Christmas Island, Flying Fish Cove, Shire of Christmas Island, Christmas Island, 6798, Australia",
        "road": "Seaview Drive",
        "house_number": null,
        "neighbourhood": "Silver City",
        "suburb": null,
        "city_district": "Christmas Island",
        "city": "Flying Fish Cove",
        "state": null,
        "postcode": "6798",
        "country": "Australia",
        "country_code": "au"
      },
      "address": "Seaview Drive, Flying Fish Cove, Christmas Island"
    },
    {
      "lat": -10.420518815508245,
      "lon": 105.66961056135028,
      "geoinfo": {
        "display_name": "Gaze Road, Silver City, Christmas Island, Flying Fish Cove, Shire of Christmas Island, Christmas Island, 6798, Australia",
        "road": "Gaze Road",
        "house_number": null,
        "neighbourhood": "Silver City",
        "suburb": null,
        "city_district": "Christmas Island",
        "city": "Flying Fish Cove",
        "state": null,
        "postcode": "6798",
        "country": "Australia",
        "country_code": "au"
      },
      "address": "Gaze Road, Flying Fish Cove, Christmas Island"
    },
    {
      "lat": -10.416216836809708,
      "lon": 105.68189316462671,
      "geoinfo": {
        "display_name": "Triadic Crescent, Silver City, Christmas Island, Flying Fish Cove, Shire of Christmas Island, Christmas Island, 6798, Australia",
        "road": "Triadic Crescent",
        "house_number": null,
        "neighbourhood": "Silver City",
        "suburb": null,
        "city_district": "Christmas Island",
        "city": "Flying Fish Cove",
        "state": null,
        "postcode": "6798",
        "country": "Australia",
        "country_code": "au"
      },
      "address": "Triadic Crescent, Flying Fish Cove, Christmas Island"
    },
    {
      "lat": -10.411918158750433,
      "lon": 105.67788147518154,
      "geoinfo": {
        "display_name": "Rocky Point Crescent, Silver City, Christmas Island, Flying Fish Cove, Shire of Christmas Island, Christmas Island, 6798, Australia",
        "road": "Rocky Point Crescent",
        "house_number": null,
        "neighbourhood": "Silver City",
        "suburb": null,
        "city_district": "Christmas Island",
        "city": "Flying Fish Cove",
        "state": null,
        "postcode": "6798",
        "country": "Australia",
        "country_code": "au"
      },
      "address": "Rocky Point Crescent, Flying Fish Cove, Christmas Island"
    },
    {
      "lat": -10.432430352081818,
      "lon": 105.67635957604845,
      "geoinfo": {
        "display_name": "26, Jalan Ketam Merah, Drumsite, Christmas Island, Flying Fish Cove, Shire of Christmas Island, Christmas Island, 6798, Australia",
        "road": "Jalan Ketam Merah",
        "house_number": "26",
        "neighbourhood": "Drumsite",
        "suburb": null,
        "city_district": "Christmas Island",
        "city": "Flying Fish Cove",
        "state": null,
        "postcode": "6798",
        "country": "Australia",
        "country_code": "au"
      },
      "address": "26 Jalan Ketam Merah, Flying Fish Cove, Christmas Island"
    },
    {
      "lat": -10.434784636916143,
      "lon": 105.68365885421629,
      "geoinfo": {
        "display_name": "Exiles Place, Christmas Island, Flying Fish Cove, Shire of Christmas Island, Christmas Island, 6798, Australia",
        "road": "Exiles Place",
        "house_number": null,
        "neighbourhood": null,
        "suburb": null,
        "city_district": "Christmas Island",
        "city": "Flying Fish Cove",
        "state": null,
        "postcode": "6798",
        "country": "Australia",
        "country_code": "au"
      },
      "address": "Exiles Place, Flying Fish Cove, Christmas Island"
    },
    {
      "lat": -10.431986926473199,
      "lon": 105.68449556002008,
      "geoinfo": {
        "display_name": "Vagabond Road, Christmas Island, Flying Fish Cove, Shire of Christmas Island, Christmas Island, 6798, Australia",
        "road": "Vagabond Road",
        "house_number": null,
        "neighbourhood": null,
        "suburb": null,
        "city_district": "Christmas Island",
        "city": "Flying Fish Cove",
        "state": null,
        "postcode": "6798",
        "country": "Australia",
        "country_code": "au"
      },
      "address": "Vagabond Road, Flying Fish Cove, Christmas Island"
    },
    {
      "lat": -10.42584871089939,
      "lon": 105.67987953624308,
      "geoinfo": {
        "display_name": "Kung Wai L, Poon Saan, Christmas Island, Flying Fish Cove, Shire of Christmas Island, Christmas Island, 6798, Australia",
        "road": "Kung Wai L",
        "house_number": null,
        "neighbourhood": "Poon Saan",
        "suburb": null,
        "city_district": "Christmas Island",
        "city": "Flying Fish Cove",
        "state": null,
        "postcode": "6798",
        "country": "Australia",
        "country_code": "au"
      },
      "address": "Kung Wai L, Flying Fish Cove, Christmas Island"
    },
    {
      "lat": -10.436027165659906,
      "lon": 105.67441393787618,
      "geoinfo": {
        "display_name": "16, Jalan Ketam Merah, Drumsite, Christmas Island, Flying Fish Cove, Shire of Christmas Island, Christmas Island, 6798, Australia",
        "road": "Jalan Ketam Merah",
        "house_number": "16",
        "neighbourhood": "Drumsite",
        "suburb": null,
        "city_district": "Christmas Island",
        "city": "Flying Fish Cove",
        "state": null,
        "postcode": "6798",
        "country": "Australia",
        "country_code": "au"
      },
      "address": "16 Jalan Ketam Merah, Flying Fish Cove, Christmas Island"
    },
    {
      "lat": -10.434721831908211,
      "lon": 105.67603531093897,
      "geoinfo": {
        "display_name": "15, Jalan Ketam Merah, Drumsite, Christmas Island, Flying Fish Cove, Shire of Christmas Island, Christmas Island, 6798, Australia",
        "road": "Jalan Ketam Merah",
        "house_number": "15",
        "neighbourhood": "Drumsite",
        "suburb": null,
        "city_district": "Christmas Island",
        "city": "Flying Fish Cove",
        "state": null,
        "postcode": "6798",
        "country": "Australia",
        "country_code": "au"
      },
      "address": "15 Jalan Ketam Merah, Flying Fish Cove, Christmas Island"
    },
    {
      "lat": -10.420569196159931,
      "lon": 105.65668835899032,
      "geoinfo": {
        "display_name": "Kampong, Christmas Island, Flying Fish Cove, Shire of Christmas Island, Christmas Island, 6798, Australia",
        "road": null,
        "house_number": null,
        "neighbourhood": "Kampong",
        "suburb": null,
        "city_district": "Christmas Island",
        "city": "Flying Fish Cove",
        "state": null,
        "postcode": "6798",
        "country": "Australia",
        "country_code": "au"
      },
      "address": "Kampong, Flying Fish Cove, Christmas Island"
    },
    {
      "lat": -10.430105180355485,
      "lon": 105.68200048928314,
      "geoinfo": {
        "display_name": "Hawks Road, Christmas Island, Flying Fish Cove, Shire of Christmas Island, Christmas Island, 6798, Australia",
        "road": "Hawks Road",
        "house_number": null,
        "neighbourhood": null,
        "suburb": null,
        "city_district": "Christmas Island",
        "city": "Flying Fish Cove",
        "state": null,
        "postcode": "6798",
        "country": "Australia",
        "country_code": "au"
      },
      "address": "Hawks Road, Flying Fish Cove, Christmas Island"
    },
    {
      "lat": -10.427512195390765,
      "lon": 105.67343292282506,
      "geoinfo": {
        "display_name": "Club road, Kampong, Christmas Island, Flying Fish Cove, Shire of Christmas Island, Christmas Island, 6798, Australia",
        "road": "Club road",
        "house_number": null,
        "neighbourhood": "Kampong",
        "suburb": null,
        "city_district": "Christmas Island",
        "city": "Flying Fish Cove",
        "state": null,
        "postcode": "6798",
        "country": "Australia",
        "country_code": "au"
      },
      "address": "Club road, Flying Fish Cove, Christmas Island"
    },
    {
      "lat": -10.427388875981567,
      "lon": 105.67480399083848,
      "geoinfo": {
        "display_name": "Japanese \"Kami\" Shinto Shrine, Japanese Fifth set stairs, Kampong, Christmas Island, Flying Fish Cove, Shire of Christmas Island, Christmas Island, 6798, Australia",
        "road": "Japanese Fifth set stairs",
        "house_number": null,
        "neighbourhood": "Kampong",
        "suburb": null,
        "city_district": "Christmas Island",
        "city": "Flying Fish Cove",
        "state": null,
        "postcode": "6798",
        "country": "Australia",
        "country_code": "au"
      },
      "address": "Japanese Fifth set stairs, Flying Fish Cove, Christmas Island"
    },
    {
      "lat": -10.435811435588876,
      "lon": 105.6716799183234,
      "geoinfo": {
        "display_name": "5, Abbotts Nest, Drumsite, Christmas Island, Flying Fish Cove, Shire of Christmas Island, Christmas Island, 6798, Australia",
        "road": "Abbotts Nest",
        "house_number": "5",
        "neighbourhood": "Drumsite",
        "suburb": null,
        "city_district": "Christmas Island",
        "city": "Flying Fish Cove",
        "state": null,
        "postcode": "6798",
        "country": "Australia",
        "country_code": "au"
      },
      "address": "5 Abbotts Nest, Flying Fish Cove, Christmas Island"
    },
    {
      "lat": -10.421263355482958,
      "lon": 105.67351967370463,
      "geoinfo": {
        "display_name": "6, Gaze Road, Silver City, Christmas Island, Flying Fish Cove, Shire of Christmas Island, Christmas Island, 6798, Australia",
        "road": "Gaze Road",
        "house_number": "6",
        "neighbourhood": "Silver City",
        "suburb": null,
        "city_district": "Christmas Island",
        "city": "Flying Fish Cove",
        "state": null,
        "postcode": "6798",
        "country": "Australia",
        "country_code": "au"
      },
      "address": "6, Gaze Road, 6798 Flying Fish Cove, Christmas Island"
    },
    {
      "lat": -10.420249959056262,
      "lon": 105.68742418390732,
      "geoinfo": {
        "display_name": "Murray Road, Silver City, Christmas Island, Flying Fish Cove, Shire of Christmas Island, Christmas Island, 6798, Australia",
        "road": "Murray Road",
        "house_number": null,
        "neighbourhood": "Silver City",
        "suburb": null,
        "city_district": "Christmas Island",
        "city": "Flying Fish Cove",
        "state": null,
        "postcode": "6798",
        "country": "Australia",
        "country_code": "au"
      },
      "address": "828, Murray Road, 6798 Flying Fish Cove, Christmas Island"
    },
    {
      "lat": -10.438970082275183,
      "lon": 105.69081749702177,
      "geoinfo": {
        "display_name": "Phosphate Hill Road, Christmas Island, Shire of Christmas Island, Christmas Island, 6798, Australia",
        "road": "Phosphate Hill Road",
        "house_number": null,
        "neighbourhood": null,
        "suburb": null,
        "city_district": "Christmas Island",
        "city": null,
        "state": null,
        "postcode": "6798",
        "country": "Australia",
        "country_code": "au"
      },
      "address": "499, Phosphate Hill Road, 6798 Flying Fish Cove, Christmas Island"
    },
    {
      "lat": -10.432288080814255,
      "lon": 105.67069405898677,
      "geoinfo": {
        "display_name": "Murray Road, Drumsite, Christmas Island, Flying Fish Cove, Shire of Christmas Island, Christmas Island, 6798, Australia",
        "road": "Murray Road",
        "house_number": null,
        "neighbourhood": "Drumsite",
        "suburb": null,
        "city_district": "Christmas Island",
        "city": "Flying Fish Cove",
        "state": null,
        "postcode": "6798",
        "country": "Australia",
        "country_code": "au"
      },
      "address": "768, Murray Road, 6798 Flying Fish Cove, Christmas Island"
    },
    {
      "lat": -10.431757775118156,
      "lon": 105.69649071714781,
      "geoinfo": {
        "display_name": "Quarry Road, Christmas Island, Shire of Christmas Island, Christmas Island, 6798, Australia",
        "road": "Quarry Road",
        "house_number": null,
        "neighbourhood": null,
        "suburb": null,
        "city_district": "Christmas Island",
        "city": null,
        "state": null,
        "postcode": "6798",
        "country": "Australia",
        "country_code": "au"
      },
      "address": "527, Quarry Road, 6798 Flying Fish Cove, Christmas Island"
    },
    {
      "lat": -10.40901584115427,
      "lon": 105.67074225997185,
      "geoinfo": {
        "display_name": "Silver City, Christmas Island, Flying Fish Cove, Shire of Christmas Island, Christmas Island, 6798, Australia",
        "road": null,
        "house_number": null,
        "neighbourhood": "Silver City",
        "suburb": null,
        "city_district": "Christmas Island",
        "city": "Flying Fish Cove",
        "state": null,
        "postcode": "6798",
        "country": "Australia",
        "country_code": "au"
      },
      "address": "947, Silver City, 6798 Flying Fish Cove, Christmas Island"
    },
    {
      "lat": -10.435893702837568,
      "lon": 105.6795696503353,
      "geoinfo": {
        "display_name": "Exiles Place, Christmas Island, Flying Fish Cove, Shire of Christmas Island, Christmas Island, 6798, Australia",
        "road": "Exiles Place",
        "house_number": null,
        "neighbourhood": null,
        "suburb": null,
        "city_district": "Christmas Island",
        "city": "Flying Fish Cove",
        "state": null,
        "postcode": "6798",
        "country": "Australia",
        "country_code": "au"
      },
      "address": "812, Exiles Place, 6798 Flying Fish Cove, Christmas Island"
    },
    {
      "lat": -10.413942285303817,
      "lon": 105.67710179001936,
      "geoinfo": {
        "display_name": "Rocky Point Crescent, Silver City, Christmas Island, Flying Fish Cove, Shire of Christmas Island, Christmas Island, 6798, Australia",
        "road": "Rocky Point Crescent",
        "house_number": null,
        "neighbourhood": "Silver City",
        "suburb": null,
        "city_district": "Christmas Island",
        "city": "Flying Fish Cove",
        "state": null,
        "postcode": "6798",
        "country": "Australia",
        "country_code": "au"
      },
      "address": "966, Rocky Point Crescent, 6798 Flying Fish Cove, Christmas Island"
    },
    {
      "lat": -10.440234598020831,
      "lon": 105.68037613669307,
      "geoinfo": {
        "display_name": "Phosphate Hill Road, Christmas Island, Shire of Christmas Island, Christmas Island, 6798, Australia",
        "road": "Phosphate Hill Road",
        "house_number": null,
        "neighbourhood": null,
        "suburb": null,
        "city_district": "Christmas Island",
        "city": null,
        "state": null,
        "postcode": "6798",
        "country": "Australia",
        "country_code": "au"
      },
      "address": "112, Phosphate Hill Road, 6798 Flying Fish Cove, Christmas Island"
    },
    {
      "lat": -10.427771469390594,
      "lon": 105.7042161060361,
      "geoinfo": {
        "display_name": "Christmas Island Golf Course, Golf Course-Casino Road, Silver City, Christmas Island, Flying Fish Cove, Shire of Christmas Island, Christmas Island, 6798, Australia",
        "road": "Golf Course-Casino Road",
        "house_number": null,
        "neighbourhood": "Silver City",
        "suburb": null,
        "city_district": "Christmas Island",
        "city": "Flying Fish Cove",
        "state": null,
        "postcode": "6798",
        "country": "Australia",
        "country_code": "au"
      },
      "address": "391, Golf Course-Casino Road, 6798 Flying Fish Cove, Christmas Island"
    },
    {
      "lat": -10.42072697716744,
      "lon": 105.6594834604857,
      "geoinfo": {
        "display_name": "Kampong, Christmas Island, Flying Fish Cove, Shire of Christmas Island, Christmas Island, 6798, Australia",
        "road": null,
        "house_number": null,
        "neighbourhood": "Kampong",
        "suburb": null,
        "city_district": "Christmas Island",
        "city": "Flying Fish Cove",
        "state": null,
        "postcode": "6798",
        "country": "Australia",
        "country_code": "au"
      },
      "address": "583, Kampong, 6798 Flying Fish Cove, Christmas Island"
    },
    {
      "lat": -10.450744502388645,
      "lon": 105.66677324449324,
      "geoinfo": {
        "display_name": "Murray Road, Christmas Island, Shire of Christmas Island, Christmas Island, 6798, Australia",
        "road": "Murray Road",
        "house_number": null,
        "neighbourhood": null,
        "suburb": null,
        "city_district": "Christmas Island",
        "city": null,
        "state": null,
        "postcode": "6798",
        "country": "Australia",
        "country_code": "au"
      },
      "address": "835, Murray Road, 6798 Flying Fish Cove, Christmas Island"
    },
    {
      "lat": -10.449711121546427,
      "lon": 105.71231382302082,
      "geoinfo": {
        "display_name": "Golf Course-Casino Road, Christmas Island, Shire of Christmas Island, Christmas Island, 6798, Australia",
        "road": "Golf Course-Casino Road",
        "house_number": null,
        "neighbourhood": null,
        "suburb": null,
        "city_district": "Christmas Island",
        "city": null,
        "state": null,
        "postcode": "6798",
        "country": "Australia",
        "country_code": "au"
      },
      "address": "266, Golf Course-Casino Road, 6798 Flying Fish Cove, Christmas Island"
    },
    {
      "lat": -10.414622727465716,
      "lon": 105.66603431032941,
      "geoinfo": {
        "display_name": "Silver City, Christmas Island, Flying Fish Cove, Shire of Christmas Island, Christmas Island, 6798, Australia",
        "road": null,
        "house_number": null,
        "neighbourhood": "Silver City",
        "suburb": null,
        "city_district": "Christmas Island",
        "city": "Flying Fish Cove",
        "state": null,
        "postcode": "6798",
        "country": "Australia",
        "country_code": "au"
      },
      "address": "260, Silver City, 6798 Flying Fish Cove, Christmas Island"
    },
    {
      "lat": -10.448132468851458,
      "lon": 105.70521090061608,
      "geoinfo": {
        "display_name": "Golf Course-Casino Road, Christmas Island, Shire of Christmas Island, Christmas Island, 6798, Australia",
        "road": "Golf Course-Casino Road",
        "house_number": null,
        "neighbourhood": null,
        "suburb": null,
        "city_district": "Christmas Island",
        "city": null,
        "state": null,
        "postcode": "6798",
        "country": "Australia",
        "country_code": "au"
      },
      "address": "448, Golf Course-Casino Road, 6798 Flying Fish Cove, Christmas Island"
    },
    {
      "lat": -10.437364408691375,
      "lon": 105.6578341657906,
      "geoinfo": {
        "display_name": "Kampong, Christmas Island, Flying Fish Cove, Shire of Christmas Island, Christmas Island, 6798, Australia",
        "road": null,
        "house_number": null,
        "neighbourhood": "Kampong",
        "suburb": null,
        "city_district": "Christmas Island",
        "city": "Flying Fish Cove",
        "state": null,
        "postcode": "6798",
        "country": "Australia",
        "country_code": "au"
      },
      "address": "969, Kampong, 6798 Flying Fish Cove, Christmas Island"
    },
    {
      "lat": -10.443673207183938,
      "lon": 105.70990729420616,
      "geoinfo": {
        "display_name": "Golf Course-Casino Road, Christmas Island, Shire of Christmas Island, Christmas Island, 6798, Australia",
        "road": "Golf Course-Casino Road",
        "house_number": null,
        "neighbourhood": null,
        "suburb": null,
        "city_district": "Christmas Island",
        "city": null,
        "state": null,
        "postcode": "6798",
        "country": "Australia",
        "country_code": "au"
      },
      "address": "902, Golf Course-Casino Road, 6798 Flying Fish Cove, Christmas Island"
    },
    {
      "lat": -10.43219189911243,
      "lon": 105.667888754459,
      "geoinfo": {
        "display_name": "Territory Day Park Loop Trail, Kampong, Christmas Island, Flying Fish Cove, Shire of Christmas Island, Christmas Island, 6798, Australia",
        "road": "Territory Day Park Loop Trail",
        "house_number": null,
        "neighbourhood": "Kampong",
        "suburb": null,
        "city_district": "Christmas Island",
        "city": "Flying Fish Cove",
        "state": null,
        "postcode": "6798",
        "country": "Australia",
        "country_code": "au"
      },
      "address": "871, Territory Day Park Loop Trail, 6798 Flying Fish Cove, Christmas Island"
    },
    {
      "lat": -10.43554635148111,
      "lon": 105.66071209358913,
      "geoinfo": {
        "display_name": "Smith's Point Road, Christmas Island, Flying Fish Cove, Shire of Christmas Island, Christmas Island, 6798, Australia",
        "road": "Smith's Point Road",
        "house_number": null,
        "neighbourhood": null,
        "suburb": null,
        "city_district": "Christmas Island",
        "city": "Flying Fish Cove",
        "state": null,
        "postcode": "6798",
        "country": "Australia",
        "country_code": "au"
      },
      "address": "436, Smith's Point Road, 6798 Flying Fish Cove, Christmas Island"
    },
    {
      "lat": -10.435938151457968,
      "lon": 105.66445582195524,
      "geoinfo": {
        "display_name": "Territory Day Park Loop Trail, Kampong, Christmas Island, Flying Fish Cove, Shire of Christmas Island, Christmas Island, 6798, Australia",
        "road": "Territory Day Park Loop Trail",
        "house_number": null,
        "neighbourhood": "Kampong",
        "suburb": null,
        "city_district": "Christmas Island",
        "city": "Flying Fish Cove",
        "state": null,
        "postcode": "6798",
        "country": "Australia",
        "country_code": "au"
      },
      "address": "494, Territory Day Park Loop Trail, 6798 Flying Fish Cove, Christmas Island"
    },
    {
      "lat": -10.419939314703468,
      "lon": 105.68344854568264,
      "geoinfo": {
        "display_name": "Murray Road, Silver City, Christmas Island, Flying Fish Cove, Shire of Christmas Island, Christmas Island, 6798, Australia",
        "road": "Murray Road",
        "house_number": null,
        "neighbourhood": "Silver City",
        "suburb": null,
        "city_district": "Christmas Island",
        "city": "Flying Fish Cove",
        "state": null,
        "postcode": "6798",
        "country": "Australia",
        "country_code": "au"
      },
      "address": "735, Murray Road, 6798 Flying Fish Cove, Christmas Island"
    },
    {
      "lat": -10.439824435628053,
      "lon": 105.686119697864,
      "geoinfo": {
        "display_name": "Phosphate Hill Road, Christmas Island, Shire of Christmas Island, Christmas Island, 6798, Australia",
        "road": "Phosphate Hill Road",
        "house_number": null,
        "neighbourhood": null,
        "suburb": null,
        "city_district": "Christmas Island",
        "city": null,
        "state": null,
        "postcode": "6798",
        "country": "Australia",
        "country_code": "au"
      },
      "address": "540, Phosphate Hill Road, 6798 Flying Fish Cove, Christmas Island"
    },
    {
      "lat": -10.423181643524243,
      "lon": 105.6629879837704,
      "geoinfo": {
        "display_name": "Smith's Point Road, Kampong, Christmas Island, Flying Fish Cove, Shire of Christmas Island, Christmas Island, 6798, Australia",
        "road": "Smith's Point Road",
        "house_number": null,
        "neighbourhood": "Kampong",
        "suburb": null,
        "city_district": "Christmas Island",
        "city": "Flying Fish Cove",
        "state": null,
        "postcode": "6798",
        "country": "Australia",
        "country_code": "au"
      },
      "address": "762, Smith's Point Road, 6798 Flying Fish Cove, Christmas Island"
    },
    {
      "lat": -10.421033539433338,
      "lon": 105.67133987721459,
      "geoinfo": {
        "display_name": "Gaze Road, Silver City, Christmas Island, Flying Fish Cove, Shire of Christmas Island, Christmas Island, 6798, Australia",
        "road": "Gaze Road",
        "house_number": null,
        "neighbourhood": "Silver City",
        "suburb": null,
        "city_district": "Christmas Island",
        "city": "Flying Fish Cove",
        "state": null,
        "postcode": "6798",
        "country": "Australia",
        "country_code": "au"
      },
      "address": "074, Gaze Road, 6798 Flying Fish Cove, Christmas Island"
    },
    {
      "lat": -10.45009495051783,
      "lon": 105.65323402389868,
      "geoinfo": {
        "display_name": "Murray Road, Christmas Island, Shire of Christmas Island, Christmas Island, 6798, Australia",
        "road": "Murray Road",
        "house_number": null,
        "neighbourhood": null,
        "suburb": null,
        "city_district": "Christmas Island",
        "city": null,
        "state": null,
        "postcode": "6798",
        "country": "Australia",
        "country_code": "au"
      },
      "address": "335, Murray Road, 6798 Flying Fish Cove, Christmas Island"
    },
    {
      "lat": -10.421610243706775,
      "lon": 105.68797867094864,
      "geoinfo": {
        "display_name": "Murray Road, Silver City, Christmas Island, Flying Fish Cove, Shire of Christmas Island, Christmas Island, 6798, Australia",
        "road": "Murray Road",
        "house_number": null,
        "neighbourhood": "Silver City",
        "suburb": null,
        "city_district": "Christmas Island",
        "city": "Flying Fish Cove",
        "state": null,
        "postcode": "6798",
        "country": "Australia",
        "country_code": "au"
      },
      "address": "862, Murray Road, 6798 Flying Fish Cove, Christmas Island"
    },
    {
      "lat": -10.406737698407671,
      "lon": 105.6929669561615,
      "geoinfo": {
        "display_name": "Silver City, Christmas Island, Flying Fish Cove, Shire of Christmas Island, Christmas Island, 6798, Australia",
        "road": null,
        "house_number": null,
        "neighbourhood": "Silver City",
        "suburb": null,
        "city_district": "Christmas Island",
        "city": "Flying Fish Cove",
        "state": null,
        "postcode": "6798",
        "country": "Australia",
        "country_code": "au"
      },
      "address": "848, Silver City, 6798 Flying Fish Cove, Christmas Island"
    },
    {
      "lat": -10.413631152904083,
      "lon": 105.70141494605848,
      "geoinfo": {
        "display_name": "Golf Course-Casino Road, Silver City, Christmas Island, Flying Fish Cove, Shire of Christmas Island, Christmas Island, 6798, Australia",
        "road": "Golf Course-Casino Road",
        "house_number": null,
        "neighbourhood": "Silver City",
        "suburb": null,
        "city_district": "Christmas Island",
        "city": "Flying Fish Cove",
        "state": null,
        "postcode": "6798",
        "country": "Australia",
        "country_code": "au"
      },
      "address": "227, Golf Course-Casino Road, 6798 Flying Fish Cove, Christmas Island"
    },
    {
      "lat": -10.4390611031615,
      "lon": 105.69131545424727,
      "geoinfo": {
        "display_name": "Phosphate Hill Road, Christmas Island, Shire of Christmas Island, Christmas Island, 6798, Australia",
        "road": "Phosphate Hill Road",
        "house_number": null,
        "neighbourhood": null,
        "suburb": null,
        "city_district": "Christmas Island",
        "city": null,
        "state": null,
        "postcode": "6798",
        "country": "Australia",
        "country_code": "au"
      },
      "address": "438, Phosphate Hill Road, 6798 Flying Fish Cove, Christmas Island"
    },
    {
      "lat": -10.436018896181176,
      "lon": 105.67415957682665,
      "geoinfo": {
        "display_name": "16, Jalan Ketam Merah, Drumsite, Christmas Island, Flying Fish Cove, Shire of Christmas Island, Christmas Island, 6798, Australia",
        "road": "Jalan Ketam Merah",
        "house_number": "16",
        "neighbourhood": "Drumsite",
        "suburb": null,
        "city_district": "Christmas Island",
        "city": "Flying Fish Cove",
        "state": null,
        "postcode": "6798",
        "country": "Australia",
        "country_code": "au"
      },
      "address": "16, Jalan Ketam Merah, 6798 Flying Fish Cove, Christmas Island"
    },
    {
      "lat": -10.424070674033526,
      "lon": 105.67265954297072,
      "geoinfo": {
        "display_name": "Gaze Road, Silver City, Christmas Island, Flying Fish Cove, Shire of Christmas Island, Christmas Island, 6798, Australia",
        "road": "Gaze Road",
        "house_number": null,
        "neighbourhood": "Silver City",
        "suburb": null,
        "city_district": "Christmas Island",
        "city": "Flying Fish Cove",
        "state": null,
        "postcode": "6798",
        "country": "Australia",
        "country_code": "au"
      },
      "address": "726, Gaze Road, 6798 Flying Fish Cove, Christmas Island"
    },
    {
      "lat": -10.404311198492215,
      "lon": 105.68463447544548,
      "geoinfo": {
        "display_name": "Silver City, Christmas Island, Flying Fish Cove, Shire of Christmas Island, Christmas Island, 6798, Australia",
        "road": null,
        "house_number": null,
        "neighbourhood": "Silver City",
        "suburb": null,
        "city_district": "Christmas Island",
        "city": "Flying Fish Cove",
        "state": null,
        "postcode": "6798",
        "country": "Australia",
        "country_code": "au"
      },
      "address": "186, Silver City, 6798 Flying Fish Cove, Christmas Island"
    },
    {
      "lat": -10.454157078587706,
      "lon": 105.65853416685808,
      "geoinfo": {
        "display_name": "Murray Road, Christmas Island, Shire of Christmas Island, Christmas Island, 6798, Australia",
        "road": "Murray Road",
        "house_number": null,
        "neighbourhood": null,
        "suburb": null,
        "city_district": "Christmas Island",
        "city": null,
        "state": null,
        "postcode": "6798",
        "country": "Australia",
        "country_code": "au"
      },
      "address": "549, Murray Road, 6798 Flying Fish Cove, Christmas Island"
    },
    {
      "lat": -10.438432875515435,
      "lon": 105.70781272766123,
      "geoinfo": {
        "display_name": "Golf Course-Casino Road, Christmas Island, Shire of Christmas Island, Christmas Island, 6798, Australia",
        "road": "Golf Course-Casino Road",
        "house_number": null,
        "neighbourhood": null,
        "suburb": null,
        "city_district": "Christmas Island",
        "city": null,
        "state": null,
        "postcode": "6798",
        "country": "Australia",
        "country_code": "au"
      },
      "address": "079, Golf Course-Casino Road, 6798 Flying Fish Cove, Christmas Island"
    }
  ],
  "updated_at": "2025-10-19T04:13:42.411906+00:00",
  "_kind": "geo_samples"
}