{
  "country_code": "BD",
  "country": "Bangladesh",
  "city": "Tungipāra",
  "geonameid": 1185920,
  "target_addresses": 4,
  "samples": [
    {
      "lat": 22.870279457672392,
      "lon": 89.92268538797926,
      "geoinfo": {
        "display_name": "Tungipara, Tungipara Upazila, Gopalganj District, Dhaka Division, Bangladesh",
        "road": null,
        "house_number": null,
        "neighbourhood": null,
        "suburb": null,
        "city_district": null,
        "city": "Tungipara",
        "state": "Dhaka Division",
        "postcode": null,
        "country": "Bangladesh",
        "country_code": "bd"
      },
      "address": "Tungipāra, Dhaka Division, Bangladesh"
    },
    {
      "lat": 22.926908352233973,
      "lon": 89.87716093350588,
      "geoinfo": {
        "display_name": "Gopalpur, Tungipara Upazila, Gopalganj District, Dhaka Division, 8120, Bangladesh",
        "road": null,
        "house_number": null,
        "neighbourhood": null,
        "suburb": null,
        "city_district": null,
        "city": "Gopalpur",
        "state": "Dhaka Division",
        "postcode": "8120",
        "country": "Bangladesh",
        "country_code": "bd"
      },
      "address": "574, Gopalpur, Tungipara Upazila, Gopalganj District, Dhaka Division, 8120, Bangladesh"
    },
    {
      "lat": 22.876016198648472,
      "lon": 89.87601906103538,
      "geoinfo": {
        "display_name": "Bara Baria, Chitalmari, Bagerhat District, Khulna Division, 8120, Bangladesh",
        "road": null,
        "house_number": null,
        "neighbourhood": null,
        "suburb": null,
        "city_district": null,
        "city": "Bara Baria",
        "state": "Khulna Division",
        "postcode": "8120",
        "country": "Bangladesh",
        "country_code": "bd"
      },
      "address": "089, Bara Baria, Chitalmari, Bagerhat District, Khulna Division, 8120, Bangladesh"
    },
    {
      "lat": 22.872716999983496,
      "lon": 89.92910464018522,
      "geoinfo": {
        "display_name": "পাটগাতী বাজার, Tungipara Upazila, Gopalganj District, Dhaka Division, 8120, Bangladesh",
        "road": null,
        "house_number": null,
        "neighbourhood": null,
        "suburb": null,
        "city_district": null,
        "city": "পাটগাতী বাজার",
        "state": "Dhaka Division",
        "postcode": "8120",
        "country": "Bangladesh",
        "country_code": "bd"
      },
      "address": "148, পাটগাতী বাজার, Tungipara Upazila, Gopalganj District, Dhaka Division, 8120, Bangladesh"
    }
  ],
  "updated_at": "2025-10-19T03:20:38.657225+00:00",
  "_kind": "geo_samples"
}