{
  "country_code": "GS",
  "country": "South Georgia and the South Sandwich Islands",
  "city": "Grytviken",
  "geonameid": 3426466,
  "target_addresses": 100,
  "samples": [
    {
      "lat": -54.264352228239666,
      "lon": -36.477531717720915,
      "geoinfo": {
        "display_name": "Sooty Bluff, King Edward Point, South Georgia, SIQQ 1ZZ, South Georgia and the South Sandwich Islands",
        "road": null,
        "house_number": null,
        "neighbourhood": null,
        "suburb": null,
        "city_district": null,
        "city": "King Edward Point",
        "state": "South Georgia",
        "postcode": "SIQQ 1ZZ",
        "country": "South Georgia and the South Sandwich Islands",
        "country_code": "gs"
      },
      "address": "Grytviken, South Georgia, South Georgia and the South Sandwich Islands"
    },
    {
      "lat": -54.30214201399525,
      "lon": -36.4809568285849,
      "geoinfo": {
        "display_name": "Lyn, Trail Maiviken - Grytviken, Grytviken, South Georgia, SIQQ 1ZZ, South Georgia and the South Sandwich Islands",
        "road": "Trail Maiviken - Grytviken",
        "house_number": null,
        "neighbourhood": null,
        "suburb": null,
        "city_district": null,
        "city": "Grytviken",
        "state": "South Georgia",
        "postcode": "SIQQ 1ZZ",
        "country": "South Georgia and the South Sandwich Islands",
        "country_code": "gs"
      },
      "address": "Trail Maiviken - Grytviken, Grytviken, South Georgia, South Georgia and the South Sandwich Islands"
    },
    {
      "lat": -54.28234734562616,
      "lon": -36.562311421068564,
      "geoinfo": {
        "display_name": "South Georgia, South Georgia and the South Sandwich Islands",
        "road": null,
        "house_number": null,
        "neighbourhood": null,
        "suburb": null,
        "city_district": null,
        "city": null,
        "state": "South Georgia",
        "postcode": null,
        "country": "South Georgia and the South Sandwich Islands",
        "country_code": "gs"
      },
      "address": "948, Grytviken, 97904 South Georgia, South Georgia and the South Sandwich Islands"
    },
    {
      "lat": -54.26096850501671,
      "lon": -36.470526011691355,
      "geoinfo": {
        "display_name": "Sappho Point, South Georgia, SIQQ 1ZZ, South Georgia and the South Sandwich Islands",
        "road": null,
        "house_number": null,
        "neighbourhood": null,
        "suburb": null,
        "city_district": null,
        "city": null,
        "state": "South Georgia",
        "postcode": "SIQQ 1ZZ",
        "country": "South Georgia and the South Sandwich Islands",
        "country_code": "gs"
      },
      "address": "811, Grytviken, SIQQ 1ZZ South Georgia, South Georgia and the South Sandwich Islands"
    },
    {
      "lat": -54.25801751304721,
      "lon": -36.573495718694495,
      "geoinfo": {
        "display_name": "South Georgia, South Georgia and the South Sandwich Islands",
        "road": null,
        "house_number": null,
        "neighbourhood": null,
        "suburb": null,
        "city_district": null,
        "city": null,
        "state": "South Georgia",
        "postcode": null,
        "country": "South Georgia and the South Sandwich Islands",
        "country_code": "gs"
      },
      "address": "913, Grytviken, 21132 South Georgia, South Georgia and the South Sandwich Islands"
    },
    {
      "lat": -54.289460808798914,
      "lon": -36.56029938113503,
      "geoinfo": {
        "display_name": "South Georgia, South Georgia and the South Sandwich Islands",
        "road": null,
        "house_number": null,
        "neighbourhood": null,
        "suburb": null,
        "city_district": null,
        "city": null,
        "state": "South Georgia",
        "postcode": null,
        "country": "South Georgia and the South Sandwich Islands",
        "country_code": "gs"
      },
      "address": "773, Grytviken, 78964 South Georgia, South Georgia and the South Sandwich Islands"
    },
    {
      "lat": -54.25294161841694,
      "lon": -36.4982988201092,
      "geoinfo": {
        "display_name": "Trail Maiviken - Grytviken, Grytviken, South Georgia, SIQQ 1ZZ, South Georgia and the South Sandwich Islands",
        "road": "Trail Maiviken - Grytviken",
        "house_number": null,
        "neighbourhood": null,
        "suburb": null,
        "city_district": null,
        "city": "Grytviken",
        "state": "South Georgia",
        "postcode": "SIQQ 1ZZ",
        "country": "South Georgia and the South Sandwich Islands",
        "country_code": "gs"
      },
      "address": "703, Trail Maiviken - Grytviken, Grytviken, South Georgia, SIQQ 1ZZ, South Georgia and the South Sandwich Islands"
    },
    {
      "lat": -54.31272312719201,
      "lon": -36.551786753736515,
      "geoinfo": {
        "display_name": "South Georgia, South Georgia and the South Sandwich Islands",
        "road": null,
        "house_number": null,
        "neighbourhood": null,
        "suburb": null,
        "city_district": null,
        "city": null,
        "state": "South Georgia",
        "postcode": null,
        "country": "South Georgia and the South Sandwich Islands",
        "country_code": "gs"
      },
      "address": "902, Grytviken, 21547 South Georgia, South Georgia and the South Sandwich Islands"
    },
    {
      "lat": -54.29393375923988,
      "lon": -36.441341474401874,
      "geoinfo": {
        "display_name": "South Georgia, South Georgia and the South Sandwich Islands",
        "road": null,
        "house_number": null,
        "neighbourhood": null,
        "suburb": null,
        "city_district": null,
        "city": null,
        "state": "South Georgia",
        "postcode": null,
        "country": "South Georgia and the South Sandwich Islands",
        "country_code": "gs"
      },
      "address": "021, Grytviken, 17822 South Georgia, South Georgia and the South Sandwich Islands"
    },
    {
      "lat": -54.28088401762291,
      "lon": -36.48968720728611,
      "geoinfo": {
        "display_name": "Memorial, Trail Maiviken - Grytviken, Grytviken, South Georgia, SIQQ 1ZZ, South Georgia and the South Sandwich Islands",
        "road": "Trail Maiviken - Grytviken",
        "house_number": null,
        "neighbourhood": null,
        "suburb": null,
        "city_district": null,
        "city": "Grytviken",
        "state": "South Georgia",
        "postcode": "SIQQ 1ZZ",
        "country": "South Georgia and the South Sandwich Islands",
        "country_code": "gs"
      },
      "address": "549, Trail Maiviken - Grytviken, Grytviken, SIQQ 1ZZ South Georgia, South Georgia and the South Sandwich Islands"
    },
    {
      "lat": -54.277939626922155,
      "lon": -36.53307018169753,
      "geoinfo": {
        "display_name": "Hodges Bowl, King Edward Point, South Georgia, SIQQ 1ZZ, South Georgia and the South Sandwich Islands",
        "road": null,
        "house_number": null,
        "neighbourhood": null,
        "suburb": null,
        "city_district": null,
        "city": "King Edward Point",
        "state": "South Georgia",
        "postcode": "SIQQ 1ZZ",
        "country": "South Georgia and the South Sandwich Islands",
        "country_code": "gs"
      },
      "address": "971, Grytviken, SIQQ 1ZZ South Georgia, South Georgia and the South Sandwich Islands"
    },
    {
      "lat": -54.24496881206253,
      "lon": -36.531234292585594,
      "geoinfo": {
        "display_name": "Carr Valley, South Georgia, SIQQ 1ZZ, South Georgia and the South Sandwich Islands",
        "road": null,
        "house_number": null,
        "neighbourhood": null,
        "suburb": null,
        "city_district": null,
        "city": null,
        "state": "South Georgia",
        "postcode": "SIQQ 1ZZ",
        "country": "South Georgia and the South Sandwich Islands",
        "country_code": "gs"
      },
      "address": "816, Grytviken, SIQQ 1ZZ South Georgia, South Georgia and the South Sandwich Islands"
    },
    {
      "lat": -54.30362596196559,
      "lon": -36.44348153807961,
      "geoinfo": {
        "display_name": "Dartmouth Point, South Georgia, South Georgia and the South Sandwich Islands",
        "road": null,
        "house_number": null,
        "neighbourhood": null,
        "suburb": null,
        "city_district": null,
        "city": null,
        "state": "South Georgia",
        "postcode": null,
        "country": "South Georgia and the South Sandwich Islands",
        "country_code": "gs"
      },
      "address": "845, Grytviken, 47314 South Georgia, South Georgia and the South Sandwich Islands"
    },
    {
      "lat": -54.29357760267078,
      "lon": -36.45798751722862,
      "geoinfo": {
        "display_name": "King Edward Point, South Georgia, SIQQ 1ZZ, South Georgia and the South Sandwich Islands",
        "road": null,
        "house_number": null,
        "neighbourhood": null,
        "suburb": null,
        "city_district": null,
        "city": "King Edward Point",
        "state": "South Georgia",
        "postcode": "SIQQ 1ZZ",
        "country": "South Georgia and the South Sandwich Islands",
        "country_code": "gs"
      },
      "address": "817, Grytviken, SIQQ 1ZZ South Georgia, South Georgia and the South Sandwich Islands"
    },
    {
      "lat": -54.27545692050473,
      "lon": -36.51196638145711,
      "geoinfo": {
        "display_name": "Trail Maiviken - Grytviken, Grytviken, South Georgia, SIQQ 1ZZ, South Georgia and the South Sandwich Islands",
        "road": "Trail Maiviken - Grytviken",
        "house_number": null,
        "neighbourhood": null,
        "suburb": null,
        "city_district": null,
        "city": "Grytviken",
        "state": "South Georgia",
        "postcode": "SIQQ 1ZZ",
        "country": "South Georgia and the South Sandwich Islands",
        "country_code": "gs"
      },
      "address": "697, Trail Maiviken - Grytviken, Grytviken, South Georgia, SIQQ 1ZZ, South Georgia and the South Sandwich Islands"
    },
    {
      "lat": -54.29237977467664,
      "lon": -36.449457482404604,
      "geoinfo": {
        "display_name": "South Georgia, South Georgia and the South Sandwich Islands",
        "road": null,
        "house_number": null,
        "neighbourhood": null,
        "suburb": null,
        "city_district": null,
        "city": null,
        "state": "South Georgia",
        "postcode": null,
        "country": "South Georgia and the South Sandwich Islands",
        "country_code": "gs"
      },
      "address": "225, Grytviken, 58394 South Georgia, South Georgia and the South Sandwich Islands"
    },
    {
      "lat": -54.276776754725425,
      "lon": -36.52435052415506,
      "geoinfo": {
        "display_name": "Hodges Bowl, King Edward Point, South Georgia, SIQQ 1ZZ, South Georgia and the South Sandwich Islands",
        "road": null,
        "house_number": null,
        "neighbourhood": null,
        "suburb": null,
        "city_district": null,
        "city": "King Edward Point",
        "state": "South Georgia",
        "postcode": "SIQQ 1ZZ",
        "country": "South Georgia and the South Sandwich Islands",
        "country_code": "gs"
      },
      "address": "364, Grytviken, SIQQ 1ZZ South Georgia, South Georgia and the South Sandwich Islands"
    },
    {
      "lat": -54.27284929499458,
      "lon": -36.505308396430365,
      "geoinfo": {
        "display_name": "Trail Maiviken - Grytviken, Grytviken, South Georgia, SIQQ 1ZZ, South Georgia and the South Sandwich Islands",
        "road": "Trail Maiviken - Grytviken",
        "house_number": null,
        "neighbourhood": null,
        "suburb": null,
        "city_district": null,
        "city": "Grytviken",
        "state": "South Georgia",
        "postcode": "SIQQ 1ZZ",
        "country": "South Georgia and the South Sandwich Islands",
        "country_code": "gs"
      },
      "address": "913, Trail Maiviken - Grytviken, Grytviken, South Georgia, SIQQ 1ZZ, South Georgia and the South Sandwich Islands"
    },
    {
      "lat": -54.29617646688865,
      "lon": -36.563996083060445,
      "geoinfo": {
        "display_name": "South Georgia, South Georgia and the South Sandwich Islands",
        "road": null,
        "house_number": null,
        "neighbourhood": null,
        "suburb": null,
        "city_district": null,
        "city": null,
        "state": "South Georgia",
        "postcode": null,
        "country": "South Georgia and the South Sandwich Islands",
        "country_code": "gs"
      },
      "address": "189, Grytviken, 49542 South Georgia, South Georgia and the South Sandwich Islands"
    },
    {
      "lat": -54.31689163844973,
      "lon": -36.46634699827467,
      "geoinfo": {
        "display_name": "Moresko 1, South Georgia, SIQQ 1ZZ, South Georgia and the South Sandwich Islands",
        "road": null,
        "house_number": null,
        "neighbourhood": null,
        "suburb": null,
        "city_district": null,
        "city": null,
        "state": "South Georgia",
        "postcode": "SIQQ 1ZZ",
        "country": "South Georgia and the South Sandwich Islands",
        "country_code": "gs"
      },
      "address": "791, Grytviken, SIQQ 1ZZ South Georgia, South Georgia and the South Sandwich Islands"
    },
    {
      "lat": -54.27907617530924,
      "lon": -36.564903325114706,
      "geoinfo": {
        "display_name": "South Georgia, South Georgia and the South Sandwich Islands",
        "road": null,
        "house_number": null,
        "neighbourhood": null,
        "suburb": null,
        "city_district": null,
        "city": null,
        "state": "South Georgia",
        "postcode": null,
        "country": "South Georgia and the South Sandwich Islands",
        "country_code": "gs"
      },
      "address": "535, Grytviken, 52003 South Georgia, South Georgia and the South Sandwich Islands"
    },
    {
      "lat": -54.284082236250974,
      "lon": -36.48384974826647,
      "geoinfo": {
        "display_name": "Shackleton's Memorial, Trail Maiviken - Grytviken, Grytviken, South Georgia, SIQQ 1ZZ, South Georgia and the South Sandwich Islands",
        "road": "Trail Maiviken - Grytviken",
        "house_number": null,
        "neighbourhood": null,
        "suburb": null,
        "city_district": null,
        "city": "Grytviken",
        "state": "South Georgia",
        "postcode": "SIQQ 1ZZ",
        "country": "South Georgia and the South Sandwich Islands",
        "country_code": "gs"
      },
      "address": "118, Trail Maiviken - Grytviken, Grytviken, SIQQ 1ZZ South Georgia, South Georgia and the South Sandwich Islands"
    },
    {
      "lat": -54.29050664108647,
      "lon": -36.439496487100534,
      "geoinfo": {
        "display_name": "South Georgia, South Georgia and the South Sandwich Islands",
        "road": null,
        "house_number": null,
        "neighbourhood": null,
        "suburb": null,
        "city_district": null,
        "city": null,
        "state": "South Georgia",
        "postcode": null,
        "country": "South Georgia and the South Sandwich Islands",
        "country_code": "gs"
      },
      "address": "344, Grytviken, 43031 South Georgia, South Georgia and the South Sandwich Islands"
    },
    {
      "lat": -54.30059300628476,
      "lon": -36.47242136026842,
      "geoinfo": {
        "display_name": "Discovery Point, King Edward Point, South Georgia, SIQQ 1ZZ, South Georgia and the South Sandwich Islands",
        "road": null,
        "house_number": null,
        "neighbourhood": null,
        "suburb": null,
        "city_district": null,
        "city": "King Edward Point",
        "state": "South Georgia",
        "postcode": "SIQQ 1ZZ",
        "country": "South Georgia and the South Sandwich Islands",
        "country_code": "gs"
      },
      "address": "163, Grytviken, SIQQ 1ZZ South Georgia, South Georgia and the South Sandwich Islands"
    },
    {
      "lat": -54.30419658768834,
      "lon": -36.466998969845164,
      "geoinfo": {
        "display_name": "Discovery Point, King Edward Point, South Georgia, SIQQ 1ZZ, South Georgia and the South Sandwich Islands",
        "road": null,
        "house_number": null,
        "neighbourhood": null,
        "suburb": null,
        "city_district": null,
        "city": "King Edward Point",
        "state": "South Georgia",
        "postcode": "SIQQ 1ZZ",
        "country": "South Georgia and the South Sandwich Islands",
        "country_code": "gs"
      },
      "address": "420, Grytviken, SIQQ 1ZZ South Georgia, South Georgia and the South Sandwich Islands"
    },
    {
      "lat": -54.30416644885028,
      "lon": -36.45871566334792,
      "geoinfo": {
        "display_name": "Dartmouth Point, South Georgia, South Georgia and the South Sandwich Islands",
        "road": null,
        "house_number": null,
        "neighbourhood": null,
        "suburb": null,
        "city_district": null,
        "city": null,
        "state": "South Georgia",
        "postcode": null,
        "country": "South Georgia and the South Sandwich Islands",
        "country_code": "gs"
      },
      "address": "871, Grytviken, 02313 South Georgia, South Georgia and the South Sandwich Islands"
    },
    {
      "lat": -54.28641028979086,
      "lon": -36.48859536319863,
      "geoinfo": {
        "display_name": "Shackleton's Memorial, Trail Maiviken - Grytviken, Grytviken, South Georgia, SIQQ 1ZZ, South Georgia and the South Sandwich Islands",
        "road": "Trail Maiviken - Grytviken",
        "house_number": null,
        "neighbourhood": null,
        "suburb": null,
        "city_district": null,
        "city": "Grytviken",
        "state": "South Georgia",
        "postcode": "SIQQ 1ZZ",
        "country": "South Georgia and the South Sandwich Islands",
        "country_code": "gs"
      },
      "address": "521, Trail Maiviken - Grytviken, Grytviken, SIQQ 1ZZ South Georgia, South Georgia and the South Sandwich Islands"
    },
    {
      "lat": -54.27685058544994,
      "lon": -36.45470323893867,
      "geoinfo": {
        "display_name": "South Georgia, South Georgia and the South Sandwich Islands",
        "road": null,
        "house_number": null,
        "neighbourhood": null,
        "suburb": null,
        "city_district": null,
        "city": null,
        "state": "South Georgia",
        "postcode": null,
        "country": "South Georgia and the South Sandwich Islands",
        "country_code": "gs"
      },
      "address": "955, Grytviken, 83619 South Georgia, South Georgia and the South Sandwich Islands"
    },
    {
      "lat": -54.30965006295162,
      "lon": -36.50750886647108,
      "geoinfo": {
        "display_name": "Hestesletten, South Georgia, SIQQ 1ZZ, South Georgia and the South Sandwich Islands",
        "road": null,
        "house_number": null,
        "neighbourhood": null,
        "suburb": null,
        "city_district": null,
        "city": null,
        "state": "South Georgia",
        "postcode": "SIQQ 1ZZ",
        "country": "South Georgia and the South Sandwich Islands",
        "country_code": "gs"
      },
      "address": "179, Grytviken, SIQQ 1ZZ South Georgia, South Georgia and the South Sandwich Islands"
    },
    {
      "lat": -54.26775013687386,
      "lon": -36.53239993962309,
      "geoinfo": {
        "display_name": "Hodges Bowl, King Edward Point, South Georgia, SIQQ 1ZZ, South Georgia and the South Sandwich Islands",
        "road": null,
        "house_number": null,
        "neighbourhood": null,
        "suburb": null,
        "city_district": null,
        "city": "King Edward Point",
        "state": "South Georgia",
        "postcode": "SIQQ 1ZZ",
        "country": "South Georgia and the South Sandwich Islands",
        "country_code": "gs"
      },
      "address": "891, Grytviken, SIQQ 1ZZ South Georgia, South Georgia and the South Sandwich Islands"
    },
    {
      "lat": -54.31276460743284,
      "lon": -36.534407996919654,
      "geoinfo": {
        "display_name": "Junction Valley, King Edward Point, South Georgia, SIQQ 1ZZ, South Georgia and the South Sandwich Islands",
        "road": null,
        "house_number": null,
        "neighbourhood": null,
        "suburb": null,
        "city_district": null,
        "city": "King Edward Point",
        "state": "South Georgia",
        "postcode": "SIQQ 1ZZ",
        "country": "South Georgia and the South Sandwich Islands",
        "country_code": "gs"
      },
      "address": "908, Grytviken, SIQQ 1ZZ South Georgia, South Georgia and the South Sandwich Islands"
    },
    {
      "lat": -54.271675580439634,
      "lon": -36.521518422699806,
      "geoinfo": {
        "display_name": "Hodges Bowl, King Edward Point, South Georgia, SIQQ 1ZZ, South Georgia and the South Sandwich Islands",
        "road": null,
        "house_number": null,
        "neighbourhood": null,
        "suburb": null,
        "city_district": null,
        "city": "King Edward Point",
        "state": "South Georgia",
        "postcode": "SIQQ 1ZZ",
        "country": "South Georgia and the South Sandwich Islands",
        "country_code": "gs"
      },
      "address": "448, Grytviken, SIQQ 1ZZ South Georgia, South Georgia and the South Sandwich Islands"
    },
    {
      "lat": -54.27678863482096,
      "lon": -36.459123201636494,
      "geoinfo": {
        "display_name": "Sooty Bluff, King Edward Point, South Georgia, SIQQ 1ZZ, South Georgia and the South Sandwich Islands",
        "road": null,
        "house_number": null,
        "neighbourhood": null,
        "suburb": null,
        "city_district": null,
        "city": "King Edward Point",
        "state": "South Georgia",
        "postcode": "SIQQ 1ZZ",
        "country": "South Georgia and the South Sandwich Islands",
        "country_code": "gs"
      },
      "address": "275, Grytviken, SIQQ 1ZZ South Georgia, South Georgia and the South Sandwich Islands"
    },
    {
      "lat": -54.27075079805707,
      "lon": -36.50678717047017,
      "geoinfo": {
        "display_name": "Trail Maiviken - Grytviken, Grytviken, South Georgia, SIQQ 1ZZ, South Georgia and the South Sandwich Islands",
        "road": "Trail Maiviken - Grytviken",
        "house_number": null,
        "neighbourhood": null,
        "suburb": null,
        "city_district": null,
        "city": "Grytviken",
        "state": "South Georgia",
        "postcode": "SIQQ 1ZZ",
        "country": "South Georgia and the South Sandwich Islands",
        "country_code": "gs"
      },
      "address": "001, Trail Maiviken - Grytviken, Grytviken, South Georgia, SIQQ 1ZZ, South Georgia and the South Sandwich Islands"
    },
    {
      "lat": -54.28532375234624,
      "lon": -36.54597301201607,
      "geoinfo": {
        "display_name": "Hodges Bowl, King Edward Point, South Georgia, SIQQ 1ZZ, South Georgia and the South Sandwich Islands",
        "road": null,
        "house_number": null,
        "neighbourhood": null,
        "suburb": null,
        "city_district": null,
        "city": "King Edward Point",
        "state": "South Georgia",
        "postcode": "SIQQ 1ZZ",
        "country": "South Georgia and the South Sandwich Islands",
        "country_code": "gs"
      },
      "address": "045, Grytviken, SIQQ 1ZZ South Georgia, South Georgia and the South Sandwich Islands"
    },
    {
      "lat": -54.27132929413132,
      "lon": -36.57168372567779,
      "geoinfo": {
        "display_name": "Sphagnum Valley, South Georgia, South Georgia and the South Sandwich Islands",
        "road": null,
        "house_number": null,
        "neighbourhood": null,
        "suburb": null,
        "city_district": null,
        "city": null,
        "state": "South Georgia",
        "postcode": null,
        "country": "South Georgia and the South Sandwich Islands",
        "country_code": "gs"
      },
      "address": "334, Grytviken, 82096 South Georgia, South Georgia and the South Sandwich Islands"
    },
    {
      "lat": -54.290307234041784,
      "lon": -36.49506307658919,
      "geoinfo": {
        "display_name": "Trail Maiviken - Grytviken, Grytviken, South Georgia, SIQQ 1ZZ, South Georgia and the South Sandwich Islands",
        "road": "Trail Maiviken - Grytviken",
        "house_number": null,
        "neighbourhood": null,
        "suburb": null,
        "city_district": null,
        "city": "Grytviken",
        "state": "South Georgia",
        "postcode": "SIQQ 1ZZ",
        "country": "South Georgia and the South Sandwich Islands",
        "country_code": "gs"
      },
      "address": "091, Trail Maiviken - Grytviken, Grytviken, South Georgia, SIQQ 1ZZ, South Georgia and the South Sandwich Islands"
    },
    {
      "lat": -54.27205573650548,
      "lon": -36.57009701053453,
      "geoinfo": {
        "display_name": "Sphagnum Valley, South Georgia, South Georgia and the South Sandwich Islands",
        "road": null,
        "house_number": null,
        "neighbourhood": null,
        "suburb": null,
        "city_district": null,
        "city": null,
        "state": "South Georgia",
        "postcode": null,
        "country": "South Georgia and the South Sandwich Islands",
        "country_code": "gs"
      },
      "address": "331, Grytviken, 74280 South Georgia, South Georgia and the South Sandwich Islands"
    },
    {
      "lat": -54.28754206090636,
      "lon": -36.462062584752005,
      "geoinfo": {
        "display_name": "Sooty Bluff, King Edward Point, South Georgia, SIQQ 1ZZ, South Georgia and the South Sandwich Islands",
        "road": null,
        "house_number": null,
        "neighbourhood": null,
        "suburb": null,
        "city_district": null,
        "city": "King Edward Point",
        "state": "South Georgia",
        "postcode": "SIQQ 1ZZ",
        "country": "South Georgia and the South Sandwich Islands",
        "country_code": "gs"
      },
      "address": "736, Grytviken, SIQQ 1ZZ South Georgia, South Georgia and the South Sandwich Islands"
    },
    {
      "lat": -54.278525139235484,
      "lon": -36.53128725433466,
      "geoinfo": {
        "display_name": "Hodges Bowl, King Edward Point, South Georgia, SIQQ 1ZZ, South Georgia and the South Sandwich Islands",
        "road": null,
        "house_number": null,
        "neighbourhood": null,
        "suburb": null,
        "city_district": null,
        "city": "King Edward Point",
        "state": "South Georgia",
        "postcode": "SIQQ 1ZZ",
        "country": "South Georgia and the South Sandwich Islands",
        "country_code": "gs"
      },
      "address": "912, Grytviken, SIQQ 1ZZ South Georgia, South Georgia and the South Sandwich Islands"
    },
    {
      "lat": -54.258081191430364,
      "lon": -36.56710694047788,
      "geoinfo": {
        "display_name": "South Georgia, South Georgia and the South Sandwich Islands",
        "road": null,
        "house_number": null,
        "neighbourhood": null,
        "suburb": null,
        "city_district": null,
        "city": null,
        "state": "South Georgia",
        "postcode": null,
        "country": "South Georgia and the South Sandwich Islands",
        "country_code": "gs"
      },
      "address": "708, Grytviken, 57635 South Georgia, South Georgia and the South Sandwich Islands"
    },
    {
      "lat": -54.26267587838629,
      "lon": -36.506693801821314,
      "geoinfo": {
        "display_name": "Trail Maiviken - Grytviken, Grytviken, South Georgia, SIQQ 1ZZ, South Georgia and the South Sandwich Islands",
        "road": "Trail Maiviken - Grytviken",
        "house_number": null,
        "neighbourhood": null,
        "suburb": null,
        "city_district": null,
        "city": "Grytviken",
        "state": "South Georgia",
        "postcode": "SIQQ 1ZZ",
        "country": "South Georgia and the South Sandwich Islands",
        "country_code": "gs"
      },
      "address": "806, Trail Maiviken - Grytviken, Grytviken, South Georgia, SIQQ 1ZZ, South Georgia and the South Sandwich Islands"
    },
    {
      "lat": -54.257770660391955,
      "lon": -36.51931993225017,
      "geoinfo": {
        "display_name": "Maiviken, South Georgia, SIQQ 1ZZ, South Georgia and the South Sandwich Islands",
        "road": null,
        "house_number": null,
        "neighbourhood": null,
        "suburb": null,
        "city_district": null,
        "city": null,
        "state": "South Georgia",
        "postcode": "SIQQ 1ZZ",
        "country": "South Georgia and the South Sandwich Islands",
        "country_code": "gs"
      },
      "address": "671, Grytviken, SIQQ 1ZZ South Georgia, South Georgia and the South Sandwich Islands"
    },
    {
      "lat": -54.28209963534804,
      "lon": -36.47745256092437,
      "geoinfo": {
        "display_name": "Sooty Bluff, King Edward Point, South Georgia, SIQQ 1ZZ, South Georgia and the South Sandwich Islands",
        "road": null,
        "house_number": null,
        "neighbourhood": null,
        "suburb": null,
        "city_district": null,
        "city": "King Edward Point",
        "state": "South Georgia",
        "postcode": "SIQQ 1ZZ",
        "country": "South Georgia and the South Sandwich Islands",
        "country_code": "gs"
      },
      "address": "295, Grytviken, SIQQ 1ZZ South Georgia, South Georgia and the South Sandwich Islands"
    },
    {
      "lat": -54.31362520358068,
      "lon": -36.50861894949595,
      "geoinfo": {
        "display_name": "Hestesletten, South Georgia, SIQQ 1ZZ, South Georgia and the South Sandwich Islands",
        "road": null,
        "house_number": null,
        "neighbourhood": null,
        "suburb": null,
        "city_district": null,
        "city": null,
        "state": "South Georgia",
        "postcode": "SIQQ 1ZZ",
        "country": "South Georgia and the South Sandwich Islands",
        "country_code": "gs"
      },
      "address": "686, Grytviken, SIQQ 1ZZ South Georgia, South Georgia and the South Sandwich Islands"
    },
    {
      "lat": -54.24581317126771,
      "lon": -36.5545797289929,
      "geoinfo": {
        "display_name": "South Georgia, South Georgia and the South Sandwich Islands",
        "road": null,
        "house_number": null,
        "neighbourhood": null,
        "suburb": null,
        "city_district": null,
        "city": null,
        "state": "South Georgia",
        "postcode": null,
        "country": "South Georgia and the South Sandwich Islands",
        "country_code": "gs"
      },
      "address": "920, Grytviken, 00222 South Georgia, South Georgia and the South Sandwich Islands"
    },
    {
      "lat": -54.26181615412942,
      "lon": -36.466262651377214,
      "geoinfo": {
        "display_name": "Sappho Point, South Georgia, SIQQ 1ZZ, South Georgia and the South Sandwich Islands",
        "road": null,
        "house_number": null,
        "neighbourhood": null,
        "suburb": null,
        "city_district": null,
        "city": null,
        "state": "South Georgia",
        "postcode": "SIQQ 1ZZ",
        "country": "South Georgia and the South Sandwich Islands",
        "country_code": "gs"
      },
      "address": "763, Grytviken, SIQQ 1ZZ South Georgia, South Georgia and the South Sandwich Islands"
    },
    {
      "lat": -54.27925714190882,
      "lon": -36.45874232269864,
      "geoinfo": {
        "display_name": "Sooty Bluff, King Edward Point, South Georgia, SIQQ 1ZZ, South Georgia and the South Sandwich Islands",
        "road": null,
        "house_number": null,
        "neighbourhood": null,
        "suburb": null,
        "city_district": null,
        "city": "King Edward Point",
        "state": "South Georgia",
        "postcode": "SIQQ 1ZZ",
        "country": "South Georgia and the South Sandwich Islands",
        "country_code": "gs"
      },
      "address": "585, Grytviken, SIQQ 1ZZ South Georgia, South Georgia and the South Sandwich Islands"
    },
    {
      "lat": -54.323334162718865,
      "lon": -36.500749065161465,
      "geoinfo": {
        "display_name": "Zenker Ridge, South Georgia, SIQQ 1ZZ, South Georgia and the South Sandwich Islands",
        "road": null,
        "house_number": null,
        "neighbourhood": null,
        "suburb": null,
        "city_district": null,
        "city": null,
        "state": "South Georgia",
        "postcode": "SIQQ 1ZZ",
        "country": "South Georgia and the South Sandwich Islands",
        "country_code": "gs"
      },
      "address": "885, Grytviken, SIQQ 1ZZ South Georgia, South Georgia and the South Sandwich Islands"
    },
    {
      "lat": -54.27977355809805,
      "lon": -36.50152534944125,
      "geoinfo": {
        "display_name": "Trail Maiviken - Grytviken, Grytviken, South Georgia, SIQQ 1ZZ, South Georgia and the South Sandwich Islands",
        "road": "Trail Maiviken - Grytviken",
        "house_number": null,
        "neighbourhood": null,
        "suburb": null,
        "city_district": null,
        "city": "Grytviken",
        "state": "South Georgia",
        "postcode": "SIQQ 1ZZ",
        "country": "South Georgia and the South Sandwich Islands",
        "country_code": "gs"
      },
      "address": "808, Trail Maiviken - Grytviken, Grytviken, South Georgia, SIQQ 1ZZ, South Georgia and the South Sandwich Islands"
    },
    {
      "lat": -54.296963053112364,
      "lon": -36.503806898374705,
      "geoinfo": {
        "display_name": "Brown Flats, King Edward Point, South Georgia, SIQQ 1ZZ, South Georgia and the South Sandwich Islands",
        "road": null,
        "house_number": null,
        "neighbourhood": null,
        "suburb": null,
        "city_district": null,
        "city": "King Edward Point",
        "state": "South Georgia",
        "postcode": "SIQQ 1ZZ",
        "country": "South Georgia and the South Sandwich Islands",
        "country_code": "gs"
      },
      "address": "212, Grytviken, SIQQ 1ZZ South Georgia, South Georgia and the South Sandwich Islands"
    },
    {
      "lat": -54.31699930670784,
      "lon": -36.52009240725889,
      "geoinfo": {
        "display_name": "Hestesletten, South Georgia, SIQQ 1ZZ, South Georgia and the South Sandwich Islands",
        "road": null,
        "house_number": null,
        "neighbourhood": null,
        "suburb": null,
        "city_district": null,
        "city": null,
        "state": "South Georgia",
        "postcode": "SIQQ 1ZZ",
        "country": "South Georgia and the South Sandwich Islands",
        "country_code": "gs"
      },
      "address": "623, Grytviken, SIQQ 1ZZ South Georgia, South Georgia and the South Sandwich Islands"
    },
    {
      "lat": -54.261747458089815,
      "lon": -36.57790463295637,
      "geoinfo": {
        "display_name": "Sphagnum Valley, South Georgia, South Georgia and the South Sandwich Islands",
        "road": null,
        "house_number": null,
        "neighbourhood": null,
        "suburb": null,
        "city_district": null,
        "city": null,
        "state": "South Georgia",
        "postcode": null,
        "country": "South Georgia and the South Sandwich Islands",
        "country_code": "gs"
      },
      "address": "334, Grytviken, 81276 South Georgia, South Georgia and the South Sandwich Islands"
    },
    {
      "lat": -54.32280937799213,
      "lon": -36.50154725905518,
      "geoinfo": {
        "display_name": "Zenker Ridge, South Georgia, SIQQ 1ZZ, South Georgia and the South Sandwich Islands",
        "road": null,
        "house_number": null,
        "neighbourhood": null,
        "suburb": null,
        "city_district": null,
        "city": null,
        "state": "South Georgia",
        "postcode": "SIQQ 1ZZ",
        "country": "South Georgia and the South Sandwich Islands",
        "country_code": "gs"
      },
      "address": "508, Grytviken, SIQQ 1ZZ South Georgia, South Georgia and the South Sandwich Islands"
    },
    {
      "lat": -54.246730793545545,
      "lon": -36.486505050954015,
      "geoinfo": {
        "display_name": "Puppy Lake, South Georgia, SIQQ 1ZZ, South Georgia and the South Sandwich Islands",
        "road": null,
        "house_number": null,
        "neighbourhood": null,
        "suburb": null,
        "city_district": null,
        "city": null,
        "state": "South Georgia",
        "postcode": "SIQQ 1ZZ",
        "country": "South Georgia and the South Sandwich Islands",
        "country_code": "gs"
      },
      "address": "505, Grytviken, SIQQ 1ZZ South Georgia, South Georgia and the South Sandwich Islands"
    },
    {
      "lat": -54.295981733706185,
      "lon": -36.48930031910555,
      "geoinfo": {
        "display_name": "Horse Head, King Edward Point, South Georgia, SIQQ 1ZZ, South Georgia and the South Sandwich Islands",
        "road": null,
        "house_number": null,
        "neighbourhood": null,
        "suburb": null,
        "city_district": null,
        "city": "King Edward Point",
        "state": "South Georgia",
        "postcode": "SIQQ 1ZZ",
        "country": "South Georgia and the South Sandwich Islands",
        "country_code": "gs"
      },
      "address": "109, Grytviken, SIQQ 1ZZ South Georgia, South Georgia and the South Sandwich Islands"
    },
    {
      "lat": -54.24968911918029,
      "lon": -36.535499843859725,
      "geoinfo": {
        "display_name": "Carr Valley, South Georgia, SIQQ 1ZZ, South Georgia and the South Sandwich Islands",
        "road": null,
        "house_number": null,
        "neighbourhood": null,
        "suburb": null,
        "city_district": null,
        "city": null,
        "state": "South Georgia",
        "postcode": "SIQQ 1ZZ",
        "country": "South Georgia and the South Sandwich Islands",
        "country_code": "gs"
      },
      "address": "093, Grytviken, SIQQ 1ZZ South Georgia, South Georgia and the South Sandwich Islands"
    },
    {
      "lat": -54.28687124694134,
      "lon": -36.43677227576944,
      "geoinfo": {
        "display_name": "South Georgia, South Georgia and the South Sandwich Islands",
        "road": null,
        "house_number": null,
        "neighbourhood": null,
        "suburb": null,
        "city_district": null,
        "city": null,
        "state": "South Georgia",
        "postcode": null,
        "country": "South Georgia and the South Sandwich Islands",
        "country_code": "gs"
      },
      "address": "854, Grytviken, 40837 South Georgia, South Georgia and the South Sandwich Islands"
    },
    {
      "lat": -54.263965343603694,
      "lon": -36.53542058436865,
      "geoinfo": {
        "display_name": "Hodges Bowl, King Edward Point, South Georgia, SIQQ 1ZZ, South Georgia and the South Sandwich Islands",
        "road": null,
        "house_number": null,
        "neighbourhood": null,
        "suburb": null,
        "city_district": null,
        "city": "King Edward Point",
        "state": "South Georgia",
        "postcode": "SIQQ 1ZZ",
        "country": "South Georgia and the South Sandwich Islands",
        "country_code": "gs"
      },
      "address": "838, Grytviken, SIQQ 1ZZ South Georgia, South Georgia and the South Sandwich Islands"
    },
    {
      "lat": -54.30659878025804,
      "lon": -36.50042102854777,
      "geoinfo": {
        "display_name": "Zenker Ridge, South Georgia, SIQQ 1ZZ, South Georgia and the South Sandwich Islands",
        "road": null,
        "house_number": null,
        "neighbourhood": null,
        "suburb": null,
        "city_district": null,
        "city": null,
        "state": "South Georgia",
        "postcode": "SIQQ 1ZZ",
        "country": "South Georgia and the South Sandwich Islands",
        "country_code": "gs"
      },
      "address": "672, Grytviken, SIQQ 1ZZ South Georgia, South Georgia and the South Sandwich Islands"
    },
    {
      "lat": -54.29019861563443,
      "lon": -36.582650171480495,
      "geoinfo": {
        "display_name": "Sphagnum Valley, South Georgia, South Georgia and the South Sandwich Islands",
        "road": null,
        "house_number": null,
        "neighbourhood": null,
        "suburb": null,
        "city_district": null,
        "city": null,
        "state": "South Georgia",
        "postcode": null,
        "country": "South Georgia and the South Sandwich Islands",
        "country_code": "gs"
      },
      "address": "753, Grytviken, 71772 South Georgia, South Georgia and the South Sandwich Islands"
    },
    {
      "lat": -54.27458414677167,
      "lon": -36.53187237745139,
      "geoinfo": {
        "display_name": "Hodges Bowl, King Edward Point, South Georgia, SIQQ 1ZZ, South Georgia and the South Sandwich Islands",
        "road": null,
        "house_number": null,
        "neighbourhood": null,
        "suburb": null,
        "city_district": null,
        "city": "King Edward Point",
        "state": "South Georgia",
        "postcode": "SIQQ 1ZZ",
        "country": "South Georgia and the South Sandwich Islands",
        "country_code": "gs"
      },
      "address": "747, Grytviken, SIQQ 1ZZ South Georgia, South Georgia and the South Sandwich Islands"
    },
    {
      "lat": -54.26492309936373,
      "lon": -36.48859428804665,
      "geoinfo": {
        "display_name": "Maidalan, South Georgia, SIQQ 1ZZ, South Georgia and the South Sandwich Islands",
        "road": null,
        "house_number": null,
        "neighbourhood": null,
        "suburb": null,
        "city_district": null,
        "city": null,
        "state": "South Georgia",
        "postcode": "SIQQ 1ZZ",
        "country": "South Georgia and the South Sandwich Islands",
        "country_code": "gs"
      },
      "address": "848, Grytviken, SIQQ 1ZZ South Georgia, South Georgia and the South Sandwich Islands"
    },
    {
      "lat": -54.308506989509404,
      "lon": -36.52523114451125,
      "geoinfo": {
        "display_name": "Junction Valley, King Edward Point, South Georgia, SIQQ 1ZZ, South Georgia and the South Sandwich Islands",
        "road": null,
        "house_number": null,
        "neighbourhood": null,
        "suburb": null,
        "city_district": null,
        "city": "King Edward Point",
        "state": "South Georgia",
        "postcode": "SIQQ 1ZZ",
        "country": "South Georgia and the South Sandwich Islands",
        "country_code": "gs"
      },
      "address": "217, Grytviken, SIQQ 1ZZ South Georgia, South Georgia and the South Sandwich Islands"
    },
    {
      "lat": -54.30871505384849,
      "lon": -36.4797756435455,
      "geoinfo": {
        "display_name": "Lyn, Trail Maiviken - Grytviken, Grytviken, South Georgia, SIQQ 1ZZ, South Georgia and the South Sandwich Islands",
        "road": "Trail Maiviken - Grytviken",
        "house_number": null,
        "neighbourhood": null,
        "suburb": null,
        "city_district": null,
        "city": "Grytviken",
        "state": "South Georgia",
        "postcode": "SIQQ 1ZZ",
        "country": "South Georgia and the South Sandwich Islands",
        "country_code": "gs"
      },
      "address": "165, Trail Maiviken - Grytviken, Grytviken, SIQQ 1ZZ South Georgia, South Georgia and the South Sandwich Islands"
    },
    {
      "lat": -54.272906337270676,
      "lon": -36.467192716681424,
      "geoinfo": {
        "display_name": "Sooty Bluff, King Edward Point, South Georgia, SIQQ 1ZZ, South Georgia and the South Sandwich Islands",
        "road": null,
        "house_number": null,
        "neighbourhood": null,
        "suburb": null,
        "city_district": null,
        "city": "King Edward Point",
        "state": "South Georgia",
        "postcode": "SIQQ 1ZZ",
        "country": "South Georgia and the South Sandwich Islands",
        "country_code": "gs"
      },
      "address": "116, Grytviken, SIQQ 1ZZ South Georgia, South Georgia and the South Sandwich Islands"
    },
    {
      "lat": -54.249522771719434,
      "lon": -36.528427352358804,
      "geoinfo": {
        "display_name": "Carr Valley, South Georgia, SIQQ 1ZZ, South Georgia and the South Sandwich Islands",
        "road": null,
        "house_number": null,
        "neighbourhood": null,
        "suburb": null,
        "city_district": null,
        "city": null,
        "state": "South Georgia",
        "postcode": "SIQQ 1ZZ",
        "country": "South Georgia and the South Sandwich Islands",
        "country_code": "gs"
      },
      "address": "020, Grytviken, SIQQ 1ZZ South Georgia, South Georgia and the South Sandwich Islands"
    },
    {
      "lat": -54.273793127216564,
      "lon": -36.577398433782164,
      "geoinfo": {
        "display_name": "Sphagnum Valley, South Georgia, South Georgia and the South Sandwich Islands",
        "road": null,
        "house_number": null,
        "neighbourhood": null,
        "suburb": null,
        "city_district": null,
        "city": null,
        "state": "South Georgia",
        "postcode": null,
        "country": "South Georgia and the South Sandwich Islands",
        "country_code": "gs"
      },
      "address": "946, Grytviken, 41023 South Georgia, South Georgia and the South Sandwich Islands"
    },
    {
      "lat": -54.26436585371918,
      "lon": -36.4922428933135,
      "geoinfo": {
        "display_name": "Trail Maiviken - Grytviken, Grytviken, South Georgia, SIQQ 1ZZ, South Georgia and the South Sandwich Islands",
        "road": "Trail Maiviken - Grytviken",
        "house_number": null,
        "neighbourhood": null,
        "suburb": null,
        "city_district": null,
        "city": "Grytviken",
        "state": "South Georgia",
        "postcode": "SIQQ 1ZZ",
        "country": "South Georgia and the South Sandwich Islands",
        "country_code": "gs"
      },
      "address": "548, Trail Maiviken - Grytviken, Grytviken, South Georgia, SIQQ 1ZZ, South Georgia and the South Sandwich Islands"
    },
    {
      "lat": -54.312363783155675,
      "lon": -36.54614561522934,
      "geoinfo": {
        "display_name": "South Georgia, South Georgia and the South Sandwich Islands",
        "road": null,
        "house_number": null,
        "neighbourhood": null,
        "suburb": null,
        "city_district": null,
        "city": null,
        "state": "South Georgia",
        "postcode": null,
        "country": "South Georgia and the South Sandwich Islands",
        "country_code": "gs"
      },
      "address": "858, Grytviken, 43957 South Georgia, South Georgia and the South Sandwich Islands"
    },
    {
      "lat": -54.27788015745236,
      "lon": -36.49283625472869,
      "geoinfo": {
        "display_name": "Trail Maiviken - Grytviken, Grytviken, South Georgia, SIQQ 1ZZ, South Georgia and the South Sandwich Islands",
        "road": "Trail Maiviken - Grytviken",
        "house_number": null,
        "neighbourhood": null,
        "suburb": null,
        "city_district": null,
        "city": "Grytviken",
        "state": "South Georgia",
        "postcode": "SIQQ 1ZZ",
        "country": "South Georgia and the South Sandwich Islands",
        "country_code": "gs"
      },
      "address": "308, Trail Maiviken - Grytviken, Grytviken, South Georgia, SIQQ 1ZZ, South Georgia and the South Sandwich Islands"
    },
    {
      "lat": -54.297502811830995,
      "lon": -36.46233630724354,
      "geoinfo": {
        "display_name": "Discovery Point, King Edward Point, South Georgia, SIQQ 1ZZ, South Georgia and the South Sandwich Islands",
        "road": null,
        "house_number": null,
        "neighbourhood": null,
        "suburb": null,
        "city_district": null,
        "city": "King Edward Point",
        "state": "South Georgia",
        "postcode": "SIQQ 1ZZ",
        "country": "South Georgia and the South Sandwich Islands",
        "country_code": "gs"
      },
      "address": "535, Grytviken, SIQQ 1ZZ South Georgia, South Georgia and the South Sandwich Islands"
    },
    {
      "lat": -54.306616576769365,
      "lon": -36.45832978604395,
      "geoinfo": {
        "display_name": "Dartmouth Point, South Georgia, South Georgia and the South Sandwich Islands",
        "road": null,
        "house_number": null,
        "neighbourhood": null,
        "suburb": null,
        "city_district": null,
        "city": null,
        "state": "South Georgia",
        "postcode": null,
        "country": "South Georgia and the South Sandwich Islands",
        "country_code": "gs"
      },
      "address": "591, Grytviken, 65211 South Georgia, South Georgia and the South Sandwich Islands"
    },
    {
      "lat": -54.28054709604913,
      "lon": -36.50755876420446,
      "geoinfo": {
        "display_name": "Boiler House, Trail Maiviken - Grytviken, Grytviken, South Georgia, SIQQ 1ZZ, South Georgia and the South Sandwich Islands",
        "road": "Trail Maiviken - Grytviken",
        "house_number": null,
        "neighbourhood": null,
        "suburb": null,
        "city_district": null,
        "city": "Grytviken",
        "state": "South Georgia",
        "postcode": "SIQQ 1ZZ",
        "country": "South Georgia and the South Sandwich Islands",
        "country_code": "gs"
      },
      "address": "296, Trail Maiviken - Grytviken, Grytviken, SIQQ 1ZZ South Georgia, South Georgia and the South Sandwich Islands"
    },
    {
      "lat": -54.27399714901636,
      "lon": -36.45284861966811,
      "geoinfo": {
        "display_name": "South Georgia, South Georgia and the South Sandwich Islands",
        "road": null,
        "house_number": null,
        "neighbourhood": null,
        "suburb": null,
        "city_district": null,
        "city": null,
        "state": "South Georgia",
        "postcode": null,
        "country": "South Georgia and the South Sandwich Islands",
        "country_code": "gs"
      },
      "address": "178, Grytviken, 66014 South Georgia, South Georgia and the South Sandwich Islands"
    },
    {
      "lat": -54.29213843603135,
      "lon": -36.52674553605496,
      "geoinfo": {
        "display_name": "Junction Valley, King Edward Point, South Georgia, SIQQ 1ZZ, South Georgia and the South Sandwich Islands",
        "road": null,
        "house_number": null,
        "neighbourhood": null,
        "suburb": null,
        "city_district": null,
        "city": "King Edward Point",
        "state": "South Georgia",
        "postcode": "SIQQ 1ZZ",
        "country": "South Georgia and the South Sandwich Islands",
        "country_code": "gs"
      },
      "address": "969, Grytviken, SIQQ 1ZZ South Georgia, South Georgia and the South Sandwich Islands"
    },
    {
      "lat": -54.31902932521993,
      "lon": -36.535651158181295,
      "geoinfo": {
        "display_name": "South Georgia, South Georgia and the South Sandwich Islands",
        "road": null,
        "house_number": null,
        "neighbourhood": null,
        "suburb": null,
        "city_district": null,
        "city": null,
        "state": "South Georgia",
        "postcode": null,
        "country": "South Georgia and the South Sandwich Islands",
        "country_code": "gs"
      },
      "address": "388, Grytviken, 32841 South Georgia, South Georgia and the South Sandwich Islands"
    },
    {
      "lat": -54.26330380195682,
      "lon": -36.54538251630707,
      "geoinfo": {
        "display_name": "Hodges Bowl, King Edward Point, South Georgia, SIQQ 1ZZ, South Georgia and the South Sandwich Islands",
        "road": null,
        "house_number": null,
        "neighbourhood": null,
        "suburb": null,
        "city_district": null,
        "city": "King Edward Point",
        "state": "South Georgia",
        "postcode": "SIQQ 1ZZ",
        "country": "South Georgia and the South Sandwich Islands",
        "country_code": "gs"
      },
      "address": "598, Grytviken, SIQQ 1ZZ South Georgia, South Georgia and the South Sandwich Islands"
    },
    {
      "lat": -54.29970336769221,
      "lon": -36.522310831600855,
      "geoinfo": {
        "display_name": "Junction Valley, King Edward Point, South Georgia, SIQQ 1ZZ, South Georgia and the South Sandwich Islands",
        "road": null,
        "house_number": null,
        "neighbourhood": null,
        "suburb": null,
        "city_district": null,
        "city": "King Edward Point",
        "state": "South Georgia",
        "postcode": "SIQQ 1ZZ",
        "country": "South Georgia and the South Sandwich Islands",
        "country_code": "gs"
      },
      "address": "283, Grytviken, SIQQ 1ZZ South Georgia, South Georgia and the South Sandwich Islands"
    },
    {
      "lat": -54.24246447154685,
      "lon": -36.53201909975736,
      "geoinfo": {
        "display_name": "Carr Valley, South Georgia, SIQQ 1ZZ, South Georgia and the South Sandwich Islands",
        "road": null,
        "house_number": null,
        "neighbourhood": null,
        "suburb": null,
        "city_district": null,
        "city": null,
        "state": "South Georgia",
        "postcode": "SIQQ 1ZZ",
        "country": "South Georgia and the South Sandwich Islands",
        "country_code": "gs"
      },
      "address": "230, Grytviken, SIQQ 1ZZ South Georgia, South Georgia and the South Sandwich Islands"
    },
    {
      "lat": -54.25965639486597,
      "lon": -36.50115293205525,
      "geoinfo": {
        "display_name": "Trail Maiviken - Grytviken, Grytviken, South Georgia, SIQQ 1ZZ, South Georgia and the South Sandwich Islands",
        "road": "Trail Maiviken - Grytviken",
        "house_number": null,
        "neighbourhood": null,
        "suburb": null,
        "city_district": null,
        "city": "Grytviken",
        "state": "South Georgia",
        "postcode": "SIQQ 1ZZ",
        "country": "South Georgia and the South Sandwich Islands",
        "country_code": "gs"
      },
      "address": "721, Trail Maiviken - Grytviken, Grytviken, South Georgia, SIQQ 1ZZ, South Georgia and the South Sandwich Islands"
    },
    {
      "lat": -54.27156008658506,
      "lon": -36.47290527338299,
      "geoinfo": {
        "display_name": "Sooty Bluff, King Edward Point, South Georgia, SIQQ 1ZZ, South Georgia and the South Sandwich Islands",
        "road": null,
        "house_number": null,
        "neighbourhood": null,
        "suburb": null,
        "city_district": null,
        "city": "King Edward Point",
        "state": "South Georgia",
        "postcode": "SIQQ 1ZZ",
        "country": "South Georgia and the South Sandwich Islands",
        "country_code": "gs"
      },
      "address": "525, Grytviken, SIQQ 1ZZ South Georgia, South Georgia and the South Sandwich Islands"
    },
    {
      "lat": -54.25763604497492,
      "lon": -36.54770559659871,
      "geoinfo": {
        "display_name": "Carr Valley, South Georgia, SIQQ 1ZZ, South Georgia and the South Sandwich Islands",
        "road": null,
        "house_number": null,
        "neighbourhood": null,
        "suburb": null,
        "city_district": null,
        "city": null,
        "state": "South Georgia",
        "postcode": "SIQQ 1ZZ",
        "country": "South Georgia and the South Sandwich Islands",
        "country_code": "gs"
      },
      "address": "466, Grytviken, SIQQ 1ZZ South Georgia, South Georgia and the South Sandwich Islands"
    },
    {
      "lat": -54.238080104760954,
      "lon": -36.51416288175887,
      "geoinfo": {
        "display_name": "Rocky Point, South Georgia, SIQQ 1ZZ, South Georgia and the South Sandwich Islands",
        "road": null,
        "house_number": null,
        "neighbourhood": null,
        "suburb": null,
        "city_district": null,
        "city": null,
        "state": "South Georgia",
        "postcode": "SIQQ 1ZZ",
        "country": "South Georgia and the South Sandwich Islands",
        "country_code": "gs"
      },
      "address": "177, Grytviken, SIQQ 1ZZ South Georgia, South Georgia and the South Sandwich Islands"
    },
    {
      "lat": -54.27753743258894,
      "lon": -36.455945789559856,
      "geoinfo": {
        "display_name": "Sooty Bluff, King Edward Point, South Georgia, SIQQ 1ZZ, South Georgia and the South Sandwich Islands",
        "road": null,
        "house_number": null,
        "neighbourhood": null,
        "suburb": null,
        "city_district": null,
        "city": "King Edward Point",
        "state": "South Georgia",
        "postcode": "SIQQ 1ZZ",
        "country": "South Georgia and the South Sandwich Islands",
        "country_code": "gs"
      },
      "address": "805, Grytviken, SIQQ 1ZZ South Georgia, South Georgia and the South Sandwich Islands"
    },
    {
      "lat": -54.30636586407712,
      "lon": -36.52144688693553,
      "geoinfo": {
        "display_name": "Junction Valley, King Edward Point, South Georgia, SIQQ 1ZZ, South Georgia and the South Sandwich Islands",
        "road": null,
        "house_number": null,
        "neighbourhood": null,
        "suburb": null,
        "city_district": null,
        "city": "King Edward Point",
        "state": "South Georgia",
        "postcode": "SIQQ 1ZZ",
        "country": "South Georgia and the South Sandwich Islands",
        "country_code": "gs"
      },
      "address": "825, Grytviken, SIQQ 1ZZ South Georgia, South Georgia and the South Sandwich Islands"
    },
    {
      "lat": -54.253189469626555,
      "lon": -36.55885863679709,
      "geoinfo": {
        "display_name": "South Georgia, South Georgia and the South Sandwich Islands",
        "road": null,
        "house_number": null,
        "neighbourhood": null,
        "suburb": null,
        "city_district": null,
        "city": null,
        "state": "South Georgia",
        "postcode": null,
        "country": "South Georgia and the South Sandwich Islands",
        "country_code": "gs"
      },
      "address": "629, Grytviken, 70063 South Georgia, South Georgia and the South Sandwich Islands"
    },
    {
      "lat": -54.26329663966099,
      "lon": -36.508040465405735,
      "geoinfo": {
        "display_name": "Dead Man's Cairn, King Edward Point, South Georgia, SIQQ 1ZZ, South Georgia and the South Sandwich Islands",
        "road": null,
        "house_number": null,
        "neighbourhood": null,
        "suburb": null,
        "city_district": null,
        "city": "King Edward Point",
        "state": "South Georgia",
        "postcode": "SIQQ 1ZZ",
        "country": "South Georgia and the South Sandwich Islands",
        "country_code": "gs"
      },
      "address": "082, Grytviken, SIQQ 1ZZ South Georgia, South Georgia and the South Sandwich Islands"
    },
    {
      "lat": -54.27967515458915,
      "lon": -36.526656981885715,
      "geoinfo": {
        "display_name": "Hodges Bowl, King Edward Point, South Georgia, SIQQ 1ZZ, South Georgia and the South Sandwich Islands",
        "road": null,
        "house_number": null,
        "neighbourhood": null,
        "suburb": null,
        "city_district": null,
        "city": "King Edward Point",
        "state": "South Georgia",
        "postcode": "SIQQ 1ZZ",
        "country": "South Georgia and the South Sandwich Islands",
        "country_code": "gs"
      },
      "address": "784, Grytviken, SIQQ 1ZZ South Georgia, South Georgia and the South Sandwich Islands"
    },
    {
      "lat": -54.24993572382192,
      "lon": -36.515936826025204,
      "geoinfo": {
        "display_name": "Maiviken, South Georgia, SIQQ 1ZZ, South Georgia and the South Sandwich Islands",
        "road": null,
        "house_number": null,
        "neighbourhood": null,
        "suburb": null,
        "city_district": null,
        "city": null,
        "state": "South Georgia",
        "postcode": "SIQQ 1ZZ",
        "country": "South Georgia and the South Sandwich Islands",
        "country_code": "gs"
      },
      "address": "571, Grytviken, SIQQ 1ZZ South Georgia, South Georgia and the South Sandwich Islands"
    },
    {
      "lat": -54.25457407277978,
      "lon": -36.5208012493367,
      "geoinfo": {
        "display_name": "Carr Valley, South Georgia, SIQQ 1ZZ, South Georgia and the South Sandwich Islands",
        "road": null,
        "house_number": null,
        "neighbourhood": null,
        "suburb": null,
        "city_district": null,
        "city": null,
        "state": "South Georgia",
        "postcode": "SIQQ 1ZZ",
        "country": "South Georgia and the South Sandwich Islands",
        "country_code": "gs"
      },
      "address": "003, Grytviken, SIQQ 1ZZ South Georgia, South Georgia and the South Sandwich Islands"
    },
    {
      "lat": -54.24907102602721,
      "lon": -36.45714678687921,
      "geoinfo": {
        "display_name": "Sappho Point, South Georgia, SIQQ 1ZZ, South Georgia and the South Sandwich Islands",
        "road": null,
        "house_number": null,
        "neighbourhood": null,
        "suburb": null,
        "city_district": null,
        "city": null,
        "state": "South Georgia",
        "postcode": "SIQQ 1ZZ",
        "country": "South Georgia and the South Sandwich Islands",
        "country_code": "gs"
      },
      "address": "429, Grytviken, SIQQ 1ZZ South Georgia, South Georgia and the South Sandwich Islands"
    },
    {
      "lat": -54.271144681020125,
      "lon": -36.55167398786828,
      "geoinfo": {
        "display_name": "South Georgia, South Georgia and the South Sandwich Islands",
        "road": null,
        "house_number": null,
        "neighbourhood": null,
        "suburb": null,
        "city_district": null,
        "city": null,
        "state": "South Georgia",
        "postcode": null,
        "country": "South Georgia and the South Sandwich Islands",
        "country_code": "gs"
      },
      "address": "516, Grytviken, 20549 South Georgia, South Georgia and the South Sandwich Islands"
    },
    {
      "lat": -54.27754719060782,
      "lon": -36.52450216023201,
      "geoinfo": {
        "display_name": "Hodges Bowl, King Edward Point, South Georgia, SIQQ 1ZZ, South Georgia and the South Sandwich Islands",
        "road": null,
        "house_number": null,
        "neighbourhood": null,
        "suburb": null,
        "city_district": null,
        "city": "King Edward Point",
        "state": "South Georgia",
        "postcode": "SIQQ 1ZZ",
        "country": "South Georgia and the South Sandwich Islands",
        "country_code": "gs"
      },
      "address": "963, Grytviken, SIQQ 1ZZ South Georgia, South Georgia and the South Sandwich Islands"
    },
    {
      "lat": -54.3122474322097,
      "lon": -36.4868435251912,
      "geoinfo": {
        "display_name": "Discovery Point, King Edward Point, South Georgia, SIQQ 1ZZ, South Georgia and the South Sandwich Islands",
        "road": null,
        "house_number": null,
        "neighbourhood": null,
        "suburb": null,
        "city_district": null,
        "city": "King Edward Point",
        "state": "South Georgia",
        "postcode": "SIQQ 1ZZ",
        "country": "South Georgia and the South Sandwich Islands",
        "country_code": "gs"
      },
      "address": "668, Grytviken, SIQQ 1ZZ South Georgia, South Georgia and the South Sandwich Islands"
    },
    {
      "lat": -54.25448852240176,
      "lon": -36.48711009961972,
      "geoinfo": {
        "display_name": "Puppy Lake, South Georgia, SIQQ 1ZZ, South Georgia and the South Sandwich Islands",
        "road": null,
        "house_number": null,
        "neighbourhood": null,
        "suburb": null,
        "city_district": null,
        "city": null,
        "state": "South Georgia",
        "postcode": "SIQQ 1ZZ",
        "country": "South Georgia and the South Sandwich Islands",
        "country_code": "gs"
      },
      "address": "844, Grytviken, SIQQ 1ZZ South Georgia, South Georgia and the South Sandwich Islands"
    },
    {
      "lat": -54.27901695619888,
      "lon": -36.50748921823393,
      "geoinfo": {
        "display_name": "Bakery, Trail Maiviken - Grytviken, Grytviken, South Georgia, SIQQ 1ZZ, South Georgia and the South Sandwich Islands",
        "road": "Trail Maiviken - Grytviken",
        "house_number": null,
        "neighbourhood": null,
        "suburb": null,
        "city_district": null,
        "city": "Grytviken",
        "state": "South Georgia",
        "postcode": "SIQQ 1ZZ",
        "country": "South Georgia and the South Sandwich Islands",
        "country_code": "gs"
      },
      "address": "243, Trail Maiviken - Grytviken, Grytviken, SIQQ 1ZZ South Georgia, South Georgia and the South Sandwich Islands"
    },
    {
      "lat": -54.28237859425516,
      "lon": -36.50666627886385,
      "geoinfo": {
        "display_name": "Floating Dock, Trail Maiviken - Grytviken, Grytviken, South Georgia, SIQQ 1ZZ, South Georgia and the South Sandwich Islands",
        "road": "Trail Maiviken - Grytviken",
        "house_number": null,
        "neighbourhood": null,
        "suburb": null,
        "city_district": null,
        "city": "Grytviken",
        "state": "South Georgia",
        "postcode": "SIQQ 1ZZ",
        "country": "South Georgia and the South Sandwich Islands",
        "country_code": "gs"
      },
      "address": "128, Trail Maiviken - Grytviken, Grytviken, SIQQ 1ZZ South Georgia, South Georgia and the South Sandwich Islands"
    },
    {
      "lat": -54.283205851050596,
      "lon": -36.509450505662315,
      "geoinfo": {
        "display_name": "Freezer Plant, Trail Maiviken - Grytviken, Grytviken, South Georgia, SIQQ 1ZZ, South Georgia and the South Sandwich Islands",
        "road": "Trail Maiviken - Grytviken",
        "house_number": null,
        "neighbourhood": null,
        "suburb": null,
        "city_district": null,
        "city": "Grytviken",
        "state": "South Georgia",
        "postcode": "SIQQ 1ZZ",
        "country": "South Georgia and the South Sandwich Islands",
        "country_code": "gs"
      },
      "address": "628, Trail Maiviken - Grytviken, Grytviken, SIQQ 1ZZ South Georgia, South Georgia and the South Sandwich Islands"
    },
    {
      "lat": -54.28082427489611,
      "lon": -36.507703328873596,
      "geoinfo": {
        "display_name": "Flensing Plan, Trail Maiviken - Grytviken, Grytviken, South Georgia, SIQQ 1ZZ, South Georgia and the South Sandwich Islands",
        "road": "Trail Maiviken - Grytviken",
        "house_number": null,
        "neighbourhood": null,
        "suburb": null,
        "city_district": null,
        "city": "Grytviken",
        "state": "South Georgia",
        "postcode": "SIQQ 1ZZ",
        "country": "South Georgia and the South Sandwich Islands",
        "country_code": "gs"
      },
      "address": "553, Trail Maiviken - Grytviken, Grytviken, SIQQ 1ZZ South Georgia, South Georgia and the South Sandwich Islands"
    },
    {
      "lat": -54.2832247436029,
      "lon": -36.50675941762522,
      "geoinfo": {
        "display_name": "Louise, Trail Maiviken - Grytviken, Grytviken, South Georgia, SIQQ 1ZZ, South Georgia and the South Sandwich Islands",
        "road": "Trail Maiviken - Grytviken",
        "house_number": null,
        "neighbourhood": null,
        "suburb": null,
        "city_district": null,
        "city": "Grytviken",
        "state": "South Georgia",
        "postcode": "SIQQ 1ZZ",
        "country": "South Georgia and the South Sandwich Islands",
        "country_code": "gs"
      },
      "address": "462, Trail Maiviken - Grytviken, Grytviken, SIQQ 1ZZ South Georgia, South Georgia and the South Sandwich Islands"
    },
    {
      "lat": -54.282175794866326,
      "lon": -36.513434015003384,
      "geoinfo": {
        "display_name": "Trail Maiviken - Grytviken, Grytviken, South Georgia, SIQQ 1ZZ, South Georgia and the South Sandwich Islands",
        "road": "Trail Maiviken - Grytviken",
        "house_number": null,
        "neighbourhood": null,
        "suburb": null,
        "city_district": null,
        "city": "Grytviken",
        "state": "South Georgia",
        "postcode": "SIQQ 1ZZ",
        "country": "South Georgia and the South Sandwich Islands",
        "country_code": "gs"
      },
      "address": "126, Trail Maiviken - Grytviken, Grytviken, South Georgia, SIQQ 1ZZ, South Georgia and the South Sandwich Islands"
    },
    {
      "lat": -54.28171597810477,
      "lon": -36.510948848515255,
      "geoinfo": {
        "display_name": "Trail Maiviken - Grytviken, Grytviken, South Georgia, SIQQ 1ZZ, South Georgia and the South Sandwich Islands",
        "road": "Trail Maiviken - Grytviken",
        "house_number": null,
        "neighbourhood": null,
        "suburb": null,
        "city_district": null,
        "city": "Grytviken",
        "state": "South Georgia",
        "postcode": "SIQQ 1ZZ",
        "country": "South Georgia and the South Sandwich Islands",
        "country_code": "gs"
      },
      "address": "665, Trail Maiviken - Grytviken, Grytviken, South Georgia, SIQQ 1ZZ, South Georgia and the South Sandwich Islands"
    },
    {
      "lat": -54.28319475796649,
      "lon": -36.5069019708241,
      "geoinfo": {
        "display_name": "Louise, Trail Maiviken - Grytviken, Grytviken, South Georgia, SIQQ 1ZZ, South Georgia and the South Sandwich Islands",
        "road": "Trail Maiviken - Grytviken",
        "house_number": null,
        "neighbourhood": null,
        "suburb": null,
        "city_district": null,
        "city": "Grytviken",
        "state": "South Georgia",
        "postcode": "SIQQ 1ZZ",
        "country": "South Georgia and the South Sandwich Islands",
        "country_code": "gs"
      },
      "address": "404, Trail Maiviken - Grytviken, Grytviken, SIQQ 1ZZ South Georgia, South Georgia and the South Sandwich Islands"
    },
    {
      "lat": -54.28190184519805,
      "lon": -36.50679819166208,
      "geoinfo": {
        "display_name": "Floating Dock, Trail Maiviken - Grytviken, Grytviken, South Georgia, SIQQ 1ZZ, South Georgia and the South Sandwich Islands",
        "road": "Trail Maiviken - Grytviken",
        "house_number": null,
        "neighbourhood": null,
        "suburb": null,
        "city_district": null,
        "city": "Grytviken",
        "state": "South Georgia",
        "postcode": "SIQQ 1ZZ",
        "country": "South Georgia and the South Sandwich Islands",
        "country_code": "gs"
      },
      "address": "041, Trail Maiviken - Grytviken, Grytviken, SIQQ 1ZZ South Georgia, South Georgia and the South Sandwich Islands"
    },
    {
      "lat": -54.279938000668125,
      "lon": -36.507675885449814,
      "geoinfo": {
        "display_name": "South Georgia Museum, Trail Maiviken - Grytviken, Grytviken, South Georgia, SIQQ 1ZZ, South Georgia and the South Sandwich Islands",
        "road": "Trail Maiviken - Grytviken",
        "house_number": null,
        "neighbourhood": null,
        "suburb": null,
        "city_district": null,
        "city": "Grytviken",
        "state": "South Georgia",
        "postcode": "SIQQ 1ZZ",
        "country": "South Georgia and the South Sandwich Islands",
        "country_code": "gs"
      },
      "address": "906, Trail Maiviken - Grytviken, Grytviken, SIQQ 1ZZ South Georgia, South Georgia and the South Sandwich Islands"
    },
    {
      "lat": -54.28098553179193,
      "lon": -36.5122757044663,
      "geoinfo": {
        "display_name": "Trail Maiviken - Grytviken, Grytviken, South Georgia, SIQQ 1ZZ, South Georgia and the South Sandwich Islands",
        "road": "Trail Maiviken - Grytviken",
        "house_number": null,
        "neighbourhood": null,
        "suburb": null,
        "city_district": null,
        "city": "Grytviken",
        "state": "South Georgia",
        "postcode": "SIQQ 1ZZ",
        "country": "South Georgia and the South Sandwich Islands",
        "country_code": "gs"
      },
      "address": "538, Trail Maiviken - Grytviken, Grytviken, South Georgia, SIQQ 1ZZ, South Georgia and the South Sandwich Islands"
    },
    {
      "lat": -54.27864436586062,
      "lon": -36.50818564346462,
      "geoinfo": {
        "display_name": "Trail Maiviken - Grytviken, Grytviken, South Georgia, SIQQ 1ZZ, South Georgia and the South Sandwich Islands",
        "road": "Trail Maiviken - Grytviken",
        "house_number": null,
        "neighbourhood": null,
        "suburb": null,
        "city_district": null,
        "city": "Grytviken",
        "state": "South Georgia",
        "postcode": "SIQQ 1ZZ",
        "country": "South Georgia and the South Sandwich Islands",
        "country_code": "gs"
      },
      "address": "546, Trail Maiviken - Grytviken, Grytviken, South Georgia, SIQQ 1ZZ, South Georgia and the South Sandwich Islands"
    },
    {
      "lat": -54.27948557481543,
      "lon": -36.50708739141657,
      "geoinfo": {
        "display_name": "Cold Store, Trail Maiviken - Grytviken, Grytviken, South Georgia, SIQQ 1ZZ, South Georgia and the South Sandwich Islands",
        "road": "Trail Maiviken - Grytviken",
        "house_number": null,
        "neighbourhood": null,
        "suburb": null,
        "city_district": null,
        "city": "Grytviken",
        "state": "South Georgia",
        "postcode": "SIQQ 1ZZ",
        "country": "South Georgia and the South Sandwich Islands",
        "country_code": "gs"
      },
      "address": "382, Trail Maiviken - Grytviken, Grytviken, SIQQ 1ZZ South Georgia, South Georgia and the South Sandwich Islands"
    },
    {
      "lat": -54.27929413917634,
      "lon": -36.50801122943896,
      "geoinfo": {
        "display_name": "South Georgia Post Office, Trail Maiviken - Grytviken, Grytviken, South Georgia, SIQQ 1ZZ, South Georgia and the South Sandwich Islands",
        "road": "Trail Maiviken - Grytviken",
        "house_number": null,
        "neighbourhood": null,
        "suburb": null,
        "city_district": null,
        "city": "Grytviken",
        "state": "South Georgia",
        "postcode": "SIQQ 1ZZ",
        "country": "South Georgia and the South Sandwich Islands",
        "country_code": "gs"
      },
      "address": "691, Trail Maiviken - Grytviken, Grytviken, SIQQ 1ZZ South Georgia, South Georgia and the South Sandwich Islands"
    },
    {
      "lat": -54.27980534660753,
      "lon": -36.512239758911534,
      "geoinfo": {
        "display_name": "Trail Maiviken - Grytviken, Grytviken, South Georgia, SIQQ 1ZZ, South Georgia and the South Sandwich Islands",
        "road": "Trail Maiviken - Grytviken",
        "house_number": null,
        "neighbourhood": null,
        "suburb": null,
        "city_district": null,
        "city": "Grytviken",
        "state": "South Georgia",
        "postcode": "SIQQ 1ZZ",
        "country": "South Georgia and the South Sandwich Islands",
        "country_code": "gs"
      },
      "address": "374, Trail Maiviken - Grytviken, Grytviken, South Georgia, SIQQ 1ZZ, South Georgia and the South Sandwich Islands"
    },
    {
      "lat": -54.278849468223164,
      "lon": -36.51091252242517,
      "geoinfo": {
        "display_name": "Trail Maiviken - Grytviken, Grytviken, South Georgia, SIQQ 1ZZ, South Georgia and the South Sandwich Islands",
        "road": "Trail Maiviken - Grytviken",
        "house_number": null,
        "neighbourhood": null,
        "suburb": null,
        "city_district": null,
        "city": "Grytviken",
        "state": "South Georgia",
        "postcode": "SIQQ 1ZZ",
        "country": "South Georgia and the South Sandwich Islands",
        "country_code": "gs"
      },
      "address": "986, Trail Maiviken - Grytviken, Grytviken, South Georgia, SIQQ 1ZZ, South Georgia and the South Sandwich Islands"
    },
    {
      "lat": -54.27878032243695,
      "lon": -36.509863017945094,
      "geoinfo": {
        "display_name": "Ski Jump, Trail Maiviken - Grytviken, Grytviken, South Georgia, SIQQ 1ZZ, South Georgia and the South Sandwich Islands",
        "road": "Trail Maiviken - Grytviken",
        "house_number": null,
        "neighbourhood": null,
        "suburb": null,
        "city_district": null,
        "city": "Grytviken",
        "state": "South Georgia",
        "postcode": "SIQQ 1ZZ",
        "country": "South Georgia and the South Sandwich Islands",
        "country_code": "gs"
      },
      "address": "941, Trail Maiviken - Grytviken, Grytviken, SIQQ 1ZZ South Georgia, South Georgia and the South Sandwich Islands"
    },
    {
      "lat": -54.28076541724627,
      "lon": -36.50725706483402,
      "geoinfo": {
        "display_name": "Meat Extract Plant, Trail Maiviken - Grytviken, Grytviken, South Georgia, SIQQ 1ZZ, South Georgia and the South Sandwich Islands",
        "road": "Trail Maiviken - Grytviken",
        "house_number": null,
        "neighbourhood": null,
        "suburb": null,
        "city_district": null,
        "city": "Grytviken",
        "state": "South Georgia",
        "postcode": "SIQQ 1ZZ",
        "country": "South Georgia and the South Sandwich Islands",
        "country_code": "gs"
      },
      "address": "429, Trail Maiviken - Grytviken, Grytviken, SIQQ 1ZZ South Georgia, South Georgia and the South Sandwich Islands"
    },
    {
      "lat": -54.281395075137596,
      "lon": -36.513198330985915,
      "geoinfo": {
        "display_name": "Trail Maiviken - Grytviken, Grytviken, South Georgia, SIQQ 1ZZ, South Georgia and the South Sandwich Islands",
        "road": "Trail Maiviken - Grytviken",
        "house_number": null,
        "neighbourhood": null,
        "suburb": null,
        "city_district": null,
        "city": "Grytviken",
        "state": "South Georgia",
        "postcode": "SIQQ 1ZZ",
        "country": "South Georgia and the South Sandwich Islands",
        "country_code": "gs"
      },
      "address": "792, Trail Maiviken - Grytviken, Grytviken, South Georgia, SIQQ 1ZZ, South Georgia and the South Sandwich Islands"
    },
    {
      "lat": -54.281751615837656,
      "lon": -36.51124702698944,
      "geoinfo": {
        "display_name": "Trail Maiviken - Grytviken, Grytviken, South Georgia, SIQQ 1ZZ, South Georgia and the South Sandwich Islands",
        "road": "Trail Maiviken - Grytviken",
        "house_number": null,
        "neighbourhood": null,
        "suburb": null,
        "city_district": null,
        "city": "Grytviken",
        "state": "South Georgia",
        "postcode": "SIQQ 1ZZ",
        "country": "South Georgia and the South Sandwich Islands",
        "country_code": "gs"
      },
      "address": "906, Trail Maiviken - Grytviken, Grytviken, South Georgia, SIQQ 1ZZ, South Georgia and the South Sandwich Islands"
    },
    {
      "lat": -54.28189034875751,
      "lon": -36.51229679020024,
      "geoinfo": {
        "display_name": "Trail Maiviken - Grytviken, Grytviken, South Georgia, SIQQ 1ZZ, South Georgia and the South Sandwich Islands",
        "road": "Trail Maiviken - Grytviken",
        "house_number": null,
        "neighbourhood": null,
        "suburb": null,
        "city_district": null,
        "city": "Grytviken",
        "state": "South Georgia",
        "postcode": "SIQQ 1ZZ",
        "country": "South Georgia and the South Sandwich Islands",
        "country_code": "gs"
      },
      "address": "417, Trail Maiviken - Grytviken, Grytviken, South Georgia, SIQQ 1ZZ, South Georgia and the South Sandwich Islands"
    },
    {
      "lat": -54.283224500662115,
      "lon": -36.50707439815838,
      "geoinfo": {
        "display_name": "Louise, Trail Maiviken - Grytviken, Grytviken, South Georgia, SIQQ 1ZZ, South Georgia and the South Sandwich Islands",
        "road": "Trail Maiviken - Grytviken",
        "house_number": null,
        "neighbourhood": null,
        "suburb": null,
        "city_district": null,
        "city": "Grytviken",
        "state": "South Georgia",
        "postcode": "SIQQ 1ZZ",
        "country": "South Georgia and the South Sandwich Islands",
        "country_code": "gs"
      },
      "address": "879, Trail Maiviken - Grytviken, Grytviken, SIQQ 1ZZ South Georgia, South Georgia and the South Sandwich Islands"
    },
    {
      "lat": -54.280810924600154,
      "lon": -36.50957285054095,
      "geoinfo": {
        "display_name": "Barracks, Trail Maiviken - Grytviken, Grytviken, South Georgia, SIQQ 1ZZ, South Georgia and the South Sandwich Islands",
        "road": "Trail Maiviken - Grytviken",
        "house_number": null,
        "neighbourhood": null,
        "suburb": null,
        "city_district": null,
        "city": "Grytviken",
        "state": "South Georgia",
        "postcode": "SIQQ 1ZZ",
        "country": "South Georgia and the South Sandwich Islands",
        "country_code": "gs"
      },
      "address": "277, Trail Maiviken - Grytviken, Grytviken, SIQQ 1ZZ South Georgia, South Georgia and the South Sandwich Islands"
    },
    {
      "lat": -54.27947246019265,
      "lon": -36.506269535302714,
      "geoinfo": {
        "display_name": "Dias, Trail Maiviken - Grytviken, Grytviken, South Georgia, SIQQ 1ZZ, South Georgia and the South Sandwich Islands",
        "road": "Trail Maiviken - Grytviken",
        "house_number": null,
        "neighbourhood": null,
        "suburb": null,
        "city_district": null,
        "city": "Grytviken",
        "state": "South Georgia",
        "postcode": "SIQQ 1ZZ",
        "country": "South Georgia and the South Sandwich Islands",
        "country_code": "gs"
      },
      "address": "230, Trail Maiviken - Grytviken, Grytviken, SIQQ 1ZZ South Georgia, South Georgia and the South Sandwich Islands"
    },
    {
      "lat": -54.27953763752476,
      "lon": -36.509389706783175,
      "geoinfo": {
        "display_name": "Riverside Barracks, Trail Maiviken - Grytviken, Grytviken, South Georgia, SIQQ 1ZZ, South Georgia and the South Sandwich Islands",
        "road": "Trail Maiviken - Grytviken",
        "house_number": null,
        "neighbourhood": null,
        "suburb": null,
        "city_district": null,
        "city": "Grytviken",
        "state": "South Georgia",
        "postcode": "SIQQ 1ZZ",
        "country": "South Georgia and the South Sandwich Islands",
        "country_code": "gs"
      },
      "address": "845, Trail Maiviken - Grytviken, Grytviken, SIQQ 1ZZ South Georgia, South Georgia and the South Sandwich Islands"
    },
    {
      "lat": -54.28101978903722,
      "lon": -36.50648958206302,
      "geoinfo": {
        "display_name": "Harpon Jetty, Trail Maiviken - Grytviken, Grytviken, South Georgia, SIQQ 1ZZ, South Georgia and the South Sandwich Islands",
        "road": "Trail Maiviken - Grytviken",
        "house_number": null,
        "neighbourhood": null,
        "suburb": null,
        "city_district": null,
        "city": "Grytviken",
        "state": "South Georgia",
        "postcode": "SIQQ 1ZZ",
        "country": "South Georgia and the South Sandwich Islands",
        "country_code": "gs"
      },
      "address": "556, Trail Maiviken - Grytviken, Grytviken, SIQQ 1ZZ South Georgia, South Georgia and the South Sandwich Islands"
    },
    {
      "lat": -54.28011032900144,
      "lon": -36.50883007763304,
      "geoinfo": {
        "display_name": "Separator and Power plant, Trail Maiviken - Grytviken, Grytviken, South Georgia, SIQQ 1ZZ, South Georgia and the South Sandwich Islands",
        "road": "Trail Maiviken - Grytviken",
        "house_number": null,
        "neighbourhood": null,
        "suburb": null,
        "city_district": null,
        "city": "Grytviken",
        "state": "South Georgia",
        "postcode": "SIQQ 1ZZ",
        "country": "South Georgia and the South Sandwich Islands",
        "country_code": "gs"
      },
      "address": "324, Trail Maiviken - Grytviken, Grytviken, SIQQ 1ZZ South Georgia, South Georgia and the South Sandwich Islands"
    },
    {
      "lat": -54.28148139925822,
      "lon": -36.51100844083183,
      "geoinfo": {
        "display_name": "Trail Maiviken - Grytviken, Grytviken, South Georgia, SIQQ 1ZZ, South Georgia and the South Sandwich Islands",
        "road": "Trail Maiviken - Grytviken",
        "house_number": null,
        "neighbourhood": null,
        "suburb": null,
        "city_district": null,
        "city": "Grytviken",
        "state": "South Georgia",
        "postcode": "SIQQ 1ZZ",
        "country": "South Georgia and the South Sandwich Islands",
        "country_code": "gs"
      },
      "address": "483, Trail Maiviken - Grytviken, Grytviken, South Georgia, SIQQ 1ZZ, South Georgia and the South Sandwich Islands"
    },
    {
      "lat": -54.27972669757332,
      "lon": -36.50554717251321,
      "geoinfo": {
        "display_name": "Dias, Trail Maiviken - Grytviken, Grytviken, South Georgia, SIQQ 1ZZ, South Georgia and the South Sandwich Islands",
        "road": "Trail Maiviken - Grytviken",
        "house_number": null,
        "neighbourhood": null,
        "suburb": null,
        "city_district": null,
        "city": "Grytviken",
        "state": "South Georgia",
        "postcode": "SIQQ 1ZZ",
        "country": "South Georgia and the South Sandwich Islands",
        "country_code": "gs"
      },
      "address": "477, Trail Maiviken - Grytviken, Grytviken, SIQQ 1ZZ South Georgia, South Georgia and the South Sandwich Islands"
    },
    {
      "lat": -54.27941174523124,
      "lon": -36.51182286324924,
      "geoinfo": {
        "display_name": "Trail Maiviken - Grytviken, Grytviken, South Georgia, SIQQ 1ZZ, South Georgia and the South Sandwich Islands",
        "road": "Trail Maiviken - Grytviken",
        "house_number": null,
        "neighbourhood": null,
        "suburb": null,
        "city_district": null,
        "city": "Grytviken",
        "state": "South Georgia",
        "postcode": "SIQQ 1ZZ",
        "country": "South Georgia and the South Sandwich Islands",
        "country_code": "gs"
      },
      "address": "856, Trail Maiviken - Grytviken, Grytviken, South Georgia, SIQQ 1ZZ, South Georgia and the South Sandwich Islands"
    },
    {
      "lat": -54.28074421284784,
      "lon": -36.50927697746271,
      "geoinfo": {
        "display_name": "Solubles Plant, Trail Maiviken - Grytviken, Grytviken, South Georgia, SIQQ 1ZZ, South Georgia and the South Sandwich Islands",
        "road": "Trail Maiviken - Grytviken",
        "house_number": null,
        "neighbourhood": null,
        "suburb": null,
        "city_district": null,
        "city": "Grytviken",
        "state": "South Georgia",
        "postcode": "SIQQ 1ZZ",
        "country": "South Georgia and the South Sandwich Islands",
        "country_code": "gs"
      },
      "address": "367, Trail Maiviken - Grytviken, Grytviken, SIQQ 1ZZ South Georgia, South Georgia and the South Sandwich Islands"
    },
    {
      "lat": -54.279317418856294,
      "lon": -36.50766258208772,
      "geoinfo": {
        "display_name": "South Georgia Museum, Trail Maiviken - Grytviken, Grytviken, South Georgia, SIQQ 1ZZ, South Georgia and the South Sandwich Islands",
        "road": "Trail Maiviken - Grytviken",
        "house_number": null,
        "neighbourhood": null,
        "suburb": null,
        "city_district": null,
        "city": "Grytviken",
        "state": "South Georgia",
        "postcode": "SIQQ 1ZZ",
        "country": "South Georgia and the South Sandwich Islands",
        "country_code": "gs"
      },
      "address": "509, Trail Maiviken - Grytviken, Grytviken, SIQQ 1ZZ South Georgia, South Georgia and the South Sandwich Islands"
    },
    {
      "lat": -54.283161853334214,
      "lon": -36.51157614902518,
      "geoinfo": {
        "display_name": "Freezer Plant, Trail Maiviken - Grytviken, Grytviken, South Georgia, SIQQ 1ZZ, South Georgia and the South Sandwich Islands",
        "road": "Trail Maiviken - Grytviken",
        "house_number": null,
        "neighbourhood": null,
        "suburb": null,
        "city_district": null,
        "city": "Grytviken",
        "state": "South Georgia",
        "postcode": "SIQQ 1ZZ",
        "country": "South Georgia and the South Sandwich Islands",
        "country_code": "gs"
      },
      "address": "566, Trail Maiviken - Grytviken, Grytviken, SIQQ 1ZZ South Georgia, South Georgia and the South Sandwich Islands"
    },
    {
      "lat": -54.28020247602433,
      "lon": -36.50916668579967,
      "geoinfo": {
        "display_name": "Russebrakka, Trail Maiviken - Grytviken, Grytviken, South Georgia, SIQQ 1ZZ, South Georgia and the South Sandwich Islands",
        "road": "Trail Maiviken - Grytviken",
        "house_number": null,
        "neighbourhood": null,
        "suburb": null,
        "city_district": null,
        "city": "Grytviken",
        "state": "South Georgia",
        "postcode": "SIQQ 1ZZ",
        "country": "South Georgia and the South Sandwich Islands",
        "country_code": "gs"
      },
      "address": "927, Trail Maiviken - Grytviken, Grytviken, SIQQ 1ZZ South Georgia, South Georgia and the South Sandwich Islands"
    },
    {
      "lat": -54.28069982637846,
      "lon": -36.50561947490982,
      "geoinfo": {
        "display_name": "Harpon Jetty, Trail Maiviken - Grytviken, Grytviken, South Georgia, SIQQ 1ZZ, South Georgia and the South Sandwich Islands",
        "road": "Trail Maiviken - Grytviken",
        "house_number": null,
        "neighbourhood": null,
        "suburb": null,
        "city_district": null,
        "city": "Grytviken",
        "state": "South Georgia",
        "postcode": "SIQQ 1ZZ",
        "country": "South Georgia and the South Sandwich Islands",
        "country_code": "gs"
      },
      "address": "188, Trail Maiviken - Grytviken, Grytviken, SIQQ 1ZZ South Georgia, South Georgia and the South Sandwich Islands"
    },
    {
      "lat": -54.28216937750955,
      "lon": -36.50561777713633,
      "geoinfo": {
        "display_name": "Harpon Jetty, Trail Maiviken - Grytviken, Grytviken, South Georgia, SIQQ 1ZZ, South Georgia and the South Sandwich Islands",
        "road": "Trail Maiviken - Grytviken",
        "house_number": null,
        "neighbourhood": null,
        "suburb": null,
        "city_district": null,
        "city": "Grytviken",
        "state": "South Georgia",
        "postcode": "SIQQ 1ZZ",
        "country": "South Georgia and the South Sandwich Islands",
        "country_code": "gs"
      },
      "address": "009, Trail Maiviken - Grytviken, Grytviken, SIQQ 1ZZ South Georgia, South Georgia and the South Sandwich Islands"
    },
    {
      "lat": -54.28014037967882,
      "lon": -36.505611055933095,
      "geoinfo": {
        "display_name": "Dias, Trail Maiviken - Grytviken, Grytviken, South Georgia, SIQQ 1ZZ, South Georgia and the South Sandwich Islands",
        "road": "Trail Maiviken - Grytviken",
        "house_number": null,
        "neighbourhood": null,
        "suburb": null,
        "city_district": null,
        "city": "Grytviken",
        "state": "South Georgia",
        "postcode": "SIQQ 1ZZ",
        "country": "South Georgia and the South Sandwich Islands",
        "country_code": "gs"
      },
      "address": "528, Trail Maiviken - Grytviken, Grytviken, SIQQ 1ZZ South Georgia, South Georgia and the South Sandwich Islands"
    },
    {
      "lat": -54.281774663225164,
      "lon": -36.512765686545876,
      "geoinfo": {
        "display_name": "Trail Maiviken - Grytviken, Grytviken, South Georgia, SIQQ 1ZZ, South Georgia and the South Sandwich Islands",
        "road": "Trail Maiviken - Grytviken",
        "house_number": null,
        "neighbourhood": null,
        "suburb": null,
        "city_district": null,
        "city": "Grytviken",
        "state": "South Georgia",
        "postcode": "SIQQ 1ZZ",
        "country": "South Georgia and the South Sandwich Islands",
        "country_code": "gs"
      },
      "address": "857, Trail Maiviken - Grytviken, Grytviken, South Georgia, SIQQ 1ZZ, South Georgia and the South Sandwich Islands"
    },
    {
      "lat": -54.283288927156626,
      "lon": -36.50742775553846,
      "geoinfo": {
        "display_name": "Louise, Trail Maiviken - Grytviken, Grytviken, South Georgia, SIQQ 1ZZ, South Georgia and the South Sandwich Islands",
        "road": "Trail Maiviken - Grytviken",
        "house_number": null,
        "neighbourhood": null,
        "suburb": null,
        "city_district": null,
        "city": "Grytviken",
        "state": "South Georgia",
        "postcode": "SIQQ 1ZZ",
        "country": "South Georgia and the South Sandwich Islands",
        "country_code": "gs"
      },
      "address": "005, Trail Maiviken - Grytviken, Grytviken, SIQQ 1ZZ South Georgia, South Georgia and the South Sandwich Islands"
    },
    {
      "lat": -54.2803776030073,
      "lon": -36.50805502031667,
      "geoinfo": {
        "display_name": "Separator and Power plant, Trail Maiviken - Grytviken, Grytviken, South Georgia, SIQQ 1ZZ, South Georgia and the South Sandwich Islands",
        "road": "Trail Maiviken - Grytviken",
        "house_number": null,
        "neighbourhood": null,
        "suburb": null,
        "city_district": null,
        "city": "Grytviken",
        "state": "South Georgia",
        "postcode": "SIQQ 1ZZ",
        "country": "South Georgia and the South Sandwich Islands",
        "country_code": "gs"
      },
      "address": "202, Trail Maiviken - Grytviken, Grytviken, SIQQ 1ZZ South Georgia, South Georgia and the South Sandwich Islands"
    },
    {
      "lat": -54.27862814788579,
      "lon": -36.510659313846865,
      "geoinfo": {
        "display_name": "Trail Maiviken - Grytviken, Grytviken, South Georgia, SIQQ 1ZZ, South Georgia and the South Sandwich Islands",
        "road": "Trail Maiviken - Grytviken",
        "house_number": null,
        "neighbourhood": null,
        "suburb": null,
        "city_district": null,
        "city": "Grytviken",
        "state": "South Georgia",
        "postcode": "SIQQ 1ZZ",
        "country": "South Georgia and the South Sandwich Islands",
        "country_code": "gs"
      },
      "address": "147, Trail Maiviken - Grytviken, Grytviken, South Georgia, SIQQ 1ZZ, South Georgia and the South Sandwich Islands"
    },
    {
      "lat": -54.28163596344484,
      "lon": -36.51285189586446,
      "geoinfo": {
        "display_name": "Trail Maiviken - Grytviken, Grytviken, South Georgia, SIQQ 1ZZ, South Georgia and the South Sandwich Islands",
        "road": "Trail Maiviken - Grytviken",
        "house_number": null,
        "neighbourhood": null,
        "suburb": null,
        "city_district": null,
        "city": "Grytviken",
        "state": "South Georgia",
        "postcode": "SIQQ 1ZZ",
        "country": "South Georgia and the South Sandwich Islands",
        "country_code": "gs"
      },
      "address": "200, Trail Maiviken - Grytviken, Grytviken, South Georgia, SIQQ 1ZZ, South Georgia and the South Sandwich Islands"
    },
    {
      "lat": -54.280496235952924,
      "lon": -36.507440781828215,
      "geoinfo": {
        "display_name": "Boiler House, Trail Maiviken - Grytviken, Grytviken, South Georgia, SIQQ 1ZZ, South Georgia and the South Sandwich Islands",
        "road": "Trail Maiviken - Grytviken",
        "house_number": null,
        "neighbourhood": null,
        "suburb": null,
        "city_district": null,
        "city": "Grytviken",
        "state": "South Georgia",
        "postcode": "SIQQ 1ZZ",
        "country": "South Georgia and the South Sandwich Islands",
        "country_code": "gs"
      },
      "address": "091, Trail Maiviken - Grytviken, Grytviken, SIQQ 1ZZ South Georgia, South Georgia and the South Sandwich Islands"
    },
    {
      "lat": -54.278915642324066,
      "lon": -36.5067545663541,
      "geoinfo": {
        "display_name": "Cold Store, Trail Maiviken - Grytviken, Grytviken, South Georgia, SIQQ 1ZZ, South Georgia and the South Sandwich Islands",
        "road": "Trail Maiviken - Grytviken",
        "house_number": null,
        "neighbourhood": null,
        "suburb": null,
        "city_district": null,
        "city": "Grytviken",
        "state": "South Georgia",
        "postcode": "SIQQ 1ZZ",
        "country": "South Georgia and the South Sandwich Islands",
        "country_code": "gs"
      },
      "address": "079, Trail Maiviken - Grytviken, Grytviken, SIQQ 1ZZ South Georgia, South Georgia and the South Sandwich Islands"
    },
    {
      "lat": -54.282334348868304,
      "lon": -36.50802345041602,
      "geoinfo": {
        "display_name": "Floating Dock, Trail Maiviken - Grytviken, Grytviken, South Georgia, SIQQ 1ZZ, South Georgia and the South Sandwich Islands",
        "road": "Trail Maiviken - Grytviken",
        "house_number": null,
        "neighbourhood": null,
        "suburb": null,
        "city_district": null,
        "city": "Grytviken",
        "state": "South Georgia",
        "postcode": "SIQQ 1ZZ",
        "country": "South Georgia and the South Sandwich Islands",
        "country_code": "gs"
      },
      "address": "731, Trail Maiviken - Grytviken, Grytviken, SIQQ 1ZZ South Georgia, South Georgia and the South Sandwich Islands"
    },
    {
      "lat": -54.27985678416385,
      "lon": -36.511361128915404,
      "geoinfo": {
        "display_name": "Trail Maiviken - Grytviken, Grytviken, South Georgia, SIQQ 1ZZ, South Georgia and the South Sandwich Islands",
        "road": "Trail Maiviken - Grytviken",
        "house_number": null,
        "neighbourhood": null,
        "suburb": null,
        "city_district": null,
        "city": "Grytviken",
        "state": "South Georgia",
        "postcode": "SIQQ 1ZZ",
        "country": "South Georgia and the South Sandwich Islands",
        "country_code": "gs"
      },
      "address": "344, Trail Maiviken - Grytviken, Grytviken, South Georgia, SIQQ 1ZZ, South Georgia and the South Sandwich Islands"
    },
    {
      "lat": -54.27969526519641,
      "lon": -36.50589514081701,
      "geoinfo": {
        "display_name": "Dias, Trail Maiviken - Grytviken, Grytviken, South Georgia, SIQQ 1ZZ, South Georgia and the South Sandwich Islands",
        "road": "Trail Maiviken - Grytviken",
        "house_number": null,
        "neighbourhood": null,
        "suburb": null,
        "city_district": null,
        "city": "Grytviken",
        "state": "South Georgia",
        "postcode": "SIQQ 1ZZ",
        "country": "South Georgia and the South Sandwich Islands",
        "country_code": "gs"
      },
      "address": "085, Trail Maiviken - Grytviken, Grytviken, SIQQ 1ZZ South Georgia, South Georgia and the South Sandwich Islands"
    },
    {
      "lat": -54.27863113077649,
      "lon": -36.51084998947413,
      "geoinfo": {
        "display_name": "Trail Maiviken - Grytviken, Grytviken, South Georgia, SIQQ 1ZZ, South Georgia and the South Sandwich Islands",
        "road": "Trail Maiviken - Grytviken",
        "house_number": null,
        "neighbourhood": null,
        "suburb": null,
        "city_district": null,
        "city": "Grytviken",
        "state": "South Georgia",
        "postcode": "SIQQ 1ZZ",
        "country": "South Georgia and the South Sandwich Islands",
        "country_code": "gs"
      },
      "address": "149, Trail Maiviken - Grytviken, Grytviken, South Georgia, SIQQ 1ZZ, South Georgia and the South Sandwich Islands"
    },
    {
      "lat": -54.28243474024808,
      "lon": -36.50668505572377,
      "geoinfo": {
        "display_name": "Floating Dock, Trail Maiviken - Grytviken, Grytviken, South Georgia, SIQQ 1ZZ, South Georgia and the South Sandwich Islands",
        "road": "Trail Maiviken - Grytviken",
        "house_number": null,
        "neighbourhood": null,
        "suburb": null,
        "city_district": null,
        "city": "Grytviken",
        "state": "South Georgia",
        "postcode": "SIQQ 1ZZ",
        "country": "South Georgia and the South Sandwich Islands",
        "country_code": "gs"
      },
      "address": "425, Trail Maiviken - Grytviken, Grytviken, SIQQ 1ZZ South Georgia, South Georgia and the South Sandwich Islands"
    },
    {
      "lat": -54.28047591734314,
      "lon": -36.50917000112738,
      "geoinfo": {
        "display_name": "Russebrakka, Trail Maiviken - Grytviken, Grytviken, South Georgia, SIQQ 1ZZ, South Georgia and the South Sandwich Islands",
        "road": "Trail Maiviken - Grytviken",
        "house_number": null,
        "neighbourhood": null,
        "suburb": null,
        "city_district": null,
        "city": "Grytviken",
        "state": "South Georgia",
        "postcode": "SIQQ 1ZZ",
        "country": "South Georgia and the South Sandwich Islands",
        "country_code": "gs"
      },
      "address": "170, Trail Maiviken - Grytviken, Grytviken, SIQQ 1ZZ South Georgia, South Georgia and the South Sandwich Islands"
    },
    {
      "lat": -54.283613904183014,
      "lon": -36.510391187231356,
      "geoinfo": {
        "display_name": "Freezer Plant, Trail Maiviken - Grytviken, Grytviken, South Georgia, SIQQ 1ZZ, South Georgia and the South Sandwich Islands",
        "road": "Trail Maiviken - Grytviken",
        "house_number": null,
        "neighbourhood": null,
        "suburb": null,
        "city_district": null,
        "city": "Grytviken",
        "state": "South Georgia",
        "postcode": "SIQQ 1ZZ",
        "country": "South Georgia and the South Sandwich Islands",
        "country_code": "gs"
      },
      "address": "550, Trail Maiviken - Grytviken, Grytviken, SIQQ 1ZZ South Georgia, South Georgia and the South Sandwich Islands"
    },
    {
      "lat": -54.27902829811389,
      "lon": -36.511070048798324,
      "geoinfo": {
        "display_name": "Trail Maiviken - Grytviken, Grytviken, South Georgia, SIQQ 1ZZ, South Georgia and the South Sandwich Islands",
        "road": "Trail Maiviken - Grytviken",
        "house_number": null,
        "neighbourhood": null,
        "suburb": null,
        "city_district": null,
        "city": "Grytviken",
        "state": "South Georgia",
        "postcode": "SIQQ 1ZZ",
        "country": "South Georgia and the South Sandwich Islands",
        "country_code": "gs"
      },
      "address": "662, Trail Maiviken - Grytviken, Grytviken, South Georgia, SIQQ 1ZZ, South Georgia and the South Sandwich Islands"
    },
    {
      "lat": -54.28346740704198,
      "lon": -36.51136745481229,
      "geoinfo": {
        "display_name": "Freezer Plant, Trail Maiviken - Grytviken, Grytviken, South Georgia, SIQQ 1ZZ, South Georgia and the South Sandwich Islands",
        "road": "Trail Maiviken - Grytviken",
        "house_number": null,
        "neighbourhood": null,
        "suburb": null,
        "city_district": null,
        "city": "Grytviken",
        "state": "South Georgia",
        "postcode": "SIQQ 1ZZ",
        "country": "South Georgia and the South Sandwich Islands",
        "country_code": "gs"
      },
      "address": "017, Trail Maiviken - Grytviken, Grytviken, SIQQ 1ZZ South Georgia, South Georgia and the South Sandwich Islands"
    },
    {
      "lat": -54.27913900188846,
      "lon": -36.5101970769021,
      "geoinfo": {
        "display_name": "Ski Jump, Trail Maiviken - Grytviken, Grytviken, South Georgia, SIQQ 1ZZ, South Georgia and the South Sandwich Islands",
        "road": "Trail Maiviken - Grytviken",
        "house_number": null,
        "neighbourhood": null,
        "suburb": null,
        "city_district": null,
        "city": "Grytviken",
        "state": "South Georgia",
        "postcode": "SIQQ 1ZZ",
        "country": "South Georgia and the South Sandwich Islands",
        "country_code": "gs"
      },
      "address": "949, Trail Maiviken - Grytviken, Grytviken, SIQQ 1ZZ South Georgia, South Georgia and the South Sandwich Islands"
    },
    {
      "lat": -54.28234149585036,
      "lon": -36.50638036970633,
      "geoinfo": {
        "display_name": "Floating Dock, Trail Maiviken - Grytviken, Grytviken, South Georgia, SIQQ 1ZZ, South Georgia and the South Sandwich Islands",
        "road": "Trail Maiviken - Grytviken",
        "house_number": null,
        "neighbourhood": null,
        "suburb": null,
        "city_district": null,
        "city": "Grytviken",
        "state": "South Georgia",
        "postcode": "SIQQ 1ZZ",
        "country": "South Georgia and the South Sandwich Islands",
        "country_code": "gs"
      },
      "address": "590, Trail Maiviken - Grytviken, Grytviken, SIQQ 1ZZ South Georgia, South Georgia and the South Sandwich Islands"
    },
    {
      "lat": -54.27994477493889,
      "lon": -36.506787118708736,
      "geoinfo": {
        "display_name": "Cold Store, Trail Maiviken - Grytviken, Grytviken, South Georgia, SIQQ 1ZZ, South Georgia and the South Sandwich Islands",
        "road": "Trail Maiviken - Grytviken",
        "house_number": null,
        "neighbourhood": null,
        "suburb": null,
        "city_district": null,
        "city": "Grytviken",
        "state": "South Georgia",
        "postcode": "SIQQ 1ZZ",
        "country": "South Georgia and the South Sandwich Islands",
        "country_code": "gs"
      },
      "address": "974, Trail Maiviken - Grytviken, Grytviken, SIQQ 1ZZ South Georgia, South Georgia and the South Sandwich Islands"
    },
    {
      "lat": -54.282621163723725,
      "lon": -36.510665407391954,
      "geoinfo": {
        "display_name": "Freezer Plant, Trail Maiviken - Grytviken, Grytviken, South Georgia, SIQQ 1ZZ, South Georgia and the South Sandwich Islands",
        "road": "Trail Maiviken - Grytviken",
        "house_number": null,
        "neighbourhood": null,
        "suburb": null,
        "city_district": null,
        "city": "Grytviken",
        "state": "South Georgia",
        "postcode": "SIQQ 1ZZ",
        "country": "South Georgia and the South Sandwich Islands",
        "country_code": "gs"
      },
      "address": "572, Trail Maiviken - Grytviken, Grytviken, SIQQ 1ZZ South Georgia, South Georgia and the South Sandwich Islands"
    },
    {
      "lat": -54.282240326403354,
      "lon": -36.51289622028033,
      "geoinfo": {
        "display_name": "Trail Maiviken - Grytviken, Grytviken, South Georgia, SIQQ 1ZZ, South Georgia and the South Sandwich Islands",
        "road": "Trail Maiviken - Grytviken",
        "house_number": null,
        "neighbourhood": null,
        "suburb": null,
        "city_district": null,
        "city": "Grytviken",
        "state": "South Georgia",
        "postcode": "SIQQ 1ZZ",
        "country": "South Georgia and the South Sandwich Islands",
        "country_code": "gs"
      },
      "address": "775, Trail Maiviken - Grytviken, Grytviken, South Georgia, SIQQ 1ZZ, South Georgia and the South Sandwich Islands"
    },
    {
      "lat": -54.280139881878135,
      "lon": -36.505017282441585,
      "geoinfo": {
        "display_name": "Dias, Trail Maiviken - Grytviken, Grytviken, South Georgia, SIQQ 1ZZ, South Georgia and the South Sandwich Islands",
        "road": "Trail Maiviken - Grytviken",
        "house_number": null,
        "neighbourhood": null,
        "suburb": null,
        "city_district": null,
        "city": "Grytviken",
        "state": "South Georgia",
        "postcode": "SIQQ 1ZZ",
        "country": "South Georgia and the South Sandwich Islands",
        "country_code": "gs"
      },
      "address": "026, Trail Maiviken - Grytviken, Grytviken, SIQQ 1ZZ South Georgia, South Georgia and the South Sandwich Islands"
    },
    {
      "lat": -54.28289026201565,
      "lon": -36.51176107979999,
      "geoinfo": {
        "display_name": "Trail Maiviken - Grytviken, Grytviken, South Georgia, SIQQ 1ZZ, South Georgia and the South Sandwich Islands",
        "road": "Trail Maiviken - Grytviken",
        "house_number": null,
        "neighbourhood": null,
        "suburb": null,
        "city_district": null,
        "city": "Grytviken",
        "state": "South Georgia",
        "postcode": "SIQQ 1ZZ",
        "country": "South Georgia and the South Sandwich Islands",
        "country_code": "gs"
      },
      "address": "785, Trail Maiviken - Grytviken, Grytviken, South Georgia, SIQQ 1ZZ, South Georgia and the South Sandwich Islands"
    },
    {
      "lat": -54.27875580486517,
      "lon": -36.507115388539866,
      "geoinfo": {
        "display_name": "Cold Store, Trail Maiviken - Grytviken, Grytviken, South Georgia, SIQQ 1ZZ, South Georgia and the South Sandwich Islands",
        "road": "Trail Maiviken - Grytviken",
        "house_number": null,
        "neighbourhood": null,
        "suburb": null,
        "city_district": null,
        "city": "Grytviken",
        "state": "South Georgia",
        "postcode": "SIQQ 1ZZ",
        "country": "South Georgia and the South Sandwich Islands",
        "country_code": "gs"
      },
      "address": "760, Trail Maiviken - Grytviken, Grytviken, SIQQ 1ZZ South Georgia, South Georgia and the South Sandwich Islands"
    },
    {
      "lat": -54.28150533491892,
      "lon": -36.51209304105241,
      "geoinfo": {
        "display_name": "Trail Maiviken - Grytviken, Grytviken, South Georgia, SIQQ 1ZZ, South Georgia and the South Sandwich Islands",
        "road": "Trail Maiviken - Grytviken",
        "house_number": null,
        "neighbourhood": null,
        "suburb": null,
        "city_district": null,
        "city": "Grytviken",
        "state": "South Georgia",
        "postcode": "SIQQ 1ZZ",
        "country": "South Georgia and the South Sandwich Islands",
        "country_code": "gs"
      },
      "address": "651, Trail Maiviken - Grytviken, Grytviken, South Georgia, SIQQ 1ZZ, South Georgia and the South Sandwich Islands"
    },
    {
      "lat": -54.28100928028511,
      "lon": -36.511761881147876,
      "geoinfo": {
        "display_name": "Trail Maiviken - Grytviken, Grytviken, South Georgia, SIQQ 1ZZ, South Georgia and the South Sandwich Islands",
        "road": "Trail Maiviken - Grytviken",
        "house_number": null,
        "neighbourhood": null,
        "suburb": null,
        "city_district": null,
        "city": "Grytviken",
        "state": "South Georgia",
        "postcode": "SIQQ 1ZZ",
        "country": "South Georgia and the South Sandwich Islands",
        "country_code": "gs"
      },
      "address": "465, Trail Maiviken - Grytviken, Grytviken, South Georgia, SIQQ 1ZZ, South Georgia and the South Sandwich Islands"
    },
    {
      "lat": -54.278589722318884,
      "lon": -36.508695998320434,
      "geoinfo": {
        "display_name": "Trail Maiviken - Grytviken, Grytviken, South Georgia, SIQQ 1ZZ, South Georgia and the South Sandwich Islands",
        "road": "Trail Maiviken - Grytviken",
        "house_number": null,
        "neighbourhood": null,
        "suburb": null,
        "city_district": null,
        "city": "Grytviken",
        "state": "South Georgia",
        "postcode": "SIQQ 1ZZ",
        "country": "South Georgia and the South Sandwich Islands",
        "country_code": "gs"
      },
      "address": "639, Trail Maiviken - Grytviken, Grytviken, South Georgia, SIQQ 1ZZ, South Georgia and the South Sandwich Islands"
    },
    {
      "lat": -54.27869121904608,
      "lon": -36.5107198280494,
      "geoinfo": {
        "display_name": "Trail Maiviken - Grytviken, Grytviken, South Georgia, SIQQ 1ZZ, South Georgia and the South Sandwich Islands",
        "road": "Trail Maiviken - Grytviken",
        "house_number": null,
        "neighbourhood": null,
        "suburb": null,
        "city_district": null,
        "city": "Grytviken",
        "state": "South Georgia",
        "postcode": "SIQQ 1ZZ",
        "country": "South Georgia and the South Sandwich Islands",
        "country_code": "gs"
      },
      "address": "703, Trail Maiviken - Grytviken, Grytviken, SIQQ 1ZZ South Georgia, South Georgia and the South Sandwich Islands"
    },
    {
      "lat": -54.28093999515335,
      "lon": -36.51250788981777,
      "geoinfo": {
        "display_name": "Trail Maiviken - Grytviken, Grytviken, South Georgia, SIQQ 1ZZ, South Georgia and the South Sandwich Islands",
        "road": "Trail Maiviken - Grytviken",
        "house_number": null,
        "neighbourhood": null,
        "suburb": null,
        "city_district": null,
        "city": "Grytviken",
        "state": "South Georgia",
        "postcode": "SIQQ 1ZZ",
        "country": "South Georgia and the South Sandwich Islands",
        "country_code": "gs"
      },
      "address": "593, Trail Maiviken - Grytviken, Grytviken, South Georgia, SIQQ 1ZZ, South Georgia and the South Sandwich Islands"
    },
    {
      "lat": -54.28356728864321,
      "lon": -36.51033670136583,
      "geoinfo": {
        "display_name": "Freezer Plant, Trail Maiviken - Grytviken, Grytviken, South Georgia, SIQQ 1ZZ, South Georgia and the South Sandwich Islands",
        "road": "Trail Maiviken - Grytviken",
        "house_number": null,
        "neighbourhood": null,
        "suburb": null,
        "city_district": null,
        "city": "Grytviken",
        "state": "South Georgia",
        "postcode": "SIQQ 1ZZ",
        "country": "South Georgia and the South Sandwich Islands",
        "country_code": "gs"
      },
      "address": "832, Trail Maiviken - Grytviken, Grytviken, SIQQ 1ZZ South Georgia, South Georgia and the South Sandwich Islands"
    },
    {
      "lat": -54.281754338707934,
      "lon": -36.510324328893624,
      "geoinfo": {
        "display_name": "Trail Maiviken - Grytviken, Grytviken, South Georgia, SIQQ 1ZZ, South Georgia and the South Sandwich Islands",
        "road": "Trail Maiviken - Grytviken",
        "house_number": null,
        "neighbourhood": null,
        "suburb": null,
        "city_district": null,
        "city": "Grytviken",
        "state": "South Georgia",
        "postcode": "SIQQ 1ZZ",
        "country": "South Georgia and the South Sandwich Islands",
        "country_code": "gs"
      },
      "address": "944, Trail Maiviken - Grytviken, Grytviken, South Georgia, SIQQ 1ZZ, South Georgia and the South Sandwich Islands"
    },
    {
      "lat": -54.283321288703796,
      "lon": -36.51159477629593,
      "geoinfo": {
        "display_name": "Freezer Plant, Trail Maiviken - Grytviken, Grytviken, South Georgia, SIQQ 1ZZ, South Georgia and the South Sandwich Islands",
        "road": "Trail Maiviken - Grytviken",
        "house_number": null,
        "neighbourhood": null,
        "suburb": null,
        "city_district": null,
        "city": "Grytviken",
        "state": "South Georgia",
        "postcode": "SIQQ 1ZZ",
        "country": "South Georgia and the South Sandwich Islands",
        "country_code": "gs"
      },
      "address": "321, Trail Maiviken - Grytviken, Grytviken, SIQQ 1ZZ South Georgia, South Georgia and the South Sandwich Islands"
    },
    {
      "lat": -54.280972984259826,
      "lon": -36.507460766024074,
      "geoinfo": {
        "display_name": "Flensing Plan, Trail Maiviken - Grytviken, Grytviken, South Georgia, SIQQ 1ZZ, South Georgia and the South Sandwich Islands",
        "road": "Trail Maiviken - Grytviken",
        "house_number": null,
        "neighbourhood": null,
        "suburb": null,
        "city_district": null,
        "city": "Grytviken",
        "state": "South Georgia",
        "postcode": "SIQQ 1ZZ",
        "country": "South Georgia and the South Sandwich Islands",
        "country_code": "gs"
      },
      "address": "032, Trail Maiviken - Grytviken, Grytviken, SIQQ 1ZZ South Georgia, South Georgia and the South Sandwich Islands"
    },
    {
      "lat": -54.28201006620255,
      "lon": -36.50833888352351,
      "geoinfo": {
        "display_name": "Petrel, Trail Maiviken - Grytviken, Grytviken, South Georgia, SIQQ 1ZZ, South Georgia and the South Sandwich Islands",
        "road": "Trail Maiviken - Grytviken",
        "house_number": null,
        "neighbourhood": null,
        "suburb": null,
        "city_district": null,
        "city": "Grytviken",
        "state": "South Georgia",
        "postcode": "SIQQ 1ZZ",
        "country": "South Georgia and the South Sandwich Islands",
        "country_code": "gs"
      },
      "address": "460, Trail Maiviken - Grytviken, Grytviken, SIQQ 1ZZ South Georgia, South Georgia and the South Sandwich Islands"
    },
    {
      "lat": -54.28115592140397,
      "lon": -36.51349905783232,
      "geoinfo": {
        "display_name": "Trail Maiviken - Grytviken, Grytviken, South Georgia, SIQQ 1ZZ, South Georgia and the South Sandwich Islands",
        "road": "Trail Maiviken - Grytviken",
        "house_number": null,
        "neighbourhood": null,
        "suburb": null,
        "city_district": null,
        "city": "Grytviken",
        "state": "South Georgia",
        "postcode": "SIQQ 1ZZ",
        "country": "South Georgia and the South Sandwich Islands",
        "country_code": "gs"
      },
      "address": "133, Trail Maiviken - Grytviken, Grytviken, South Georgia, SIQQ 1ZZ, South Georgia and the South Sandwich Islands"
    },
    {
      "lat": -54.27968631217645,
      "lon": -36.51277397576937,
      "geoinfo": {
        "display_name": "Trail Maiviken - Grytviken, Grytviken, South Georgia, SIQQ 1ZZ, South Georgia and the South Sandwich Islands",
        "road": "Trail Maiviken - Grytviken",
        "house_number": null,
        "neighbourhood": null,
        "suburb": null,
        "city_district": null,
        "city": "Grytviken",
        "state": "South Georgia",
        "postcode": "SIQQ 1ZZ",
        "country": "South Georgia and the South Sandwich Islands",
        "country_code": "gs"
      },
      "address": "803, Trail Maiviken - Grytviken, Grytviken, South Georgia, SIQQ 1ZZ, South Georgia and the South Sandwich Islands"
    },
    {
      "lat": -54.27891358365963,
      "lon": -36.50954151630789,
      "geoinfo": {
        "display_name": "Ski Jump, Trail Maiviken - Grytviken, Grytviken, South Georgia, SIQQ 1ZZ, South Georgia and the South Sandwich Islands",
        "road": "Trail Maiviken - Grytviken",
        "house_number": null,
        "neighbourhood": null,
        "suburb": null,
        "city_district": null,
        "city": "Grytviken",
        "state": "South Georgia",
        "postcode": "SIQQ 1ZZ",
        "country": "South Georgia and the South Sandwich Islands",
        "country_code": "gs"
      },
      "address": "433, Trail Maiviken - Grytviken, Grytviken, SIQQ 1ZZ South Georgia, South Georgia and the South Sandwich Islands"
    },
    {
      "lat": -54.282793105661234,
      "lon": -36.506106752083106,
      "geoinfo": {
        "display_name": "Louise, Trail Maiviken - Grytviken, Grytviken, South Georgia, SIQQ 1ZZ, South Georgia and the South Sandwich Islands",
        "road": "Trail Maiviken - Grytviken",
        "house_number": null,
        "neighbourhood": null,
        "suburb": null,
        "city_district": null,
        "city": "Grytviken",
        "state": "South Georgia",
        "postcode": "SIQQ 1ZZ",
        "country": "South Georgia and the South Sandwich Islands",
        "country_code": "gs"
      },
      "address": "524, Trail Maiviken - Grytviken, Grytviken, SIQQ 1ZZ South Georgia, South Georgia and the South Sandwich Islands"
    },
    {
      "lat": -54.28270240175868,
      "lon": -36.51039062619124,
      "geoinfo": {
        "display_name": "Freezer Plant, Trail Maiviken - Grytviken, Grytviken, South Georgia, SIQQ 1ZZ, South Georgia and the South Sandwich Islands",
        "road": "Trail Maiviken - Grytviken",
        "house_number": null,
        "neighbourhood": null,
        "suburb": null,
        "city_district": null,
        "city": "Grytviken",
        "state": "South Georgia",
        "postcode": "SIQQ 1ZZ",
        "country": "South Georgia and the South Sandwich Islands",
        "country_code": "gs"
      },
      "address": "740, Trail Maiviken - Grytviken, Grytviken, SIQQ 1ZZ South Georgia, South Georgia and the South Sandwich Islands"
    },
    {
      "lat": -54.28028870106123,
      "lon": -36.50581938102317,
      "geoinfo": {
        "display_name": "Dias, Trail Maiviken - Grytviken, Grytviken, South Georgia, SIQQ 1ZZ, South Georgia and the South Sandwich Islands",
        "road": "Trail Maiviken - Grytviken",
        "house_number": null,
        "neighbourhood": null,
        "suburb": null,
        "city_district": null,
        "city": "Grytviken",
        "state": "South Georgia",
        "postcode": "SIQQ 1ZZ",
        "country": "South Georgia and the South Sandwich Islands",
        "country_code": "gs"
      },
      "address": "245, Trail Maiviken - Grytviken, Grytviken, SIQQ 1ZZ South Georgia, South Georgia and the South Sandwich Islands"
    },
    {
      "lat": -54.280172981826354,
      "lon": -36.50499404100108,
      "geoinfo": {
        "display_name": "Dias, Trail Maiviken - Grytviken, Grytviken, South Georgia, SIQQ 1ZZ, South Georgia and the South Sandwich Islands",
        "road": "Trail Maiviken - Grytviken",
        "house_number": null,
        "neighbourhood": null,
        "suburb": null,
        "city_district": null,
        "city": "Grytviken",
        "state": "South Georgia",
        "postcode": "SIQQ 1ZZ",
        "country": "South Georgia and the South Sandwich Islands",
        "country_code": "gs"
      },
      "address": "993, Trail Maiviken - Grytviken, Grytviken, SIQQ 1ZZ South Georgia, South Georgia and the South Sandwich Islands"
    },
    {
      "lat": -54.28012928731146,
      "lon": -36.50772630295894,
      "geoinfo": {
        "display_name": "South Georgia Museum, Trail Maiviken - Grytviken, Grytviken, South Georgia, SIQQ 1ZZ, South Georgia and the South Sandwich Islands",
        "road": "Trail Maiviken - Grytviken",
        "house_number": null,
        "neighbourhood": null,
        "suburb": null,
        "city_district": null,
        "city": "Grytviken",
        "state": "South Georgia",
        "postcode": "SIQQ 1ZZ",
        "country": "South Georgia and the South Sandwich Islands",
        "country_code": "gs"
      },
      "address": "218, Trail Maiviken - Grytviken, Grytviken, SIQQ 1ZZ South Georgia, South Georgia and the South Sandwich Islands"
    },
    {
      "lat": -54.28267015966406,
      "lon": -36.50810820310375,
      "geoinfo": {
        "display_name": "Floating Dock, Trail Maiviken - Grytviken, Grytviken, South Georgia, SIQQ 1ZZ, South Georgia and the South Sandwich Islands",
        "road": "Trail Maiviken - Grytviken",
        "house_number": null,
        "neighbourhood": null,
        "suburb": null,
        "city_district": null,
        "city": "Grytviken",
        "state": "South Georgia",
        "postcode": "SIQQ 1ZZ",
        "country": "South Georgia and the South Sandwich Islands",
        "country_code": "gs"
      },
      "address": "615, Trail Maiviken - Grytviken, Grytviken, SIQQ 1ZZ South Georgia, South Georgia and the South Sandwich Islands"
    },
    {
      "lat": -54.280243031764414,
      "lon": -36.50669370574799,
      "geoinfo": {
        "display_name": "Albatros, Trail Maiviken - Grytviken, Grytviken, South Georgia, SIQQ 1ZZ, South Georgia and the South Sandwich Islands",
        "road": "Trail Maiviken - Grytviken",
        "house_number": null,
        "neighbourhood": null,
        "suburb": null,
        "city_district": null,
        "city": "Grytviken",
        "state": "South Georgia",
        "postcode": "SIQQ 1ZZ",
        "country": "South Georgia and the South Sandwich Islands",
        "country_code": "gs"
      },
      "address": "369, Trail Maiviken - Grytviken, Grytviken, SIQQ 1ZZ South Georgia, South Georgia and the South Sandwich Islands"
    },
    {
      "lat": -54.279945428106934,
      "lon": -36.50716052947692,
      "geoinfo": {
        "display_name": "Bakery, Trail Maiviken - Grytviken, Grytviken, South Georgia, SIQQ 1ZZ, South Georgia and the South Sandwich Islands",
        "road": "Trail Maiviken - Grytviken",
        "house_number": null,
        "neighbourhood": null,
        "suburb": null,
        "city_district": null,
        "city": "Grytviken",
        "state": "South Georgia",
        "postcode": "SIQQ 1ZZ",
        "country": "South Georgia and the South Sandwich Islands",
        "country_code": "gs"
      },
      "address": "676, Trail Maiviken - Grytviken, Grytviken, SIQQ 1ZZ South Georgia, South Georgia and the South Sandwich Islands"
    },
    {
      "lat": -54.28163309371389,
      "lon": -36.511946847731046,
      "geoinfo": {
        "display_name": "Trail Maiviken - Grytviken, Grytviken, South Georgia, SIQQ 1ZZ, South Georgia and the South Sandwich Islands",
        "road": "Trail Maiviken - Grytviken",
        "house_number": null,
        "neighbourhood": null,
        "suburb": null,
        "city_district": null,
        "city": "Grytviken",
        "state": "South Georgia",
        "postcode": "SIQQ 1ZZ",
        "country": "South Georgia and the South Sandwich Islands",
        "country_code": "gs"
      },
      "address": "798, Trail Maiviken - Grytviken, Grytviken, South Georgia, SIQQ 1ZZ, South Georgia and the South Sandwich Islands"
    },
    {
      "lat": -54.28250005618499,
      "lon": -36.511599656935964,
      "geoinfo": {
        "display_name": "Trail Maiviken - Grytviken, Grytviken, South Georgia, SIQQ 1ZZ, South Georgia and the South Sandwich Islands",
        "road": "Trail Maiviken - Grytviken",
        "house_number": null,
        "neighbourhood": null,
        "suburb": null,
        "city_district": null,
        "city": "Grytviken",
        "state": "South Georgia",
        "postcode": "SIQQ 1ZZ",
        "country": "South Georgia and the South Sandwich Islands",
        "country_code": "gs"
      },
      "address": "800, Trail Maiviken - Grytviken, Grytviken, South Georgia, SIQQ 1ZZ, South Georgia and the South Sandwich Islands"
    },
    {
      "lat": -54.27929262295284,
      "lon": -36.5089338777866,
      "geoinfo": {
        "display_name": "Trail Maiviken - Grytviken, Grytviken, South Georgia, SIQQ 1ZZ, South Georgia and the South Sandwich Islands",
        "road": "Trail Maiviken - Grytviken",
        "house_number": null,
        "neighbourhood": null,
        "suburb": null,
        "city_district": null,
        "city": "Grytviken",
        "state": "South Georgia",
        "postcode": "SIQQ 1ZZ",
        "country": "South Georgia and the South Sandwich Islands",
        "country_code": "gs"
      },
      "address": "324, Trail Maiviken - Grytviken, Grytviken, South Georgia, SIQQ 1ZZ, South Georgia and the South Sandwich Islands"
    },
    {
      "lat": -54.28064230478792,
      "lon": -36.50771569501925,
      "geoinfo": {
        "display_name": "Flensing Plan, Trail Maiviken - Grytviken, Grytviken, South Georgia, SIQQ 1ZZ, South Georgia and the South Sandwich Islands",
        "road": "Trail Maiviken - Grytviken",
        "house_number": null,
        "neighbourhood": null,
        "suburb": null,
        "city_district": null,
        "city": "Grytviken",
        "state": "South Georgia",
        "postcode": "SIQQ 1ZZ",
        "country": "South Georgia and the South Sandwich Islands",
        "country_code": "gs"
      },
      "address": "585, Trail Maiviken - Grytviken, Grytviken, SIQQ 1ZZ South Georgia, South Georgia and the South Sandwich Islands"
    },
    {
      "lat": -54.2806237633213,
      "lon": -36.50499688565671,
      "geoinfo": {
        "display_name": "Harpon Jetty, Trail Maiviken - Grytviken, Grytviken, South Georgia, SIQQ 1ZZ, South Georgia and the South Sandwich Islands",
        "road": "Trail Maiviken - Grytviken",
        "house_number": null,
        "neighbourhood": null,
        "suburb": null,
        "city_district": null,
        "city": "Grytviken",
        "state": "South Georgia",
        "postcode": "SIQQ 1ZZ",
        "country": "South Georgia and the South Sandwich Islands",
        "country_code": "gs"
      },
      "address": "353, Trail Maiviken - Grytviken, Grytviken, SIQQ 1ZZ South Georgia, South Georgia and the South Sandwich Islands"
    },
    {
      "lat": -54.283452031783035,
      "lon": -36.50967814838275,
      "geoinfo": {
        "display_name": "Freezer Plant, Trail Maiviken - Grytviken, Grytviken, South Georgia, SIQQ 1ZZ, South Georgia and the South Sandwich Islands",
        "road": "Trail Maiviken - Grytviken",
        "house_number": null,
        "neighbourhood": null,
        "suburb": null,
        "city_district": null,
        "city": "Grytviken",
        "state": "South Georgia",
        "postcode": "SIQQ 1ZZ",
        "country": "South Georgia and the South Sandwich Islands",
        "country_code": "gs"
      },
      "address": "198, Trail Maiviken - Grytviken, Grytviken, SIQQ 1ZZ South Georgia, South Georgia and the South Sandwich Islands"
    },
    {
      "lat": -54.28072499411733,
      "lon": -36.508383392443015,
      "geoinfo": {
        "display_name": "Flensing Plan, Trail Maiviken - Grytviken, Grytviken, South Georgia, SIQQ 1ZZ, South Georgia and the South Sandwich Islands",
        "road": "Trail Maiviken - Grytviken",
        "house_number": null,
        "neighbourhood": null,
        "suburb": null,
        "city_district": null,
        "city": "Grytviken",
        "state": "South Georgia",
        "postcode": "SIQQ 1ZZ",
        "country": "South Georgia and the South Sandwich Islands",
        "country_code": "gs"
      },
      "address": "471, Trail Maiviken - Grytviken, Grytviken, SIQQ 1ZZ South Georgia, South Georgia and the South Sandwich Islands"
    },
    {
      "lat": -54.28197701450386,
      "lon": -36.506982657591585,
      "geoinfo": {
        "display_name": "Floating Dock, Trail Maiviken - Grytviken, Grytviken, South Georgia, SIQQ 1ZZ, South Georgia and the South Sandwich Islands",
        "road": "Trail Maiviken - Grytviken",
        "house_number": null,
        "neighbourhood": null,
        "suburb": null,
        "city_district": null,
        "city": "Grytviken",
        "state": "South Georgia",
        "postcode": "SIQQ 1ZZ",
        "country": "South Georgia and the South Sandwich Islands",
        "country_code": "gs"
      },
      "address": "060, Trail Maiviken - Grytviken, Grytviken, SIQQ 1ZZ South Georgia, South Georgia and the South Sandwich Islands"
    },
    {
      "lat": -54.28148005278026,
      "lon": -36.511490208541716,
      "geoinfo": {
        "display_name": "Trail Maiviken - Grytviken, Grytviken, South Georgia, SIQQ 1ZZ, South Georgia and the South Sandwich Islands",
        "road": "Trail Maiviken - Grytviken",
        "house_number": null,
        "neighbourhood": null,
        "suburb": null,
        "city_district": null,
        "city": "Grytviken",
        "state": "South Georgia",
        "postcode": "SIQQ 1ZZ",
        "country": "South Georgia and the South Sandwich Islands",
        "country_code": "gs"
      },
      "address": "076, Trail Maiviken - Grytviken, Grytviken, South Georgia, SIQQ 1ZZ, South Georgia and the South Sandwich Islands"
    },
    {
      "lat": -54.27877386468573,
      "lon": -36.508815828473864,
      "geoinfo": {
        "display_name": "Ski Jump, Trail Maiviken - Grytviken, Grytviken, South Georgia, SIQQ 1ZZ, South Georgia and the South Sandwich Islands",
        "road": "Trail Maiviken - Grytviken",
        "house_number": null,
        "neighbourhood": null,
        "suburb": null,
        "city_district": null,
        "city": "Grytviken",
        "state": "South Georgia",
        "postcode": "SIQQ 1ZZ",
        "country": "South Georgia and the South Sandwich Islands",
        "country_code": "gs"
      },
      "address": "708, Trail Maiviken - Grytviken, Grytviken, SIQQ 1ZZ South Georgia, South Georgia and the South Sandwich Islands"
    },
    {
      "lat": -54.27915938911694,
      "lon": -36.50739756244042,
      "geoinfo": {
        "display_name": "Bakery, Trail Maiviken - Grytviken, Grytviken, South Georgia, SIQQ 1ZZ, South Georgia and the South Sandwich Islands",
        "road": "Trail Maiviken - Grytviken",
        "house_number": null,
        "neighbourhood": null,
        "suburb": null,
        "city_district": null,
        "city": "Grytviken",
        "state": "South Georgia",
        "postcode": "SIQQ 1ZZ",
        "country": "South Georgia and the South Sandwich Islands",
        "country_code": "gs"
      },
      "address": "263, Trail Maiviken - Grytviken, Grytviken, SIQQ 1ZZ South Georgia, South Georgia and the South Sandwich Islands"
    }
  ],
  "updated_at": "2025-10-22T00:58:19.390224+00:00",
  "_kind": "geo_samples"
}