{
  "country_code": "MP",
  "country": "Northern Mariana Islands",
  "city": "Saipan",
  "geonameid": 7828758,
  "target_addresses": 100,
  "samples": [
    {
      "lat": 15.224722867727838,
      "lon": 145.71682091364437,
      "geoinfo": {
        "display_name": "Micro Beach, Wedelia Avenue, Saipan Municipality, Northern Mariana Islands, 96950, United States",
        "road": "Wedelia Avenue",
        "house_number": null,
        "neighbourhood": null,
        "suburb": null,
        "city_district": null,
        "city": null,
        "state": "Northern Mariana Islands",
        "postcode": "96950",
        "country": "United States",
        "country_code": "us"
      },
      "address": "Wedelia Avenue, Saipan, Northern Mariana Islands, Northern Mariana Islands"
    },
    {
      "lat": 15.22018233907351,
      "lon": 145.7488876026104,
      "geoinfo": {
        "display_name": "Wireless Ridge, Saipan Municipality, Northern Mariana Islands, 96950, United States",
        "road": null,
        "house_number": null,
        "neighbourhood": null,
        "suburb": null,
        "city_district": null,
        "city": "Wireless Ridge",
        "state": "Northern Mariana Islands",
        "postcode": "96950",
        "country": "United States",
        "country_code": "us"
      },
      "address": "Saipan, Northern Mariana Islands, Northern Mariana Islands"
    },
    {
      "lat": 15.191187537489187,
      "lon": 145.77292789544518,
      "geoinfo": {
        "display_name": "Chalan Santa Lourdes, Hilaihai, Saipan Municipality, Northern Mariana Islands, 96950, United States",
        "road": "Chalan Santa Lourdes",
        "house_number": null,
        "neighbourhood": null,
        "suburb": null,
        "city_district": null,
        "city": "Hilaihai",
        "state": "Northern Mariana Islands",
        "postcode": "96950",
        "country": "United States",
        "country_code": "us"
      },
      "address": "Chalan Santa Lourdes, Saipan, Northern Mariana Islands, Northern Mariana Islands"
    },
    {
      "lat": 15.212137849953514,
      "lon": 145.7246241868992,
      "geoinfo": {
        "display_name": "Commonwealth Healthcare Corporation, Navy Hill Road, Garapan, Saipan Municipality, Northern Mariana Islands, 96950, United States",
        "road": "Navy Hill Road",
        "house_number": null,
        "neighbourhood": null,
        "suburb": null,
        "city_district": null,
        "city": "Garapan",
        "state": "Northern Mariana Islands",
        "postcode": "96950",
        "country": "United States",
        "country_code": "us"
      },
      "address": "Navy Hill Road, Saipan, Northern Mariana Islands, Northern Mariana Islands"
    },
    {
      "lat": 15.214800287716061,
      "lon": 145.7147387774514,
      "geoinfo": {
        "display_name": "Hyatt Regency Saipan, Micro Beach Road, Garapan, Saipan Municipality, Northern Mariana Islands, 96950, United States",
        "road": "Micro Beach Road",
        "house_number": null,
        "neighbourhood": null,
        "suburb": null,
        "city_district": null,
        "city": "Garapan",
        "state": "Northern Mariana Islands",
        "postcode": "96950",
        "country": "United States",
        "country_code": "us"
      },
      "address": "Micro Beach Road, Saipan, Northern Mariana Islands, Northern Mariana Islands"
    },
    {
      "lat": 15.195368862835366,
      "lon": 145.71214785713144,
      "geoinfo": {
        "display_name": "Beach Road, Garapan, Saipan Municipality, Northern Mariana Islands, 96950, United States",
        "road": "Beach Road",
        "house_number": null,
        "neighbourhood": null,
        "suburb": null,
        "city_district": null,
        "city": "Garapan",
        "state": "Northern Mariana Islands",
        "postcode": "96950",
        "country": "United States",
        "country_code": "us"
      },
      "address": "Beach Road, Saipan, Northern Mariana Islands, Northern Mariana Islands"
    },
    {
      "lat": 15.201585805087564,
      "lon": 145.77171670094643,
      "geoinfo": {
        "display_name": "Egigi Drive, Capitol Hill, Saipan Municipality, Northern Mariana Islands, 96950, United States",
        "road": "Egigi Drive",
        "house_number": null,
        "neighbourhood": null,
        "suburb": null,
        "city_district": null,
        "city": "Capitol Hill",
        "state": "Northern Mariana Islands",
        "postcode": "96950",
        "country": "United States",
        "country_code": "us"
      },
      "address": "Egigi Drive, Saipan, Northern Mariana Islands, Northern Mariana Islands"
    },
    {
      "lat": 15.225801623912611,
      "lon": 145.72362017213197,
      "geoinfo": {
        "display_name": "Marina Lane, Navy Hill, Saipan Municipality, Northern Mariana Islands, 96950, United States",
        "road": "Marina Lane",
        "house_number": null,
        "neighbourhood": null,
        "suburb": null,
        "city_district": null,
        "city": "Navy Hill",
        "state": "Northern Mariana Islands",
        "postcode": "96950",
        "country": "United States",
        "country_code": "us"
      },
      "address": "Marina Lane, Saipan, Northern Mariana Islands, Northern Mariana Islands"
    },
    {
      "lat": 15.207803003122294,
      "lon": 145.7295221354755,
      "geoinfo": {
        "display_name": "Magas Loop, Mutcho, Navy Hill, Saipan Municipality, Northern Mariana Islands, 96950, United States",
        "road": "Magas Loop",
        "house_number": null,
        "neighbourhood": null,
        "suburb": null,
        "city_district": null,
        "city": "Navy Hill",
        "state": "Northern Mariana Islands",
        "postcode": "96950",
        "country": "United States",
        "country_code": "us"
      },
      "address": "Magas Loop, Saipan, Northern Mariana Islands, Northern Mariana Islands"
    },
    {
      "lat": 15.221837213115782,
      "lon": 145.72858675485895,
      "geoinfo": {
        "display_name": "Industrial Drive, Puerto Rico, Saipan Municipality, Northern Mariana Islands, 96950, United States",
        "road": "Industrial Drive",
        "house_number": null,
        "neighbourhood": null,
        "suburb": null,
        "city_district": null,
        "city": "Puerto Rico",
        "state": "Northern Mariana Islands",
        "postcode": "96950",
        "country": "United States",
        "country_code": "us"
      },
      "address": "Industrial Drive, Saipan, Northern Mariana Islands, Northern Mariana Islands"
    },
    {
      "lat": 15.213801975170858,
      "lon": 145.7522476469459,
      "geoinfo": {
        "display_name": "Maug Place, Wireless Ridge, Saipan Municipality, Northern Mariana Islands, 96950, United States",
        "road": "Maug Place",
        "house_number": null,
        "neighbourhood": null,
        "suburb": null,
        "city_district": null,
        "city": "Wireless Ridge",
        "state": "Northern Mariana Islands",
        "postcode": "96950",
        "country": "United States",
        "country_code": "us"
      },
      "address": "Maug Place, Saipan, Northern Mariana Islands, Northern Mariana Islands"
    },
    {
      "lat": 15.23207900801973,
      "lon": 145.76764517422276,
      "geoinfo": {
        "display_name": "Chalan Savana, Wireless Ridge, Saipan Municipality, Northern Mariana Islands, 96950, United States",
        "road": "Chalan Savana",
        "house_number": null,
        "neighbourhood": null,
        "suburb": null,
        "city_district": null,
        "city": "Wireless Ridge",
        "state": "Northern Mariana Islands",
        "postcode": "96950",
        "country": "United States",
        "country_code": "us"
      },
      "address": "Chalan Savana, Saipan, Northern Mariana Islands, Northern Mariana Islands"
    },
    {
      "lat": 15.177154573769258,
      "lon": 145.77827434604956,
      "geoinfo": {
        "display_name": "Kamachili Avenue, Kagman II, Saipan Municipality, Northern Mariana Islands, 96950, United States",
        "road": "Kamachili Avenue",
        "house_number": null,
        "neighbourhood": null,
        "suburb": null,
        "city_district": null,
        "city": "Kagman II",
        "state": "Northern Mariana Islands",
        "postcode": "96950",
        "country": "United States",
        "country_code": "us"
      },
      "address": "Kamachili Avenue, Saipan, Northern Mariana Islands, Northern Mariana Islands"
    },
    {
      "lat": 15.19166408228865,
      "lon": 145.7322012237142,
      "geoinfo": {
        "display_name": "Constitution Place, As Falipe, Gualo Rai, Saipan Municipality, Northern Mariana Islands, 96950, United States",
        "road": "Constitution Place",
        "house_number": null,
        "neighbourhood": null,
        "suburb": null,
        "city_district": null,
        "city": "Gualo Rai",
        "state": "Northern Mariana Islands",
        "postcode": "96950",
        "country": "United States",
        "country_code": "us"
      },
      "address": "Constitution Place, Saipan, Northern Mariana Islands, Northern Mariana Islands"
    },
    {
      "lat": 15.174149385270507,
      "lon": 145.76863822975295,
      "geoinfo": {
        "display_name": "Chacha Road, Kagman I, Saipan Municipality, Northern Mariana Islands, 96950, United States",
        "road": "Chacha Road",
        "house_number": null,
        "neighbourhood": null,
        "suburb": null,
        "city_district": null,
        "city": "Kagman I",
        "state": "Northern Mariana Islands",
        "postcode": "96950",
        "country": "United States",
        "country_code": "us"
      },
      "address": "Chacha Road, Saipan, Northern Mariana Islands, Northern Mariana Islands"
    },
    {
      "lat": 15.176567073202008,
      "lon": 145.76048981969566,
      "geoinfo": {
        "display_name": "Sumak Place, Kagman, Saipan Municipality, Northern Mariana Islands, 96950, United States",
        "road": "Sumak Place",
        "house_number": null,
        "neighbourhood": null,
        "suburb": null,
        "city_district": null,
        "city": "Kagman",
        "state": "Northern Mariana Islands",
        "postcode": "96950",
        "country": "United States",
        "country_code": "us"
      },
      "address": "Sumak Place, Saipan, Northern Mariana Islands, Northern Mariana Islands"
    },
    {
      "lat": 15.240171360442016,
      "lon": 145.76714528869266,
      "geoinfo": {
        "display_name": "Bobo Achugao, Ammurh Drive, Tanapag, Saipan Municipality, Northern Mariana Islands, 96950, United States",
        "road": "Ammurh Drive",
        "house_number": null,
        "neighbourhood": null,
        "suburb": null,
        "city_district": null,
        "city": "Tanapag",
        "state": "Northern Mariana Islands",
        "postcode": "96950",
        "country": "United States",
        "country_code": "us"
      },
      "address": "Ammurh Drive, Saipan, Northern Mariana Islands, Northern Mariana Islands"
    },
    {
      "lat": 15.24387368093464,
      "lon": 145.75519075227865,
      "geoinfo": {
        "display_name": "Samoa Avenue, Tanapag, Saipan Municipality, Northern Mariana Islands, 96950, United States",
        "road": "Samoa Avenue",
        "house_number": null,
        "neighbourhood": null,
        "suburb": null,
        "city_district": null,
        "city": "Tanapag",
        "state": "Northern Mariana Islands",
        "postcode": "96950",
        "country": "United States",
        "country_code": "us"
      },
      "address": "Samoa Avenue, Saipan, Northern Mariana Islands, Northern Mariana Islands"
    },
    {
      "lat": 15.243668218482517,
      "lon": 145.77402703741012,
      "geoinfo": {
        "display_name": "Reef Place, San Roque, Saipan Municipality, Northern Mariana Islands, 96950, United States",
        "road": "Reef Place",
        "house_number": null,
        "neighbourhood": null,
        "suburb": null,
        "city_district": null,
        "city": "San Roque",
        "state": "Northern Mariana Islands",
        "postcode": "96950",
        "country": "United States",
        "country_code": "us"
      },
      "address": "Reef Place, Saipan, Northern Mariana Islands, Northern Mariana Islands"
    },
    {
      "lat": 15.245476976584479,
      "lon": 145.765258176556,
      "geoinfo": {
        "display_name": "Chalan Pale Arnold, Tanapag, Saipan Municipality, Northern Mariana Islands, 96950, United States",
        "road": "Chalan Pale Arnold",
        "house_number": null,
        "neighbourhood": null,
        "suburb": null,
        "city_district": null,
        "city": "Tanapag",
        "state": "Northern Mariana Islands",
        "postcode": "96950",
        "country": "United States",
        "country_code": "us"
      },
      "address": "Chalan Pale Arnold, Saipan, Northern Mariana Islands, Northern Mariana Islands"
    },
    {
      "lat": 15.18566254183002,
      "lon": 145.73120359072448,
      "geoinfo": {
        "display_name": "Earhart Drive, As Falipe, Gualo Rai, Saipan Municipality, Northern Mariana Islands, 96950, United States",
        "road": "Earhart Drive",
        "house_number": null,
        "neighbourhood": null,
        "suburb": null,
        "city_district": null,
        "city": "Gualo Rai",
        "state": "Northern Mariana Islands",
        "postcode": "96950",
        "country": "United States",
        "country_code": "us"
      },
      "address": "Earhart Drive, Saipan, Northern Mariana Islands, Northern Mariana Islands"
    },
    {
      "lat": 15.214565066983212,
      "lon": 145.7289285048229,
      "geoinfo": {
        "display_name": "Publiko Drive, Navy Hill, Saipan Municipality, Northern Mariana Islands, 96950, United States",
        "road": "Publiko Drive",
        "house_number": null,
        "neighbourhood": null,
        "suburb": null,
        "city_district": null,
        "city": "Navy Hill",
        "state": "Northern Mariana Islands",
        "postcode": "96950",
        "country": "United States",
        "country_code": "us"
      },
      "address": "Publiko Drive, Saipan, Northern Mariana Islands, Northern Mariana Islands"
    },
    {
      "lat": 15.214513351302285,
      "lon": 145.76381326427656,
      "geoinfo": {
        "display_name": "Talofofo Road, Capitol Hill, Saipan Municipality, Northern Mariana Islands, 96950, United States",
        "road": "Talofofo Road",
        "house_number": null,
        "neighbourhood": null,
        "suburb": null,
        "city_district": null,
        "city": "Capitol Hill",
        "state": "Northern Mariana Islands",
        "postcode": "96950",
        "country": "United States",
        "country_code": "us"
      },
      "address": "Talofofo Road, Saipan, Northern Mariana Islands, Northern Mariana Islands"
    },
    {
      "lat": 15.171037587321837,
      "lon": 145.76859245118004,
      "geoinfo": {
        "display_name": "Kagman Road, Kagman III, Saipan Municipality, Northern Mariana Islands, 96950, United States",
        "road": "Kagman Road",
        "house_number": null,
        "neighbourhood": null,
        "suburb": null,
        "city_district": null,
        "city": "Kagman III",
        "state": "Northern Mariana Islands",
        "postcode": "96950",
        "country": "United States",
        "country_code": "us"
      },
      "address": "Kagman Road, Saipan, Northern Mariana Islands, Northern Mariana Islands"
    },
    {
      "lat": 15.229262290169784,
      "lon": 145.73798836825688,
      "geoinfo": {
        "display_name": "Lower Base Drive, Puerto Rico, Saipan Municipality, Northern Mariana Islands, 96950, United States",
        "road": "Lower Base Drive",
        "house_number": null,
        "neighbourhood": null,
        "suburb": null,
        "city_district": null,
        "city": "Puerto Rico",
        "state": "Northern Mariana Islands",
        "postcode": "96950",
        "country": "United States",
        "country_code": "us"
      },
      "address": "Lower Base Drive, Saipan, Northern Mariana Islands, Northern Mariana Islands"
    },
    {
      "lat": 15.188939640425188,
      "lon": 145.75489098610277,
      "geoinfo": {
        "display_name": "Betbena Drive, I Akgak, Saipan Municipality, Northern Mariana Islands, 96950, United States",
        "road": "Betbena Drive",
        "house_number": null,
        "neighbourhood": null,
        "suburb": null,
        "city_district": null,
        "city": "I Akgak",
        "state": "Northern Mariana Islands",
        "postcode": "96950",
        "country": "United States",
        "country_code": "us"
      },
      "address": "Betbena Drive, Saipan, Northern Mariana Islands, Northern Mariana Islands"
    },
    {
      "lat": 15.237139229225663,
      "lon": 145.7482241637405,
      "geoinfo": {
        "display_name": "Santa Remedios Road, Tanapag, Saipan Municipality, Northern Mariana Islands, 96950, United States",
        "road": "Santa Remedios Road",
        "house_number": null,
        "neighbourhood": null,
        "suburb": null,
        "city_district": null,
        "city": "Tanapag",
        "state": "Northern Mariana Islands",
        "postcode": "96950",
        "country": "United States",
        "country_code": "us"
      },
      "address": "Santa Remedios Road, Saipan, Northern Mariana Islands, Northern Mariana Islands"
    },
    {
      "lat": 15.176880797301301,
      "lon": 145.7421244508494,
      "geoinfo": {
        "display_name": "Tagan Tagan Drive, Papago, Saipan Municipality, Northern Mariana Islands, 96950, United States",
        "road": "Tagan Tagan Drive",
        "house_number": null,
        "neighbourhood": null,
        "suburb": null,
        "city_district": null,
        "city": "Papago",
        "state": "Northern Mariana Islands",
        "postcode": "96950",
        "country": "United States",
        "country_code": "us"
      },
      "address": "Tagan Tagan Drive, Saipan, Northern Mariana Islands, Northern Mariana Islands"
    },
    {
      "lat": 15.212458763153501,
      "lon": 145.72152763217557,
      "geoinfo": {
        "display_name": "Cactus Street, Garapan, Saipan Municipality, Northern Mariana Islands, 96950, United States",
        "road": "Cactus Street",
        "house_number": null,
        "neighbourhood": null,
        "suburb": null,
        "city_district": null,
        "city": "Garapan",
        "state": "Northern Mariana Islands",
        "postcode": "96950",
        "country": "United States",
        "country_code": "us"
      },
      "address": "Cactus Street, Saipan, Northern Mariana Islands, Northern Mariana Islands"
    },
    {
      "lat": 15.184716539833769,
      "lon": 145.76136539078965,
      "geoinfo": {
        "display_name": "Fahang Drive, Chacha, Saipan Municipality, Northern Mariana Islands, 96950, United States",
        "road": "Fahang Drive",
        "house_number": null,
        "neighbourhood": null,
        "suburb": null,
        "city_district": null,
        "city": "Chacha",
        "state": "Northern Mariana Islands",
        "postcode": "96950",
        "country": "United States",
        "country_code": "us"
      },
      "address": "Fahang Drive, Saipan, Northern Mariana Islands, Northern Mariana Islands"
    },
    {
      "lat": 15.220326180242322,
      "lon": 145.79363941834268,
      "geoinfo": {
        "display_name": "Windward Road, San Roque, Saipan Municipality, Northern Mariana Islands, 96950, United States",
        "road": "Windward Road",
        "house_number": null,
        "neighbourhood": null,
        "suburb": null,
        "city_district": null,
        "city": "San Roque",
        "state": "Northern Mariana Islands",
        "postcode": "96950",
        "country": "United States",
        "country_code": "us"
      },
      "address": "Windward Road, Saipan, Northern Mariana Islands, Northern Mariana Islands"
    },
    {
      "lat": 15.181632021615757,
      "lon": 145.7680611747314,
      "geoinfo": {
        "display_name": "Hikamas Way, Kagman, Saipan Municipality, Northern Mariana Islands, 96950, United States",
        "road": "Hikamas Way",
        "house_number": null,
        "neighbourhood": null,
        "suburb": null,
        "city_district": null,
        "city": "Kagman",
        "state": "Northern Mariana Islands",
        "postcode": "96950",
        "country": "United States",
        "country_code": "us"
      },
      "address": "Hikamas Way, Saipan, Northern Mariana Islands, Northern Mariana Islands"
    },
    {
      "lat": 15.172172016677436,
      "lon": 145.73847513975605,
      "geoinfo": {
        "display_name": "Lantana Place, Papago, Saipan Municipality, Northern Mariana Islands, 96950, United States",
        "road": "Lantana Place",
        "house_number": null,
        "neighbourhood": null,
        "suburb": null,
        "city_district": null,
        "city": "Papago",
        "state": "Northern Mariana Islands",
        "postcode": "96950",
        "country": "United States",
        "country_code": "us"
      },
      "address": "Lantana Place, Saipan, Northern Mariana Islands, Northern Mariana Islands"
    },
    {
      "lat": 15.217306128744717,
      "lon": 145.73568549944633,
      "geoinfo": {
        "display_name": "Isla Drive, Navy Hill, Saipan Municipality, Northern Mariana Islands, 96950, United States",
        "road": "Isla Drive",
        "house_number": null,
        "neighbourhood": null,
        "suburb": null,
        "city_district": null,
        "city": "Navy Hill",
        "state": "Northern Mariana Islands",
        "postcode": "96950",
        "country": "United States",
        "country_code": "us"
      },
      "address": "Isla Drive, Saipan, Northern Mariana Islands, Northern Mariana Islands"
    },
    {
      "lat": 15.186044262500188,
      "lon": 145.73369852099432,
      "geoinfo": {
        "display_name": "Waserak Road, As Falipe, Tapochao, Saipan Municipality, Northern Mariana Islands, 96950, United States",
        "road": "Waserak Road",
        "house_number": null,
        "neighbourhood": null,
        "suburb": null,
        "city_district": null,
        "city": "Tapochao",
        "state": "Northern Mariana Islands",
        "postcode": "96950",
        "country": "United States",
        "country_code": "us"
      },
      "address": "Waserak Road, Saipan, Northern Mariana Islands, Northern Mariana Islands"
    },
    {
      "lat": 15.241197755176142,
      "lon": 145.7712735910438,
      "geoinfo": {
        "display_name": "Sea Coast Lane, Tanapag, Saipan Municipality, Northern Mariana Islands, 96950, United States",
        "road": "Sea Coast Lane",
        "house_number": null,
        "neighbourhood": null,
        "suburb": null,
        "city_district": null,
        "city": "Tanapag",
        "state": "Northern Mariana Islands",
        "postcode": "96950",
        "country": "United States",
        "country_code": "us"
      },
      "address": "Sea Coast Lane, Saipan, Northern Mariana Islands, Northern Mariana Islands"
    },
    {
      "lat": 15.183246518532634,
      "lon": 145.78572609476026,
      "geoinfo": {
        "display_name": "Radis Avenue, Kagman IV, Saipan Municipality, Northern Mariana Islands, 96950, United States",
        "road": "Radis Avenue",
        "house_number": null,
        "neighbourhood": null,
        "suburb": null,
        "city_district": null,
        "city": "Kagman IV",
        "state": "Northern Mariana Islands",
        "postcode": "96950",
        "country": "United States",
        "country_code": "us"
      },
      "address": "Radis Avenue, Saipan, Northern Mariana Islands, Northern Mariana Islands"
    },
    {
      "lat": 15.198753529470014,
      "lon": 145.7753718878984,
      "geoinfo": {
        "display_name": "Luao Drive, Hilaihai, Saipan Municipality, Northern Mariana Islands, 96950, United States",
        "road": "Luao Drive",
        "house_number": null,
        "neighbourhood": null,
        "suburb": null,
        "city_district": null,
        "city": "Hilaihai",
        "state": "Northern Mariana Islands",
        "postcode": "96950",
        "country": "United States",
        "country_code": "us"
      },
      "address": "Luao Drive, Saipan, Northern Mariana Islands, Northern Mariana Islands"
    },
    {
      "lat": 15.195746028763544,
      "lon": 145.73830024070548,
      "geoinfo": {
        "display_name": "Captive Way, As Falipe, Tapochao, Saipan Municipality, Northern Mariana Islands, 96950, United States",
        "road": "Captive Way",
        "house_number": null,
        "neighbourhood": null,
        "suburb": null,
        "city_district": null,
        "city": "Tapochao",
        "state": "Northern Mariana Islands",
        "postcode": "96950",
        "country": "United States",
        "country_code": "us"
      },
      "address": "Captive Way, Saipan, Northern Mariana Islands, Northern Mariana Islands"
    },
    {
      "lat": 15.173815941737713,
      "lon": 145.77726053332444,
      "geoinfo": {
        "display_name": "Abas Drive, Kagman, Saipan Municipality, Northern Mariana Islands, 96950, United States",
        "road": "Abas Drive",
        "house_number": null,
        "neighbourhood": null,
        "suburb": null,
        "city_district": null,
        "city": "Kagman",
        "state": "Northern Mariana Islands",
        "postcode": "96950",
        "country": "United States",
        "country_code": "us"
      },
      "address": "Abas Drive, Saipan, Northern Mariana Islands, Northern Mariana Islands"
    },
    {
      "lat": 15.171978257841877,
      "lon": 145.77064848172776,
      "geoinfo": {
        "display_name": "Melon Drive, Kagman, Saipan Municipality, Northern Mariana Islands, 96950, United States",
        "road": "Melon Drive",
        "house_number": null,
        "neighbourhood": null,
        "suburb": null,
        "city_district": null,
        "city": "Kagman",
        "state": "Northern Mariana Islands",
        "postcode": "96950",
        "country": "United States",
        "country_code": "us"
      },
      "address": "Melon Drive, Saipan, Northern Mariana Islands, Northern Mariana Islands"
    },
    {
      "lat": 15.20566999258849,
      "lon": 145.730148649361,
      "geoinfo": {
        "display_name": "Saina Place, China Town, Chalan Galaide, Saipan Municipality, Northern Mariana Islands, 96950, United States",
        "road": "Saina Place",
        "house_number": null,
        "neighbourhood": null,
        "suburb": null,
        "city_district": null,
        "city": "Chalan Galaide",
        "state": "Northern Mariana Islands",
        "postcode": "96950",
        "country": "United States",
        "country_code": "us"
      },
      "address": "Saina Place, Saipan, Northern Mariana Islands, Northern Mariana Islands"
    },
    {
      "lat": 15.210950423346219,
      "lon": 145.75578422663486,
      "geoinfo": {
        "display_name": "Pagan Loop, Capitol Hill, Saipan Municipality, Northern Mariana Islands, 96950, United States",
        "road": "Pagan Loop",
        "house_number": null,
        "neighbourhood": null,
        "suburb": null,
        "city_district": null,
        "city": "Capitol Hill",
        "state": "Northern Mariana Islands",
        "postcode": "96950",
        "country": "United States",
        "country_code": "us"
      },
      "address": "Pagan Loop, Saipan, Northern Mariana Islands, Northern Mariana Islands"
    },
    {
      "lat": 15.19223751402569,
      "lon": 145.76376841404297,
      "geoinfo": {
        "display_name": "As Teo Drive, Chacha, Saipan Municipality, Northern Mariana Islands, 96950, United States",
        "road": "As Teo Drive",
        "house_number": null,
        "neighbourhood": null,
        "suburb": null,
        "city_district": null,
        "city": "Chacha",
        "state": "Northern Mariana Islands",
        "postcode": "96950",
        "country": "United States",
        "country_code": "us"
      },
      "address": "As Teo Drive, Saipan, Northern Mariana Islands, Northern Mariana Islands"
    },
    {
      "lat": 15.202419559113324,
      "lon": 145.71497970899125,
      "geoinfo": {
        "display_name": "Husga Avenue, Garapan, Saipan Municipality, Northern Mariana Islands, 96950, United States",
        "road": "Husga Avenue",
        "house_number": null,
        "neighbourhood": null,
        "suburb": null,
        "city_district": null,
        "city": "Garapan",
        "state": "Northern Mariana Islands",
        "postcode": "96950",
        "country": "United States",
        "country_code": "us"
      },
      "address": "Husga Avenue, Saipan, Northern Mariana Islands, Northern Mariana Islands"
    },
    {
      "lat": 15.186280763959376,
      "lon": 145.71854448892108,
      "geoinfo": {
        "display_name": "Cheribiyan, Gualo Rai, Saipan Municipality, Northern Mariana Islands, 96950, United States",
        "road": "Cheribiyan",
        "house_number": null,
        "neighbourhood": null,
        "suburb": null,
        "city_district": null,
        "city": "Gualo Rai",
        "state": "Northern Mariana Islands",
        "postcode": "96950",
        "country": "United States",
        "country_code": "us"
      },
      "address": "Cheribiyan, Saipan, Northern Mariana Islands, Northern Mariana Islands"
    },
    {
      "lat": 15.232028843866715,
      "lon": 145.7550065538634,
      "geoinfo": {
        "display_name": "Bo'bo' Agatan, Orthopay Place, Tanapag, Saipan Municipality, Northern Mariana Islands, 96950, United States",
        "road": "Orthopay Place",
        "house_number": null,
        "neighbourhood": null,
        "suburb": null,
        "city_district": null,
        "city": "Tanapag",
        "state": "Northern Mariana Islands",
        "postcode": "96950",
        "country": "United States",
        "country_code": "us"
      },
      "address": "Orthopay Place, Saipan, Northern Mariana Islands, Northern Mariana Islands"
    },
    {
      "lat": 15.198555277779294,
      "lon": 145.7579337867391,
      "geoinfo": {
        "display_name": "Isa Drive, Chacha, Saipan Municipality, Northern Mariana Islands, 96950, United States",
        "road": "Isa Drive",
        "house_number": null,
        "neighbourhood": null,
        "suburb": null,
        "city_district": null,
        "city": "Chacha",
        "state": "Northern Mariana Islands",
        "postcode": "96950",
        "country": "United States",
        "country_code": "us"
      },
      "address": "Isa Drive, Saipan, Northern Mariana Islands, Northern Mariana Islands"
    },
    {
      "lat": 15.169079408612676,
      "lon": 145.760589708301,
      "geoinfo": {
        "display_name": "Yetbas Babui Place, Laulau Bay, Saipan Municipality, Northern Mariana Islands, 96950, United States",
        "road": "Yetbas Babui Place",
        "house_number": null,
        "neighbourhood": null,
        "suburb": null,
        "city_district": null,
        "city": "Laulau Bay",
        "state": "Northern Mariana Islands",
        "postcode": "96950",
        "country": "United States",
        "country_code": "us"
      },
      "address": "Yetbas Babui Place, Saipan, Northern Mariana Islands, Northern Mariana Islands"
    },
    {
      "lat": 15.174761722984904,
      "lon": 145.7755862838946,
      "geoinfo": {
        "display_name": "Ates Drive, Kagman, Saipan Municipality, Northern Mariana Islands, 96950, United States",
        "road": "Ates Drive",
        "house_number": null,
        "neighbourhood": null,
        "suburb": null,
        "city_district": null,
        "city": "Kagman",
        "state": "Northern Mariana Islands",
        "postcode": "96950",
        "country": "United States",
        "country_code": "us"
      },
      "address": "Ates Drive, Saipan, Northern Mariana Islands, Northern Mariana Islands"
    },
    {
      "lat": 15.196735711410204,
      "lon": 145.73451379384846,
      "geoinfo": {
        "display_name": "Nimitz Lane, Mutcho, Gualo Rai, Saipan Municipality, Northern Mariana Islands, 96950, United States",
        "road": "Nimitz Lane",
        "house_number": null,
        "neighbourhood": null,
        "suburb": null,
        "city_district": null,
        "city": "Gualo Rai",
        "state": "Northern Mariana Islands",
        "postcode": "96950",
        "country": "United States",
        "country_code": "us"
      },
      "address": "Nimitz Lane, Saipan, Northern Mariana Islands, Northern Mariana Islands"
    },
    {
      "lat": 15.216554271693434,
      "lon": 145.7397922448681,
      "geoinfo": {
        "display_name": "Puerto Rico Drive, Puerto Rico, Saipan Municipality, Northern Mariana Islands, 96950, United States",
        "road": "Puerto Rico Drive",
        "house_number": null,
        "neighbourhood": null,
        "suburb": null,
        "city_district": null,
        "city": "Puerto Rico",
        "state": "Northern Mariana Islands",
        "postcode": "96950",
        "country": "United States",
        "country_code": "us"
      },
      "address": "Puerto Rico Drive, Saipan, Northern Mariana Islands, Northern Mariana Islands"
    },
    {
      "lat": 15.21125930407643,
      "lon": 145.75189575023612,
      "geoinfo": {
        "display_name": "Yap Drive, Capitol Hill, Saipan Municipality, Northern Mariana Islands, 96950, United States",
        "road": "Yap Drive",
        "house_number": null,
        "neighbourhood": null,
        "suburb": null,
        "city_district": null,
        "city": "Capitol Hill",
        "state": "Northern Mariana Islands",
        "postcode": "96950",
        "country": "United States",
        "country_code": "us"
      },
      "address": "Yap Drive, Saipan, Northern Mariana Islands, Northern Mariana Islands"
    },
    {
      "lat": 15.178737230093844,
      "lon": 145.7781159489415,
      "geoinfo": {
        "display_name": "Lemmai Way, Kagman II, Saipan Municipality, Northern Mariana Islands, 96950, United States",
        "road": "Lemmai Way",
        "house_number": null,
        "neighbourhood": null,
        "suburb": null,
        "city_district": null,
        "city": "Kagman II",
        "state": "Northern Mariana Islands",
        "postcode": "96950",
        "country": "United States",
        "country_code": "us"
      },
      "address": "Lemmai Way, Saipan, Northern Mariana Islands, Northern Mariana Islands"
    },
    {
      "lat": 15.184728619126265,
      "lon": 145.77197713910365,
      "geoinfo": {
        "display_name": "Nika Place, Hilaihai, Saipan Municipality, Northern Mariana Islands, 96950, United States",
        "road": "Nika Place",
        "house_number": null,
        "neighbourhood": null,
        "suburb": null,
        "city_district": null,
        "city": "Hilaihai",
        "state": "Northern Mariana Islands",
        "postcode": "96950",
        "country": "United States",
        "country_code": "us"
      },
      "address": "Nika Place, Saipan, Northern Mariana Islands, Northern Mariana Islands"
    },
    {
      "lat": 15.198377572433659,
      "lon": 145.71770605517267,
      "geoinfo": {
        "display_name": "Alaihai Street, Garapan, Saipan Municipality, Northern Mariana Islands, 96950, United States",
        "road": "Alaihai Street",
        "house_number": null,
        "neighbourhood": null,
        "suburb": null,
        "city_district": null,
        "city": "Garapan",
        "state": "Northern Mariana Islands",
        "postcode": "96950",
        "country": "United States",
        "country_code": "us"
      },
      "address": "Alaihai Street, Saipan, Northern Mariana Islands, Northern Mariana Islands"
    },
    {
      "lat": 15.18519549028337,
      "lon": 145.75070514979896,
      "geoinfo": {
        "display_name": "Papago Drive, I Akgak, Saipan Municipality, Northern Mariana Islands, 96950, United States",
        "road": "Papago Drive",
        "house_number": null,
        "neighbourhood": null,
        "suburb": null,
        "city_district": null,
        "city": "I Akgak",
        "state": "Northern Mariana Islands",
        "postcode": "96950",
        "country": "United States",
        "country_code": "us"
      },
      "address": "Papago Drive, Saipan, Northern Mariana Islands, Northern Mariana Islands"
    },
    {
      "lat": 15.220284113913332,
      "lon": 145.7651892758836,
      "geoinfo": {
        "display_name": "Managaha Place, Wireless Ridge, Saipan Municipality, Northern Mariana Islands, 96950, United States",
        "road": "Managaha Place",
        "house_number": null,
        "neighbourhood": null,
        "suburb": null,
        "city_district": null,
        "city": "Wireless Ridge",
        "state": "Northern Mariana Islands",
        "postcode": "96950",
        "country": "United States",
        "country_code": "us"
      },
      "address": "Managaha Place, Saipan, Northern Mariana Islands, Northern Mariana Islands"
    },
    {
      "lat": 15.183290580565375,
      "lon": 145.76408964542097,
      "geoinfo": {
        "display_name": "彩帆八幡神社, Hooni Place, Chacha, Saipan Municipality, Northern Mariana Islands, 96950, United States",
        "road": "Hooni Place",
        "house_number": null,
        "neighbourhood": null,
        "suburb": null,
        "city_district": null,
        "city": "Chacha",
        "state": "Northern Mariana Islands",
        "postcode": "96950",
        "country": "United States",
        "country_code": "us"
      },
      "address": "Hooni Place, Saipan, Northern Mariana Islands, Northern Mariana Islands"
    },
    {
      "lat": 15.192733739379184,
      "lon": 145.74972063167786,
      "geoinfo": {
        "display_name": "Betbena Place, I Akgak, Saipan Municipality, Northern Mariana Islands, 96950, United States",
        "road": "Betbena Place",
        "house_number": null,
        "neighbourhood": null,
        "suburb": null,
        "city_district": null,
        "city": "I Akgak",
        "state": "Northern Mariana Islands",
        "postcode": "96950",
        "country": "United States",
        "country_code": "us"
      },
      "address": "Betbena Place, Saipan, Northern Mariana Islands, Northern Mariana Islands"
    },
    {
      "lat": 15.235806818106486,
      "lon": 145.7849863516156,
      "geoinfo": {
        "display_name": "Chalan Matuis, Nanasu, Saipan Municipality, Northern Mariana Islands, 96950, United States",
        "road": "Chalan Matuis",
        "house_number": null,
        "neighbourhood": null,
        "suburb": null,
        "city_district": null,
        "city": "Nanasu",
        "state": "Northern Mariana Islands",
        "postcode": "96950",
        "country": "United States",
        "country_code": "us"
      },
      "address": "Chalan Matuis, Saipan, Northern Mariana Islands, Northern Mariana Islands"
    },
    {
      "lat": 15.218834591593083,
      "lon": 145.7474085397161,
      "geoinfo": {
        "display_name": "Mate (Hafno) Drive, Wireless Ridge, Saipan Municipality, Northern Mariana Islands, 96950, United States",
        "road": "Mate (Hafno) Drive",
        "house_number": null,
        "neighbourhood": null,
        "suburb": null,
        "city_district": null,
        "city": "Wireless Ridge",
        "state": "Northern Mariana Islands",
        "postcode": "96950",
        "country": "United States",
        "country_code": "us"
      },
      "address": "Mate (Hafno) Drive, Saipan, Northern Mariana Islands, Northern Mariana Islands"
    },
    {
      "lat": 15.213736248089702,
      "lon": 145.7270953049489,
      "geoinfo": {
        "display_name": "Patt Ida Drive, Navy Hill, Saipan Municipality, Northern Mariana Islands, 96950, United States",
        "road": "Patt Ida Drive",
        "house_number": null,
        "neighbourhood": null,
        "suburb": null,
        "city_district": null,
        "city": "Navy Hill",
        "state": "Northern Mariana Islands",
        "postcode": "96950",
        "country": "United States",
        "country_code": "us"
      },
      "address": "Patt Ida Drive, Saipan, Northern Mariana Islands, Northern Mariana Islands"
    },
    {
      "lat": 15.198670736168896,
      "lon": 145.77319429166172,
      "geoinfo": {
        "display_name": "Morhen Place, Hilaihai, Saipan Municipality, Northern Mariana Islands, 96950, United States",
        "road": "Morhen Place",
        "house_number": null,
        "neighbourhood": null,
        "suburb": null,
        "city_district": null,
        "city": "Hilaihai",
        "state": "Northern Mariana Islands",
        "postcode": "96950",
        "country": "United States",
        "country_code": "us"
      },
      "address": "Morhen Place, Saipan, Northern Mariana Islands, Northern Mariana Islands"
    },
    {
      "lat": 15.191821083320956,
      "lon": 145.72726504302312,
      "geoinfo": {
        "display_name": "Historia Place, Gualo Rai, Saipan Municipality, Northern Mariana Islands, 96950, United States",
        "road": "Historia Place",
        "house_number": null,
        "neighbourhood": null,
        "suburb": null,
        "city_district": null,
        "city": "Gualo Rai",
        "state": "Northern Mariana Islands",
        "postcode": "96950",
        "country": "United States",
        "country_code": "us"
      },
      "address": "Historia Place, Saipan, Northern Mariana Islands, Northern Mariana Islands"
    },
    {
      "lat": 15.187606788617739,
      "lon": 145.7253387324144,
      "geoinfo": {
        "display_name": "United Nations Lane, Gualo Rai, Saipan Municipality, Northern Mariana Islands, 96950, United States",
        "road": "United Nations Lane",
        "house_number": null,
        "neighbourhood": null,
        "suburb": null,
        "city_district": null,
        "city": "Gualo Rai",
        "state": "Northern Mariana Islands",
        "postcode": "96950",
        "country": "United States",
        "country_code": "us"
      },
      "address": "United Nations Lane, Saipan, Northern Mariana Islands, Northern Mariana Islands"
    },
    {
      "lat": 15.206598149614322,
      "lon": 145.7191028414159,
      "geoinfo": {
        "display_name": "Flores Rosa Street, Garapan, Saipan Municipality, Northern Mariana Islands, 96950, United States",
        "road": "Flores Rosa Street",
        "house_number": null,
        "neighbourhood": null,
        "suburb": null,
        "city_district": null,
        "city": "Garapan",
        "state": "Northern Mariana Islands",
        "postcode": "96950",
        "country": "United States",
        "country_code": "us"
      },
      "address": "Flores Rosa Street, Saipan, Northern Mariana Islands, Northern Mariana Islands"
    },
    {
      "lat": 15.221787073990294,
      "lon": 145.72584182048305,
      "geoinfo": {
        "display_name": "Basin Place, Puerto Rico, Saipan Municipality, Northern Mariana Islands, 96950, United States",
        "road": "Basin Place",
        "house_number": null,
        "neighbourhood": null,
        "suburb": null,
        "city_district": null,
        "city": "Puerto Rico",
        "state": "Northern Mariana Islands",
        "postcode": "96950",
        "country": "United States",
        "country_code": "us"
      },
      "address": "Basin Place, Saipan, Northern Mariana Islands, Northern Mariana Islands"
    },
    {
      "lat": 15.190927308248554,
      "lon": 145.71810584116284,
      "geoinfo": {
        "display_name": "Kulales Place, Gualo Rai, Saipan Municipality, Northern Mariana Islands, 96950, United States",
        "road": "Kulales Place",
        "house_number": null,
        "neighbourhood": null,
        "suburb": null,
        "city_district": null,
        "city": "Gualo Rai",
        "state": "Northern Mariana Islands",
        "postcode": "96950",
        "country": "United States",
        "country_code": "us"
      },
      "address": "Kulales Place, Saipan, Northern Mariana Islands, Northern Mariana Islands"
    },
    {
      "lat": 15.214490898451063,
      "lon": 145.72738668284347,
      "geoinfo": {
        "display_name": "Saluda Street, Navy Hill, Saipan Municipality, Northern Mariana Islands, 96950, United States",
        "road": "Saluda Street",
        "house_number": null,
        "neighbourhood": null,
        "suburb": null,
        "city_district": null,
        "city": "Navy Hill",
        "state": "Northern Mariana Islands",
        "postcode": "96950",
        "country": "United States",
        "country_code": "us"
      },
      "address": "Saluda Street, Saipan, Northern Mariana Islands, Northern Mariana Islands"
    },
    {
      "lat": 15.248547444648027,
      "lon": 145.76078731942795,
      "geoinfo": {
        "display_name": "Rhoobut Lane, Tanapag, Saipan Municipality, Northern Mariana Islands, 96950, United States",
        "road": "Rhoobut Lane",
        "house_number": null,
        "neighbourhood": null,
        "suburb": null,
        "city_district": null,
        "city": "Tanapag",
        "state": "Northern Mariana Islands",
        "postcode": "96950",
        "country": "United States",
        "country_code": "us"
      },
      "address": "Rhoobut Lane, Saipan, Northern Mariana Islands, Northern Mariana Islands"
    },
    {
      "lat": 15.227313530603556,
      "lon": 145.74264060954977,
      "geoinfo": {
        "display_name": "Manglen Way, Puerto Rico, Saipan Municipality, Northern Mariana Islands, 96950, United States",
        "road": "Manglen Way",
        "house_number": null,
        "neighbourhood": null,
        "suburb": null,
        "city_district": null,
        "city": "Puerto Rico",
        "state": "Northern Mariana Islands",
        "postcode": "96950",
        "country": "United States",
        "country_code": "us"
      },
      "address": "Manglen Way, Saipan, Northern Mariana Islands, Northern Mariana Islands"
    },
    {
      "lat": 15.220533860144329,
      "lon": 145.75497523402194,
      "geoinfo": {
        "display_name": "Ascencion Street, Wireless Ridge, Saipan Municipality, Northern Mariana Islands, 96950, United States",
        "road": "Ascencion Street",
        "house_number": null,
        "neighbourhood": null,
        "suburb": null,
        "city_district": null,
        "city": "Wireless Ridge",
        "state": "Northern Mariana Islands",
        "postcode": "96950",
        "country": "United States",
        "country_code": "us"
      },
      "address": "Ascencion Street, Saipan, Northern Mariana Islands, Northern Mariana Islands"
    },
    {
      "lat": 15.21568869838235,
      "lon": 145.78891380839252,
      "geoinfo": {
        "display_name": "Kingfisher Golf Links, Saipan Municipality, Northern Mariana Islands, 96950, United States",
        "road": "Kingfisher Golf Links",
        "house_number": null,
        "neighbourhood": null,
        "suburb": null,
        "city_district": null,
        "city": null,
        "state": "Northern Mariana Islands",
        "postcode": "96950",
        "country": "United States",
        "country_code": "us"
      },
      "address": "Kingfisher Golf Links, Saipan, Northern Mariana Islands, Northern Mariana Islands"
    },
    {
      "lat": 15.188621220123474,
      "lon": 145.7460775620798,
      "geoinfo": {
        "display_name": "Tapochau Road, Tapochao, Saipan Municipality, Northern Mariana Islands, 96950, United States",
        "road": "Tapochau Road",
        "house_number": null,
        "neighbourhood": null,
        "suburb": null,
        "city_district": null,
        "city": "Tapochao",
        "state": "Northern Mariana Islands",
        "postcode": "96950",
        "country": "United States",
        "country_code": "us"
      },
      "address": "Tapochau Road, Saipan, Northern Mariana Islands, Northern Mariana Islands"
    },
    {
      "lat": 15.217865904496414,
      "lon": 145.75632155223383,
      "geoinfo": {
        "display_name": "Capitol Hill Road, Wireless Ridge, Saipan Municipality, Northern Mariana Islands, 96950, United States",
        "road": "Capitol Hill Road",
        "house_number": null,
        "neighbourhood": null,
        "suburb": null,
        "city_district": null,
        "city": "Wireless Ridge",
        "state": "Northern Mariana Islands",
        "postcode": "96950",
        "country": "United States",
        "country_code": "us"
      },
      "address": "Capitol Hill Road, Saipan, Northern Mariana Islands, Northern Mariana Islands"
    },
    {
      "lat": 15.174253952857374,
      "lon": 145.77812255633063,
      "geoinfo": {
        "display_name": "Alageta Road, Kagman II, Saipan Municipality, Northern Mariana Islands, 96950, United States",
        "road": "Alageta Road",
        "house_number": null,
        "neighbourhood": null,
        "suburb": null,
        "city_district": null,
        "city": "Kagman II",
        "state": "Northern Mariana Islands",
        "postcode": "96950",
        "country": "United States",
        "country_code": "us"
      },
      "address": "Alageta Road, Saipan, Northern Mariana Islands, Northern Mariana Islands"
    },
    {
      "lat": 15.220388438198386,
      "lon": 145.74244331998716,
      "geoinfo": {
        "display_name": "Sadog Tasi Drive, Puerto Rico, Saipan Municipality, Northern Mariana Islands, 96950, United States",
        "road": "Sadog Tasi Drive",
        "house_number": null,
        "neighbourhood": null,
        "suburb": null,
        "city_district": null,
        "city": "Puerto Rico",
        "state": "Northern Mariana Islands",
        "postcode": "96950",
        "country": "United States",
        "country_code": "us"
      },
      "address": "Sadog Tasi Drive, Saipan, Northern Mariana Islands, Northern Mariana Islands"
    },
    {
      "lat": 15.20811835884716,
      "lon": 145.73401124661243,
      "geoinfo": {
        "display_name": "Manamko Place, Chalan Galaide, Saipan Municipality, Northern Mariana Islands, 96950, United States",
        "road": "Manamko Place",
        "house_number": null,
        "neighbourhood": null,
        "suburb": null,
        "city_district": null,
        "city": "Chalan Galaide",
        "state": "Northern Mariana Islands",
        "postcode": "96950",
        "country": "United States",
        "country_code": "us"
      },
      "address": "Manamko Place, Saipan, Northern Mariana Islands, Northern Mariana Islands"
    },
    {
      "lat": 15.228699711674482,
      "lon": 145.73081418432466,
      "geoinfo": {
        "display_name": "Cruise Ship Dock, Puetto Street, Port of Saipan, Puerto Rico, Saipan Municipality, Northern Mariana Islands, 96950, United States",
        "road": "Puetto Street",
        "house_number": null,
        "neighbourhood": null,
        "suburb": null,
        "city_district": null,
        "city": "Puerto Rico",
        "state": "Northern Mariana Islands",
        "postcode": "96950",
        "country": "United States",
        "country_code": "us"
      },
      "address": "Puetto Street, Saipan, Northern Mariana Islands, Northern Mariana Islands"
    },
    {
      "lat": 15.176255035051867,
      "lon": 145.7811464615225,
      "geoinfo": {
        "display_name": "Lalangha Avenue, Kagman IV, Saipan Municipality, Northern Mariana Islands, 96950, United States",
        "road": "Lalangha Avenue",
        "house_number": null,
        "neighbourhood": null,
        "suburb": null,
        "city_district": null,
        "city": "Kagman IV",
        "state": "Northern Mariana Islands",
        "postcode": "96950",
        "country": "United States",
        "country_code": "us"
      },
      "address": "Lalangha Avenue, Saipan, Northern Mariana Islands, Northern Mariana Islands"
    },
    {
      "lat": 15.223292053031658,
      "lon": 145.73945552653015,
      "geoinfo": {
        "display_name": "Baranka Lane, Puerto Rico, Saipan Municipality, Northern Mariana Islands, 96950, United States",
        "road": "Baranka Lane",
        "house_number": null,
        "neighbourhood": null,
        "suburb": null,
        "city_district": null,
        "city": "Puerto Rico",
        "state": "Northern Mariana Islands",
        "postcode": "96950",
        "country": "United States",
        "country_code": "us"
      },
      "address": "Baranka Lane, Saipan, Northern Mariana Islands, Northern Mariana Islands"
    },
    {
      "lat": 15.18362267770797,
      "lon": 145.77145039392565,
      "geoinfo": {
        "display_name": "Anonas Drive, Kagman II, Saipan Municipality, Northern Mariana Islands, 96950, United States",
        "road": "Anonas Drive",
        "house_number": null,
        "neighbourhood": null,
        "suburb": null,
        "city_district": null,
        "city": "Kagman II",
        "state": "Northern Mariana Islands",
        "postcode": "96950",
        "country": "United States",
        "country_code": "us"
      },
      "address": "Anonas Drive, Saipan, Northern Mariana Islands, Northern Mariana Islands"
    },
    {
      "lat": 15.204513405555025,
      "lon": 145.72728411046265,
      "geoinfo": {
        "display_name": "Sugar King Road, China Town, Chalan Galaide, Saipan Municipality, Northern Mariana Islands, 96950, United States",
        "road": "Sugar King Road",
        "house_number": null,
        "neighbourhood": null,
        "suburb": null,
        "city_district": null,
        "city": "Chalan Galaide",
        "state": "Northern Mariana Islands",
        "postcode": "96950",
        "country": "United States",
        "country_code": "us"
      },
      "address": "Sugar King Road, Saipan, Northern Mariana Islands, Northern Mariana Islands"
    },
    {
      "lat": 15.203874060863274,
      "lon": 145.71682358595953,
      "geoinfo": {
        "display_name": "Marianas Medical Center, PMB 145 Box 10003, Beach Road, Garapan, Saipan Municipality, Northern Mariana Islands, 96950, United States",
        "road": "Beach Road",
        "house_number": "PMB 145 Box 10003",
        "neighbourhood": null,
        "suburb": null,
        "city_district": null,
        "city": "Garapan",
        "state": "Northern Mariana Islands",
        "postcode": "96950",
        "country": "United States",
        "country_code": "us"
      },
      "address": "PMB 145 Box 10003 Beach Road, Saipan, Northern Mariana Islands, Northern Mariana Islands"
    },
    {
      "lat": 15.197374241853666,
      "lon": 145.75669980972782,
      "geoinfo": {
        "display_name": "Almond Place, I Akgak, Saipan Municipality, Northern Mariana Islands, 96950, United States",
        "road": "Almond Place",
        "house_number": null,
        "neighbourhood": null,
        "suburb": null,
        "city_district": null,
        "city": "I Akgak",
        "state": "Northern Mariana Islands",
        "postcode": "96950",
        "country": "United States",
        "country_code": "us"
      },
      "address": "Almond Place, Saipan, Northern Mariana Islands, Northern Mariana Islands"
    },
    {
      "lat": 15.20142031647627,
      "lon": 145.74899259103472,
      "geoinfo": {
        "display_name": "Gurugur Lane, Capitol Hill, Saipan Municipality, Northern Mariana Islands, 96950, United States",
        "road": "Gurugur Lane",
        "house_number": null,
        "neighbourhood": null,
        "suburb": null,
        "city_district": null,
        "city": "Capitol Hill",
        "state": "Northern Mariana Islands",
        "postcode": "96950",
        "country": "United States",
        "country_code": "us"
      },
      "address": "Gurugur Lane, Saipan, Northern Mariana Islands, Northern Mariana Islands"
    },
    {
      "lat": 15.180337445608915,
      "lon": 145.748859477406,
      "geoinfo": {
        "display_name": "Sosugi Drive, Papago, Saipan Municipality, Northern Mariana Islands, 96950, United States",
        "road": "Sosugi Drive",
        "house_number": null,
        "neighbourhood": null,
        "suburb": null,
        "city_district": null,
        "city": "Papago",
        "state": "Northern Mariana Islands",
        "postcode": "96950",
        "country": "United States",
        "country_code": "us"
      },
      "address": "Sosugi Drive, Saipan, Northern Mariana Islands, Northern Mariana Islands"
    },
    {
      "lat": 15.187966333795899,
      "lon": 145.75014357466213,
      "geoinfo": {
        "display_name": "La La Place, I Akgak, Saipan Municipality, Northern Mariana Islands, 96950, United States",
        "road": "La La Place",
        "house_number": null,
        "neighbourhood": null,
        "suburb": null,
        "city_district": null,
        "city": "I Akgak",
        "state": "Northern Mariana Islands",
        "postcode": "96950",
        "country": "United States",
        "country_code": "us"
      },
      "address": "La La Place, Saipan, Northern Mariana Islands, Northern Mariana Islands"
    },
    {
      "lat": 15.238425669890587,
      "lon": 145.74194759421022,
      "geoinfo": {
        "display_name": "Karanja Lane, As Mahetog, Saipan Municipality, Northern Mariana Islands, 96950, United States",
        "road": "Karanja Lane",
        "house_number": null,
        "neighbourhood": null,
        "suburb": null,
        "city_district": null,
        "city": "As Mahetog",
        "state": "Northern Mariana Islands",
        "postcode": "96950",
        "country": "United States",
        "country_code": "us"
      },
      "address": "Karanja Lane, Saipan, Northern Mariana Islands, Northern Mariana Islands"
    },
    {
      "lat": 15.248922281436172,
      "lon": 145.77474850301516,
      "geoinfo": {
        "display_name": "Lancho Avenue, San Roque, Saipan Municipality, Northern Mariana Islands, 96950, United States",
        "road": "Lancho Avenue",
        "house_number": null,
        "neighbourhood": null,
        "suburb": null,
        "city_district": null,
        "city": "San Roque",
        "state": "Northern Mariana Islands",
        "postcode": "96950",
        "country": "United States",
        "country_code": "us"
      },
      "address": "Lancho Avenue, Saipan, Northern Mariana Islands, Northern Mariana Islands"
    },
    {
      "lat": 15.219967446806246,
      "lon": 145.718921554028,
      "geoinfo": {
        "display_name": "Roseli Loop, Saipan Municipality, Northern Mariana Islands, 96950, United States",
        "road": "Roseli Loop",
        "house_number": null,
        "neighbourhood": null,
        "suburb": null,
        "city_district": null,
        "city": null,
        "state": "Northern Mariana Islands",
        "postcode": "96950",
        "country": "United States",
        "country_code": "us"
      },
      "address": "Roseli Loop, Saipan, Northern Mariana Islands, Northern Mariana Islands"
    },
    {
      "lat": 15.24387092427449,
      "lon": 145.75277420858242,
      "geoinfo": {
        "display_name": "Satoni Drive, Tanapag, Saipan Municipality, Northern Mariana Islands, 96950, United States",
        "road": "Satoni Drive",
        "house_number": null,
        "neighbourhood": null,
        "suburb": null,
        "city_district": null,
        "city": "Tanapag",
        "state": "Northern Mariana Islands",
        "postcode": "96950",
        "country": "United States",
        "country_code": "us"
      },
      "address": "Satoni Drive, Saipan, Northern Mariana Islands, Northern Mariana Islands"
    },
    {
      "lat": 15.189456831611471,
      "lon": 145.7157738201865,
      "geoinfo": {
        "display_name": "Dotse Place, Gualo Rai, Saipan Municipality, Northern Mariana Islands, 96950, United States",
        "road": "Dotse Place",
        "house_number": null,
        "neighbourhood": null,
        "suburb": null,
        "city_district": null,
        "city": "Gualo Rai",
        "state": "Northern Mariana Islands",
        "postcode": "96950",
        "country": "United States",
        "country_code": "us"
      },
      "address": "Dotse Place, Saipan, Northern Mariana Islands, Northern Mariana Islands"
    },
    {
      "lat": 15.192301404127939,
      "lon": 145.74876649658393,
      "geoinfo": {
        "display_name": "Ink Berry Lane, I Akgak, Saipan Municipality, Northern Mariana Islands, 96950, United States",
        "road": "Ink Berry Lane",
        "house_number": null,
        "neighbourhood": null,
        "suburb": null,
        "city_district": null,
        "city": "I Akgak",
        "state": "Northern Mariana Islands",
        "postcode": "96950",
        "country": "United States",
        "country_code": "us"
      },
      "address": "Ink Berry Lane, Saipan, Northern Mariana Islands, Northern Mariana Islands"
    },
    {
      "lat": 15.186012070986875,
      "lon": 145.72247195435426,
      "geoinfo": {
        "display_name": "Robat Drive, Gualo Rai, Saipan Municipality, Northern Mariana Islands, 96950, United States",
        "road": "Robat Drive",
        "house_number": null,
        "neighbourhood": null,
        "suburb": null,
        "city_district": null,
        "city": "Gualo Rai",
        "state": "Northern Mariana Islands",
        "postcode": "96950",
        "country": "United States",
        "country_code": "us"
      },
      "address": "Robat Drive, Saipan, Northern Mariana Islands, Northern Mariana Islands"
    },
    {
      "lat": 15.207405342363918,
      "lon": 145.72680798266163,
      "geoinfo": {
        "display_name": "Gloria Drive, Mutcho, Navy Hill, Saipan Municipality, Northern Mariana Islands, 96950, United States",
        "road": "Gloria Drive",
        "house_number": null,
        "neighbourhood": null,
        "suburb": null,
        "city_district": null,
        "city": "Navy Hill",
        "state": "Northern Mariana Islands",
        "postcode": "96950",
        "country": "United States",
        "country_code": "us"
      },
      "address": "Gloria Drive, Saipan, Northern Mariana Islands, Northern Mariana Islands"
    },
    {
      "lat": 15.231704868460522,
      "lon": 145.7491466079709,
      "geoinfo": {
        "display_name": "Chalan Sisonyan, Tanapag, Saipan Municipality, Northern Mariana Islands, 96950, United States",
        "road": "Chalan Sisonyan",
        "house_number": null,
        "neighbourhood": null,
        "suburb": null,
        "city_district": null,
        "city": "Tanapag",
        "state": "Northern Mariana Islands",
        "postcode": "96950",
        "country": "United States",
        "country_code": "us"
      },
      "address": "Chalan Sisonyan, Saipan, Northern Mariana Islands, Northern Mariana Islands"
    },
    {
      "lat": 15.2131871689251,
      "lon": 145.71749626509344,
      "geoinfo": {
        "display_name": "Seoul-One Korean Restaurant, Ginger Avenue, Garapan, Saipan Municipality, Northern Mariana Islands, 96950, United States",
        "road": "Ginger Avenue",
        "house_number": null,
        "neighbourhood": null,
        "suburb": null,
        "city_district": null,
        "city": "Garapan",
        "state": "Northern Mariana Islands",
        "postcode": "96950",
        "country": "United States",
        "country_code": "us"
      },
      "address": "Ginger Avenue, Saipan, Northern Mariana Islands, Northern Mariana Islands"
    },
    {
      "lat": 15.213268748076942,
      "lon": 145.75810339822843,
      "geoinfo": {
        "display_name": "Uracas Lane, Capitol Hill, Saipan Municipality, Northern Mariana Islands, 96950, United States",
        "road": "Uracas Lane",
        "house_number": null,
        "neighbourhood": null,
        "suburb": null,
        "city_district": null,
        "city": "Capitol Hill",
        "state": "Northern Mariana Islands",
        "postcode": "96950",
        "country": "United States",
        "country_code": "us"
      },
      "address": "Uracas Lane, Saipan, Northern Mariana Islands, Northern Mariana Islands"
    },
    {
      "lat": 15.233554573295613,
      "lon": 145.73020741625444,
      "geoinfo": {
        "display_name": "Managaha, Saipan Municipality, Northern Mariana Islands, 96950, United States",
        "road": null,
        "house_number": null,
        "neighbourhood": null,
        "suburb": null,
        "city_district": null,
        "city": null,
        "state": "Northern Mariana Islands",
        "postcode": "96950",
        "country": "United States",
        "country_code": "us"
      },
      "address": "387, Saipan, 96950 Northern Mariana Islands, Northern Mariana Islands"
    },
    {
      "lat": 15.20527394762614,
      "lon": 145.71525681950013,
      "geoinfo": {
        "display_name": "Bougainvilla Avenue, Garapan, Saipan Municipality, Northern Mariana Islands, 96950, United States",
        "road": "Bougainvilla Avenue",
        "house_number": null,
        "neighbourhood": null,
        "suburb": null,
        "city_district": null,
        "city": "Garapan",
        "state": "Northern Mariana Islands",
        "postcode": "96950",
        "country": "United States",
        "country_code": "us"
      },
      "address": "099, Bougainvilla Avenue, Saipan, 96950 Northern Mariana Islands, Northern Mariana Islands"
    },
    {
      "lat": 15.175691941202157,
      "lon": 145.75387471992153,
      "geoinfo": {
        "display_name": "Papago, Saipan Municipality, Northern Mariana Islands, 96950, United States",
        "road": null,
        "house_number": null,
        "neighbourhood": null,
        "suburb": null,
        "city_district": null,
        "city": "Papago",
        "state": "Northern Mariana Islands",
        "postcode": "96950",
        "country": "United States",
        "country_code": "us"
      },
      "address": "719, Saipan, 96950 Northern Mariana Islands, Northern Mariana Islands"
    },
    {
      "lat": 15.239793818529307,
      "lon": 145.73887194765015,
      "geoinfo": {
        "display_name": "Puerto Rico, Saipan Municipality, Northern Mariana Islands, 96950, United States",
        "road": null,
        "house_number": null,
        "neighbourhood": null,
        "suburb": null,
        "city_district": null,
        "city": "Puerto Rico",
        "state": "Northern Mariana Islands",
        "postcode": "96950",
        "country": "United States",
        "country_code": "us"
      },
      "address": "025, Saipan, 96950 Northern Mariana Islands, Northern Mariana Islands"
    },
    {
      "lat": 15.220110670130994,
      "lon": 145.74749510046348,
      "geoinfo": {
        "display_name": "Wireless Ridge, Saipan Municipality, Northern Mariana Islands, 96950, United States",
        "road": null,
        "house_number": null,
        "neighbourhood": null,
        "suburb": null,
        "city_district": null,
        "city": "Wireless Ridge",
        "state": "Northern Mariana Islands",
        "postcode": "96950",
        "country": "United States",
        "country_code": "us"
      },
      "address": "332, Saipan, 96950 Northern Mariana Islands, Northern Mariana Islands"
    },
    {
      "lat": 15.195606869645731,
      "lon": 145.7678106723389,
      "geoinfo": {
        "display_name": "Chalan Santa Lourdes, Hilaihai, Saipan Municipality, Northern Mariana Islands, 96950, United States",
        "road": "Chalan Santa Lourdes",
        "house_number": null,
        "neighbourhood": null,
        "suburb": null,
        "city_district": null,
        "city": "Hilaihai",
        "state": "Northern Mariana Islands",
        "postcode": "96950",
        "country": "United States",
        "country_code": "us"
      },
      "address": "152, Chalan Santa Lourdes, Saipan, 96950 Northern Mariana Islands, Northern Mariana Islands"
    },
    {
      "lat": 15.175963338687646,
      "lon": 145.7657066355513,
      "geoinfo": {
        "display_name": "Kagman Road, Kagman III, Saipan Municipality, Northern Mariana Islands, 96950, United States",
        "road": "Kagman Road",
        "house_number": null,
        "neighbourhood": null,
        "suburb": null,
        "city_district": null,
        "city": "Kagman III",
        "state": "Northern Mariana Islands",
        "postcode": "96950",
        "country": "United States",
        "country_code": "us"
      },
      "address": "237, Kagman Road, Saipan, 96950 Northern Mariana Islands, Northern Mariana Islands"
    },
    {
      "lat": 15.229467963520555,
      "lon": 145.7823145421754,
      "geoinfo": {
        "display_name": "Windward Road, San Roque, Saipan Municipality, Northern Mariana Islands, 96950, United States",
        "road": "Windward Road",
        "house_number": null,
        "neighbourhood": null,
        "suburb": null,
        "city_district": null,
        "city": "San Roque",
        "state": "Northern Mariana Islands",
        "postcode": "96950",
        "country": "United States",
        "country_code": "us"
      },
      "address": "432, Windward Road, Saipan, 96950 Northern Mariana Islands, Northern Mariana Islands"
    },
    {
      "lat": 15.182825566069994,
      "lon": 145.72403539111488,
      "geoinfo": {
        "display_name": "Robat Drive, Gualo Rai, Saipan Municipality, Northern Mariana Islands, 96950, United States",
        "road": "Robat Drive",
        "house_number": null,
        "neighbourhood": null,
        "suburb": null,
        "city_district": null,
        "city": "Gualo Rai",
        "state": "Northern Mariana Islands",
        "postcode": "96950",
        "country": "United States",
        "country_code": "us"
      },
      "address": "628, Robat Drive, Saipan, 96950 Northern Mariana Islands, Northern Mariana Islands"
    },
    {
      "lat": 15.238319077473413,
      "lon": 145.74859782577198,
      "geoinfo": {
        "display_name": "Santa Remedios Road, Tanapag, Saipan Municipality, Northern Mariana Islands, 96950, United States",
        "road": "Santa Remedios Road",
        "house_number": null,
        "neighbourhood": null,
        "suburb": null,
        "city_district": null,
        "city": "Tanapag",
        "state": "Northern Mariana Islands",
        "postcode": "96950",
        "country": "United States",
        "country_code": "us"
      },
      "address": "114, Santa Remedios Road, Saipan, 96950 Northern Mariana Islands, Northern Mariana Islands"
    },
    {
      "lat": 15.227490057716127,
      "lon": 145.73373851583352,
      "geoinfo": {
        "display_name": "Cruise Ship Dock, Puetto Street, Port of Saipan, Puerto Rico, Saipan Municipality, Northern Mariana Islands, 96950, United States",
        "road": "Puetto Street",
        "house_number": null,
        "neighbourhood": null,
        "suburb": null,
        "city_district": null,
        "city": "Puerto Rico",
        "state": "Northern Mariana Islands",
        "postcode": "96950",
        "country": "United States",
        "country_code": "us"
      },
      "address": "049, Puetto Street, Saipan, 96950 Northern Mariana Islands, Northern Mariana Islands"
    },
    {
      "lat": 15.25049639723108,
      "lon": 145.77501358379234,
      "geoinfo": {
        "display_name": "San Roque, Saipan Municipality, Northern Mariana Islands, 96950, United States",
        "road": null,
        "house_number": null,
        "neighbourhood": null,
        "suburb": null,
        "city_district": null,
        "city": "San Roque",
        "state": "Northern Mariana Islands",
        "postcode": "96950",
        "country": "United States",
        "country_code": "us"
      },
      "address": "825, Saipan, 96950 Northern Mariana Islands, Northern Mariana Islands"
    },
    {
      "lat": 15.21909727377312,
      "lon": 145.792827084761,
      "geoinfo": {
        "display_name": "Windward Road, San Roque, Saipan Municipality, Northern Mariana Islands, 96950, United States",
        "road": "Windward Road",
        "house_number": null,
        "neighbourhood": null,
        "suburb": null,
        "city_district": null,
        "city": "San Roque",
        "state": "Northern Mariana Islands",
        "postcode": "96950",
        "country": "United States",
        "country_code": "us"
      },
      "address": "231, Windward Road, Saipan, 96950 Northern Mariana Islands, Northern Mariana Islands"
    },
    {
      "lat": 15.174236756766748,
      "lon": 145.73734346739118,
      "geoinfo": {
        "display_name": "Papago, Saipan Municipality, Northern Mariana Islands, 96950, United States",
        "road": null,
        "house_number": null,
        "neighbourhood": null,
        "suburb": null,
        "city_district": null,
        "city": "Papago",
        "state": "Northern Mariana Islands",
        "postcode": "96950",
        "country": "United States",
        "country_code": "us"
      },
      "address": "835, Saipan, 96950 Northern Mariana Islands, Northern Mariana Islands"
    },
    {
      "lat": 15.21888367412545,
      "lon": 145.71106721705695,
      "geoinfo": {
        "display_name": "Hyatt tennis courts, Micro Beach Road, Garapan, Saipan Municipality, Northern Mariana Islands, 96950, United States",
        "road": "Micro Beach Road",
        "house_number": null,
        "neighbourhood": null,
        "suburb": null,
        "city_district": null,
        "city": "Garapan",
        "state": "Northern Mariana Islands",
        "postcode": "96950",
        "country": "United States",
        "country_code": "us"
      },
      "address": "067, Micro Beach Road, Saipan, 96950 Northern Mariana Islands, Northern Mariana Islands"
    },
    {
      "lat": 15.20491884785109,
      "lon": 145.77007750973672,
      "geoinfo": {
        "display_name": "Egigi Drive, Capitol Hill, Saipan Municipality, Northern Mariana Islands, 96950, United States",
        "road": "Egigi Drive",
        "house_number": null,
        "neighbourhood": null,
        "suburb": null,
        "city_district": null,
        "city": "Capitol Hill",
        "state": "Northern Mariana Islands",
        "postcode": "96950",
        "country": "United States",
        "country_code": "us"
      },
      "address": "185, Egigi Drive, Saipan, 96950 Northern Mariana Islands, Northern Mariana Islands"
    },
    {
      "lat": 15.174503464952092,
      "lon": 145.7487329160591,
      "geoinfo": {
        "display_name": "Isa Drive, Papago, Saipan Municipality, Northern Mariana Islands, 96950, United States",
        "road": "Isa Drive",
        "house_number": null,
        "neighbourhood": null,
        "suburb": null,
        "city_district": null,
        "city": "Papago",
        "state": "Northern Mariana Islands",
        "postcode": "96950",
        "country": "United States",
        "country_code": "us"
      },
      "address": "242, Isa Drive, Saipan, 96950 Northern Mariana Islands, Northern Mariana Islands"
    },
    {
      "lat": 15.243771719022883,
      "lon": 145.72368638288555,
      "geoinfo": {
        "display_name": "Managaha, Saipan Municipality, Northern Mariana Islands, 96950, United States",
        "road": null,
        "house_number": null,
        "neighbourhood": null,
        "suburb": null,
        "city_district": null,
        "city": null,
        "state": "Northern Mariana Islands",
        "postcode": "96950",
        "country": "United States",
        "country_code": "us"
      },
      "address": "791, Saipan, 96950 Northern Mariana Islands, Northern Mariana Islands"
    },
    {
      "lat": 15.250179881933704,
      "lon": 145.76699341488762,
      "geoinfo": {
        "display_name": "Chalan Pale Arnold, Tanapag, Saipan Municipality, Northern Mariana Islands, 96950, United States",
        "road": "Chalan Pale Arnold",
        "house_number": null,
        "neighbourhood": null,
        "suburb": null,
        "city_district": null,
        "city": "Tanapag",
        "state": "Northern Mariana Islands",
        "postcode": "96950",
        "country": "United States",
        "country_code": "us"
      },
      "address": "702, Chalan Pale Arnold, Saipan, 96950 Northern Mariana Islands, Northern Mariana Islands"
    },
    {
      "lat": 15.250839650832955,
      "lon": 145.7620322065419,
      "geoinfo": {
        "display_name": "Tanapag, Saipan Municipality, Northern Mariana Islands, 96950, United States",
        "road": null,
        "house_number": null,
        "neighbourhood": null,
        "suburb": null,
        "city_district": null,
        "city": "Tanapag",
        "state": "Northern Mariana Islands",
        "postcode": "96950",
        "country": "United States",
        "country_code": "us"
      },
      "address": "496, Saipan, 96950 Northern Mariana Islands, Northern Mariana Islands"
    },
    {
      "lat": 15.203195613965944,
      "lon": 145.79316111209982,
      "geoinfo": {
        "display_name": "Hilaihai, Saipan Municipality, Northern Mariana Islands, 96950, United States",
        "road": null,
        "house_number": null,
        "neighbourhood": null,
        "suburb": null,
        "city_district": null,
        "city": "Hilaihai",
        "state": "Northern Mariana Islands",
        "postcode": "96950",
        "country": "United States",
        "country_code": "us"
      },
      "address": "232, Saipan, 96950 Northern Mariana Islands, Northern Mariana Islands"
    },
    {
      "lat": 15.210365479555685,
      "lon": 145.79351538994553,
      "geoinfo": {
        "display_name": "Hilaihai, Saipan Municipality, Northern Mariana Islands, 96950, United States",
        "road": null,
        "house_number": null,
        "neighbourhood": null,
        "suburb": null,
        "city_district": null,
        "city": "Hilaihai",
        "state": "Northern Mariana Islands",
        "postcode": "96950",
        "country": "United States",
        "country_code": "us"
      },
      "address": "962, Saipan, 96950 Northern Mariana Islands, Northern Mariana Islands"
    },
    {
      "lat": 15.23384139249001,
      "lon": 145.7759276497523,
      "geoinfo": {
        "display_name": "Bo'bo' Achugao Haya, Chalan Savana, Wireless Ridge, Saipan Municipality, Northern Mariana Islands, 96950, United States",
        "road": "Chalan Savana",
        "house_number": null,
        "neighbourhood": null,
        "suburb": null,
        "city_district": null,
        "city": "Wireless Ridge",
        "state": "Northern Mariana Islands",
        "postcode": "96950",
        "country": "United States",
        "country_code": "us"
      },
      "address": "655, Chalan Savana, Saipan, 96950 Northern Mariana Islands, Northern Mariana Islands"
    },
    {
      "lat": 15.204078548588432,
      "lon": 145.7600429446782,
      "geoinfo": {
        "display_name": "Egigi Drive, Capitol Hill, Saipan Municipality, Northern Mariana Islands, 96950, United States",
        "road": "Egigi Drive",
        "house_number": null,
        "neighbourhood": null,
        "suburb": null,
        "city_district": null,
        "city": "Capitol Hill",
        "state": "Northern Mariana Islands",
        "postcode": "96950",
        "country": "United States",
        "country_code": "us"
      },
      "address": "449, Egigi Drive, Saipan, 96950 Northern Mariana Islands, Northern Mariana Islands"
    },
    {
      "lat": 15.211257855700188,
      "lon": 145.7661180473812,
      "geoinfo": {
        "display_name": "Talofofo Road, Capitol Hill, Saipan Municipality, Northern Mariana Islands, 96950, United States",
        "road": "Talofofo Road",
        "house_number": null,
        "neighbourhood": null,
        "suburb": null,
        "city_district": null,
        "city": "Capitol Hill",
        "state": "Northern Mariana Islands",
        "postcode": "96950",
        "country": "United States",
        "country_code": "us"
      },
      "address": "625, Talofofo Road, Saipan, 96950 Northern Mariana Islands, Northern Mariana Islands"
    },
    {
      "lat": 15.189493058113639,
      "lon": 145.7533902205338,
      "geoinfo": {
        "display_name": "Betbena Drive, I Akgak, Saipan Municipality, Northern Mariana Islands, 96950, United States",
        "road": "Betbena Drive",
        "house_number": null,
        "neighbourhood": null,
        "suburb": null,
        "city_district": null,
        "city": "I Akgak",
        "state": "Northern Mariana Islands",
        "postcode": "96950",
        "country": "United States",
        "country_code": "us"
      },
      "address": "325, Betbena Drive, Saipan, 96950 Northern Mariana Islands, Northern Mariana Islands"
    },
    {
      "lat": 15.20828093009854,
      "lon": 145.74318129219014,
      "geoinfo": {
        "display_name": "Capitol Hill, Saipan Municipality, Northern Mariana Islands, 96950, United States",
        "road": null,
        "house_number": null,
        "neighbourhood": null,
        "suburb": null,
        "city_district": null,
        "city": "Capitol Hill",
        "state": "Northern Mariana Islands",
        "postcode": "96950",
        "country": "United States",
        "country_code": "us"
      },
      "address": "692, Saipan, 96950 Northern Mariana Islands, Northern Mariana Islands"
    },
    {
      "lat": 15.240090410622784,
      "lon": 145.75002213857198,
      "geoinfo": {
        "display_name": "Santa Remedios Road, Tanapag, Saipan Municipality, Northern Mariana Islands, 96950, United States",
        "road": "Santa Remedios Road",
        "house_number": null,
        "neighbourhood": null,
        "suburb": null,
        "city_district": null,
        "city": "Tanapag",
        "state": "Northern Mariana Islands",
        "postcode": "96950",
        "country": "United States",
        "country_code": "us"
      },
      "address": "914, Santa Remedios Road, Saipan, 96950 Northern Mariana Islands, Northern Mariana Islands"
    },
    {
      "lat": 15.219497052759777,
      "lon": 145.75391863478166,
      "geoinfo": {
        "display_name": "Anathan Drive, Wireless Ridge, Saipan Municipality, Northern Mariana Islands, 96950, United States",
        "road": "Anathan Drive",
        "house_number": null,
        "neighbourhood": null,
        "suburb": null,
        "city_district": null,
        "city": "Wireless Ridge",
        "state": "Northern Mariana Islands",
        "postcode": "96950",
        "country": "United States",
        "country_code": "us"
      },
      "address": "791, Anathan Drive, Saipan, 96950 Northern Mariana Islands, Northern Mariana Islands"
    },
    {
      "lat": 15.199864529057551,
      "lon": 145.76867734471907,
      "geoinfo": {
        "display_name": "Chalan Santa Lourdes, Hilaihai, Saipan Municipality, Northern Mariana Islands, 96950, United States",
        "road": "Chalan Santa Lourdes",
        "house_number": null,
        "neighbourhood": null,
        "suburb": null,
        "city_district": null,
        "city": "Hilaihai",
        "state": "Northern Mariana Islands",
        "postcode": "96950",
        "country": "United States",
        "country_code": "us"
      },
      "address": "798, Chalan Santa Lourdes, Saipan, 96950 Northern Mariana Islands, Northern Mariana Islands"
    },
    {
      "lat": 15.2247531413296,
      "lon": 145.71732721956843,
      "geoinfo": {
        "display_name": "Micro Beach, Wedelia Avenue, Saipan Municipality, Northern Mariana Islands, 96950, United States",
        "road": "Wedelia Avenue",
        "house_number": null,
        "neighbourhood": null,
        "suburb": null,
        "city_district": null,
        "city": null,
        "state": "Northern Mariana Islands",
        "postcode": "96950",
        "country": "United States",
        "country_code": "us"
      },
      "address": "218, Wedelia Avenue, Saipan, 96950 Northern Mariana Islands, Northern Mariana Islands"
    },
    {
      "lat": 15.232058283022855,
      "lon": 145.74137059720493,
      "geoinfo": {
        "display_name": "Puerto Rico, Saipan Municipality, Northern Mariana Islands, 96950, United States",
        "road": null,
        "house_number": null,
        "neighbourhood": null,
        "suburb": null,
        "city_district": null,
        "city": "Puerto Rico",
        "state": "Northern Mariana Islands",
        "postcode": "96950",
        "country": "United States",
        "country_code": "us"
      },
      "address": "076, Saipan, 96950 Northern Mariana Islands, Northern Mariana Islands"
    },
    {
      "lat": 15.23829136162084,
      "lon": 145.77308717137183,
      "geoinfo": {
        "display_name": "Chalan Savana, Wireless Ridge, Saipan Municipality, Northern Mariana Islands, 96950, United States",
        "road": "Chalan Savana",
        "house_number": null,
        "neighbourhood": null,
        "suburb": null,
        "city_district": null,
        "city": "Wireless Ridge",
        "state": "Northern Mariana Islands",
        "postcode": "96950",
        "country": "United States",
        "country_code": "us"
      },
      "address": "947, Chalan Savana, Saipan, 96950 Northern Mariana Islands, Northern Mariana Islands"
    },
    {
      "lat": 15.253573556384103,
      "lon": 145.73952276485966,
      "geoinfo": {
        "display_name": "As Mahetog, Saipan Municipality, Northern Mariana Islands, 96950, United States",
        "road": null,
        "house_number": null,
        "neighbourhood": null,
        "suburb": null,
        "city_district": null,
        "city": "As Mahetog",
        "state": "Northern Mariana Islands",
        "postcode": "96950",
        "country": "United States",
        "country_code": "us"
      },
      "address": "282, Saipan, 96950 Northern Mariana Islands, Northern Mariana Islands"
    },
    {
      "lat": 15.188742079900006,
      "lon": 145.74340773373976,
      "geoinfo": {
        "display_name": "Tapochau Road, I Akgak, Saipan Municipality, Northern Mariana Islands, 96950, United States",
        "road": "Tapochau Road",
        "house_number": null,
        "neighbourhood": null,
        "suburb": null,
        "city_district": null,
        "city": "I Akgak",
        "state": "Northern Mariana Islands",
        "postcode": "96950",
        "country": "United States",
        "country_code": "us"
      },
      "address": "823, Tapochau Road, Saipan, 96950 Northern Mariana Islands, Northern Mariana Islands"
    },
    {
      "lat": 15.224504959950835,
      "lon": 145.73636650212393,
      "geoinfo": {
        "display_name": "Industrial Drive, Puerto Rico, Saipan Municipality, Northern Mariana Islands, 96950, United States",
        "road": "Industrial Drive",
        "house_number": null,
        "neighbourhood": null,
        "suburb": null,
        "city_district": null,
        "city": "Puerto Rico",
        "state": "Northern Mariana Islands",
        "postcode": "96950",
        "country": "United States",
        "country_code": "us"
      },
      "address": "836, Industrial Drive, Saipan, 96950 Northern Mariana Islands, Northern Mariana Islands"
    },
    {
      "lat": 15.23377939889572,
      "lon": 145.77837652478325,
      "geoinfo": {
        "display_name": "Bo'bo' Achugao Haya, Chalan Savana, Wireless Ridge, Saipan Municipality, Northern Mariana Islands, 96950, United States",
        "road": "Chalan Savana",
        "house_number": null,
        "neighbourhood": null,
        "suburb": null,
        "city_district": null,
        "city": "Wireless Ridge",
        "state": "Northern Mariana Islands",
        "postcode": "96950",
        "country": "United States",
        "country_code": "us"
      },
      "address": "310, Chalan Savana, Saipan, 96950 Northern Mariana Islands, Northern Mariana Islands"
    },
    {
      "lat": 15.193229597871172,
      "lon": 145.7347545338226,
      "geoinfo": {
        "display_name": "Waserak Road, As Falipe, Tapochao, Saipan Municipality, Northern Mariana Islands, 96950, United States",
        "road": "Waserak Road",
        "house_number": null,
        "neighbourhood": null,
        "suburb": null,
        "city_district": null,
        "city": "Tapochao",
        "state": "Northern Mariana Islands",
        "postcode": "96950",
        "country": "United States",
        "country_code": "us"
      },
      "address": "318, Waserak Road, Saipan, 96950 Northern Mariana Islands, Northern Mariana Islands"
    },
    {
      "lat": 15.200069800681707,
      "lon": 145.75900089224214,
      "geoinfo": {
        "display_name": "Isa Drive, Chacha, Saipan Municipality, Northern Mariana Islands, 96950, United States",
        "road": "Isa Drive",
        "house_number": null,
        "neighbourhood": null,
        "suburb": null,
        "city_district": null,
        "city": "Chacha",
        "state": "Northern Mariana Islands",
        "postcode": "96950",
        "country": "United States",
        "country_code": "us"
      },
      "address": "071, Isa Drive, Saipan, 96950 Northern Mariana Islands, Northern Mariana Islands"
    },
    {
      "lat": 15.233106370624155,
      "lon": 145.75059357589004,
      "geoinfo": {
        "display_name": "Tanapag, Saipan Municipality, Northern Mariana Islands, 96950, United States",
        "road": null,
        "house_number": null,
        "neighbourhood": null,
        "suburb": null,
        "city_district": null,
        "city": "Tanapag",
        "state": "Northern Mariana Islands",
        "postcode": "96950",
        "country": "United States",
        "country_code": "us"
      },
      "address": "526, Saipan, 96950 Northern Mariana Islands, Northern Mariana Islands"
    },
    {
      "lat": 15.192214446407185,
      "lon": 145.76416811323978,
      "geoinfo": {
        "display_name": "Chacha, Saipan Municipality, Northern Mariana Islands, 96950, United States",
        "road": null,
        "house_number": null,
        "neighbourhood": null,
        "suburb": null,
        "city_district": null,
        "city": "Chacha",
        "state": "Northern Mariana Islands",
        "postcode": "96950",
        "country": "United States",
        "country_code": "us"
      },
      "address": "936, Saipan, 96950 Northern Mariana Islands, Northern Mariana Islands"
    },
    {
      "lat": 15.253532634855517,
      "lon": 145.74253533611088,
      "geoinfo": {
        "display_name": "As Mahetog, Saipan Municipality, Northern Mariana Islands, 96950, United States",
        "road": null,
        "house_number": null,
        "neighbourhood": null,
        "suburb": null,
        "city_district": null,
        "city": "As Mahetog",
        "state": "Northern Mariana Islands",
        "postcode": "96950",
        "country": "United States",
        "country_code": "us"
      },
      "address": "795, Saipan, 96950 Northern Mariana Islands, Northern Mariana Islands"
    },
    {
      "lat": 15.235496026976202,
      "lon": 145.77575530443275,
      "geoinfo": {
        "display_name": "Chalan Savana, Wireless Ridge, Saipan Municipality, Northern Mariana Islands, 96950, United States",
        "road": "Chalan Savana",
        "house_number": null,
        "neighbourhood": null,
        "suburb": null,
        "city_district": null,
        "city": "Wireless Ridge",
        "state": "Northern Mariana Islands",
        "postcode": "96950",
        "country": "United States",
        "country_code": "us"
      },
      "address": "598, Chalan Savana, Saipan, 96950 Northern Mariana Islands, Northern Mariana Islands"
    },
    {
      "lat": 15.208951802528382,
      "lon": 145.75701134726324,
      "geoinfo": {
        "display_name": "Talofofo Road, Capitol Hill, Saipan Municipality, Northern Mariana Islands, 96950, United States",
        "road": "Talofofo Road",
        "house_number": null,
        "neighbourhood": null,
        "suburb": null,
        "city_district": null,
        "city": "Capitol Hill",
        "state": "Northern Mariana Islands",
        "postcode": "96950",
        "country": "United States",
        "country_code": "us"
      },
      "address": "365, Talofofo Road, Saipan, 96950 Northern Mariana Islands, Northern Mariana Islands"
    },
    {
      "lat": 15.237535772556306,
      "lon": 145.76746535652043,
      "geoinfo": {
        "display_name": "Bobo Achugao, Ammurh Drive, Tanapag, Saipan Municipality, Northern Mariana Islands, 96950, United States",
        "road": "Ammurh Drive",
        "house_number": null,
        "neighbourhood": null,
        "suburb": null,
        "city_district": null,
        "city": "Tanapag",
        "state": "Northern Mariana Islands",
        "postcode": "96950",
        "country": "United States",
        "country_code": "us"
      },
      "address": "054, Ammurh Drive, Saipan, 96950 Northern Mariana Islands, Northern Mariana Islands"
    },
    {
      "lat": 15.236920196843673,
      "lon": 145.78806575586455,
      "geoinfo": {
        "display_name": "Chalan Matuis, Nanasu, Saipan Municipality, Northern Mariana Islands, 96950, United States",
        "road": "Chalan Matuis",
        "house_number": null,
        "neighbourhood": null,
        "suburb": null,
        "city_district": null,
        "city": "Nanasu",
        "state": "Northern Mariana Islands",
        "postcode": "96950",
        "country": "United States",
        "country_code": "us"
      },
      "address": "272, Chalan Matuis, Saipan, 96950 Northern Mariana Islands, Northern Mariana Islands"
    },
    {
      "lat": 15.198092834708953,
      "lon": 145.78587487588263,
      "geoinfo": {
        "display_name": "Hilaihai, Saipan Municipality, Northern Mariana Islands, 96950, United States",
        "road": null,
        "house_number": null,
        "neighbourhood": null,
        "suburb": null,
        "city_district": null,
        "city": "Hilaihai",
        "state": "Northern Mariana Islands",
        "postcode": "96950",
        "country": "United States",
        "country_code": "us"
      },
      "address": "012, Saipan, 96950 Northern Mariana Islands, Northern Mariana Islands"
    },
    {
      "lat": 15.200078701590806,
      "lon": 145.75966018459056,
      "geoinfo": {
        "display_name": "Gaga Khristy Drive, Capitol Hill, Saipan Municipality, Northern Mariana Islands, 96950, United States",
        "road": "Gaga Khristy Drive",
        "house_number": null,
        "neighbourhood": null,
        "suburb": null,
        "city_district": null,
        "city": "Capitol Hill",
        "state": "Northern Mariana Islands",
        "postcode": "96950",
        "country": "United States",
        "country_code": "us"
      },
      "address": "308, Gaga Khristy Drive, Saipan, 96950 Northern Mariana Islands, Northern Mariana Islands"
    },
    {
      "lat": 15.204587148912168,
      "lon": 145.7971785514319,
      "geoinfo": {
        "display_name": "Hilaihai, Saipan Municipality, Northern Mariana Islands, 96950, United States",
        "road": null,
        "house_number": null,
        "neighbourhood": null,
        "suburb": null,
        "city_district": null,
        "city": "Hilaihai",
        "state": "Northern Mariana Islands",
        "postcode": "96950",
        "country": "United States",
        "country_code": "us"
      },
      "address": "540, Saipan, 96950 Northern Mariana Islands, Northern Mariana Islands"
    },
    {
      "lat": 15.2056209329851,
      "lon": 145.7213112998633,
      "geoinfo": {
        "display_name": "Husga Avenue, Mutcho, Gualo Rai, Saipan Municipality, Northern Mariana Islands, 96950, United States",
        "road": "Husga Avenue",
        "house_number": null,
        "neighbourhood": null,
        "suburb": null,
        "city_district": null,
        "city": "Gualo Rai",
        "state": "Northern Mariana Islands",
        "postcode": "96950",
        "country": "United States",
        "country_code": "us"
      },
      "address": "524, Husga Avenue, Saipan, 96950 Northern Mariana Islands, Northern Mariana Islands"
    },
    {
      "lat": 15.206420632981665,
      "lon": 145.71327030858342,
      "geoinfo": {
        "display_name": "Bougainvilla Avenue, Garapan, Saipan Municipality, Northern Mariana Islands, 96950, United States",
        "road": "Bougainvilla Avenue",
        "house_number": null,
        "neighbourhood": null,
        "suburb": null,
        "city_district": null,
        "city": "Garapan",
        "state": "Northern Mariana Islands",
        "postcode": "96950",
        "country": "United States",
        "country_code": "us"
      },
      "address": "293, Bougainvilla Avenue, Saipan, 96950 Northern Mariana Islands, Northern Mariana Islands"
    },
    {
      "lat": 15.240266123618133,
      "lon": 145.7888294783564,
      "geoinfo": {
        "display_name": "Chalan Matuis, Nanasu, Saipan Municipality, Northern Mariana Islands, 96950, United States",
        "road": "Chalan Matuis",
        "house_number": null,
        "neighbourhood": null,
        "suburb": null,
        "city_district": null,
        "city": "Nanasu",
        "state": "Northern Mariana Islands",
        "postcode": "96950",
        "country": "United States",
        "country_code": "us"
      },
      "address": "240, Chalan Matuis, Saipan, 96950 Northern Mariana Islands, Northern Mariana Islands"
    },
    {
      "lat": 15.18231754937541,
      "lon": 145.73271359664386,
      "geoinfo": {
        "display_name": "Waserak Road, As Falipe, Tapochao, Saipan Municipality, Northern Mariana Islands, 96950, United States",
        "road": "Waserak Road",
        "house_number": null,
        "neighbourhood": null,
        "suburb": null,
        "city_district": null,
        "city": "Tapochao",
        "state": "Northern Mariana Islands",
        "postcode": "96950",
        "country": "United States",
        "country_code": "us"
      },
      "address": "862, Waserak Road, Saipan, 96950 Northern Mariana Islands, Northern Mariana Islands"
    },
    {
      "lat": 15.179993259884267,
      "lon": 145.7806478987939,
      "geoinfo": {
        "display_name": "Pugua Avenue, Kagman IV, Saipan Municipality, Northern Mariana Islands, 96950, United States",
        "road": "Pugua Avenue",
        "house_number": null,
        "neighbourhood": null,
        "suburb": null,
        "city_district": null,
        "city": "Kagman IV",
        "state": "Northern Mariana Islands",
        "postcode": "96950",
        "country": "United States",
        "country_code": "us"
      },
      "address": "768, Pugua Avenue, Saipan, 96950 Northern Mariana Islands, Northern Mariana Islands"
    },
    {
      "lat": 15.247775707088241,
      "lon": 145.74596371295485,
      "geoinfo": {
        "display_name": "As Mahetog, Saipan Municipality, Northern Mariana Islands, 96950, United States",
        "road": null,
        "house_number": null,
        "neighbourhood": null,
        "suburb": null,
        "city_district": null,
        "city": "As Mahetog",
        "state": "Northern Mariana Islands",
        "postcode": "96950",
        "country": "United States",
        "country_code": "us"
      },
      "address": "933, Saipan, 96950 Northern Mariana Islands, Northern Mariana Islands"
    },
    {
      "lat": 15.172079750896318,
      "lon": 145.74795444250958,
      "geoinfo": {
        "display_name": "Laulau Bay, Saipan Municipality, Northern Mariana Islands, 96950, United States",
        "road": null,
        "house_number": null,
        "neighbourhood": null,
        "suburb": null,
        "city_district": null,
        "city": "Laulau Bay",
        "state": "Northern Mariana Islands",
        "postcode": "96950",
        "country": "United States",
        "country_code": "us"
      },
      "address": "573, Saipan, 96950 Northern Mariana Islands, Northern Mariana Islands"
    },
    {
      "lat": 15.19761045520486,
      "lon": 145.7249087082987,
      "geoinfo": {
        "display_name": "Raghisch Street, Mutcho, Gualo Rai, Saipan Municipality, Northern Mariana Islands, 96950, United States",
        "road": "Raghisch Street",
        "house_number": null,
        "neighbourhood": null,
        "suburb": null,
        "city_district": null,
        "city": "Gualo Rai",
        "state": "Northern Mariana Islands",
        "postcode": "96950",
        "country": "United States",
        "country_code": "us"
      },
      "address": "969, Raghisch Street, Saipan, 96950 Northern Mariana Islands, Northern Mariana Islands"
    },
    {
      "lat": 15.24743419275281,
      "lon": 145.77536522814984,
      "geoinfo": {
        "display_name": "Lancho Avenue, San Roque, Saipan Municipality, Northern Mariana Islands, 96950, United States",
        "road": "Lancho Avenue",
        "house_number": null,
        "neighbourhood": null,
        "suburb": null,
        "city_district": null,
        "city": "San Roque",
        "state": "Northern Mariana Islands",
        "postcode": "96950",
        "country": "United States",
        "country_code": "us"
      },
      "address": "705, Lancho Avenue, Saipan, 96950 Northern Mariana Islands, Northern Mariana Islands"
    },
    {
      "lat": 15.241241377944375,
      "lon": 145.72158713849768,
      "geoinfo": {
        "display_name": "Managaha, Saipan Municipality, Northern Mariana Islands, 96950, United States",
        "road": null,
        "house_number": null,
        "neighbourhood": null,
        "suburb": null,
        "city_district": null,
        "city": null,
        "state": "Northern Mariana Islands",
        "postcode": "96950",
        "country": "United States",
        "country_code": "us"
      },
      "address": "953, Saipan, 96950 Northern Mariana Islands, Northern Mariana Islands"
    },
    {
      "lat": 15.215138892118475,
      "lon": 145.77304614774707,
      "geoinfo": {
        "display_name": "Talofofo Road, Saipan Municipality, Northern Mariana Islands, 96950, United States",
        "road": "Talofofo Road",
        "house_number": null,
        "neighbourhood": null,
        "suburb": null,
        "city_district": null,
        "city": null,
        "state": "Northern Mariana Islands",
        "postcode": "96950",
        "country": "United States",
        "country_code": "us"
      },
      "address": "036, Talofofo Road, Saipan, 96950 Northern Mariana Islands, Northern Mariana Islands"
    },
    {
      "lat": 15.190931710993418,
      "lon": 145.76309523461612,
      "geoinfo": {
        "display_name": "Chacha, Saipan Municipality, Northern Mariana Islands, 96950, United States",
        "road": null,
        "house_number": null,
        "neighbourhood": null,
        "suburb": null,
        "city_district": null,
        "city": "Chacha",
        "state": "Northern Mariana Islands",
        "postcode": "96950",
        "country": "United States",
        "country_code": "us"
      },
      "address": "254, Saipan, 96950 Northern Mariana Islands, Northern Mariana Islands"
    },
    {
      "lat": 15.175793574096051,
      "lon": 145.74314047631373,
      "geoinfo": {
        "display_name": "Tagan Tagan Drive, Papago, Saipan Municipality, Northern Mariana Islands, 96950, United States",
        "road": "Tagan Tagan Drive",
        "house_number": null,
        "neighbourhood": null,
        "suburb": null,
        "city_district": null,
        "city": "Papago",
        "state": "Northern Mariana Islands",
        "postcode": "96950",
        "country": "United States",
        "country_code": "us"
      },
      "address": "588, Tagan Tagan Drive, Saipan, 96950 Northern Mariana Islands, Northern Mariana Islands"
    },
    {
      "lat": 15.216501660478048,
      "lon": 145.70939570884798,
      "geoinfo": {
        "display_name": "USS Asphalt, Micro Beach Road, Garapan, Saipan Municipality, Northern Mariana Islands, 96950, United States",
        "road": "Micro Beach Road",
        "house_number": null,
        "neighbourhood": null,
        "suburb": null,
        "city_district": null,
        "city": "Garapan",
        "state": "Northern Mariana Islands",
        "postcode": "96950",
        "country": "United States",
        "country_code": "us"
      },
      "address": "021, Micro Beach Road, Saipan, 96950 Northern Mariana Islands, Northern Mariana Islands"
    },
    {
      "lat": 15.215216249395375,
      "lon": 145.76339819841098,
      "geoinfo": {
        "display_name": "Wireless Ridge, Saipan Municipality, Northern Mariana Islands, 96950, United States",
        "road": null,
        "house_number": null,
        "neighbourhood": null,
        "suburb": null,
        "city_district": null,
        "city": "Wireless Ridge",
        "state": "Northern Mariana Islands",
        "postcode": "96950",
        "country": "United States",
        "country_code": "us"
      },
      "address": "360, Saipan, 96950 Northern Mariana Islands, Northern Mariana Islands"
    },
    {
      "lat": 15.208191378359805,
      "lon": 145.7216688258916,
      "geoinfo": {
        "display_name": "Gobietno Drive, Mutcho, Navy Hill, Saipan Municipality, Northern Mariana Islands, 96950, United States",
        "road": "Gobietno Drive",
        "house_number": null,
        "neighbourhood": null,
        "suburb": null,
        "city_district": null,
        "city": "Navy Hill",
        "state": "Northern Mariana Islands",
        "postcode": "96950",
        "country": "United States",
        "country_code": "us"
      },
      "address": "668, Gobietno Drive, Saipan, 96950 Northern Mariana Islands, Northern Mariana Islands"
    },
    {
      "lat": 15.232350572975385,
      "lon": 145.78075693083176,
      "geoinfo": {
        "display_name": "Bo'bo' Achugao Haya, Chalan Savana, Wireless Ridge, Saipan Municipality, Northern Mariana Islands, 96950, United States",
        "road": "Chalan Savana",
        "house_number": null,
        "neighbourhood": null,
        "suburb": null,
        "city_district": null,
        "city": "Wireless Ridge",
        "state": "Northern Mariana Islands",
        "postcode": "96950",
        "country": "United States",
        "country_code": "us"
      },
      "address": "380, Chalan Savana, Saipan, 96950 Northern Mariana Islands, Northern Mariana Islands"
    },
    {
      "lat": 15.174180713656437,
      "lon": 145.75892752849148,
      "geoinfo": {
        "display_name": "Sumak Place, Kagman, Saipan Municipality, Northern Mariana Islands, 96950, United States",
        "road": "Sumak Place",
        "house_number": null,
        "neighbourhood": null,
        "suburb": null,
        "city_district": null,
        "city": "Kagman",
        "state": "Northern Mariana Islands",
        "postcode": "96950",
        "country": "United States",
        "country_code": "us"
      },
      "address": "967, Sumak Place, Saipan, 96950 Northern Mariana Islands, Northern Mariana Islands"
    },
    {
      "lat": 15.20528749372568,
      "lon": 145.778543471545,
      "geoinfo": {
        "display_name": "Egigi Drive, Capitol Hill, Saipan Municipality, Northern Mariana Islands, 96950, United States",
        "road": "Egigi Drive",
        "house_number": null,
        "neighbourhood": null,
        "suburb": null,
        "city_district": null,
        "city": "Capitol Hill",
        "state": "Northern Mariana Islands",
        "postcode": "96950",
        "country": "United States",
        "country_code": "us"
      },
      "address": "687, Egigi Drive, Saipan, 96950 Northern Mariana Islands, Northern Mariana Islands"
    },
    {
      "lat": 15.234850318804858,
      "lon": 145.76006411726968,
      "geoinfo": {
        "display_name": "Tanapag, Saipan Municipality, Northern Mariana Islands, 96950, United States",
        "road": null,
        "house_number": null,
        "neighbourhood": null,
        "suburb": null,
        "city_district": null,
        "city": "Tanapag",
        "state": "Northern Mariana Islands",
        "postcode": "96950",
        "country": "United States",
        "country_code": "us"
      },
      "address": "854, Saipan, 96950 Northern Mariana Islands, Northern Mariana Islands"
    },
    {
      "lat": 15.204120259667153,
      "lon": 145.74254999422874,
      "geoinfo": {
        "display_name": "Navy Hill Road, Tapochao, Saipan Municipality, Northern Mariana Islands, 96950, United States",
        "road": "Navy Hill Road",
        "house_number": null,
        "neighbourhood": null,
        "suburb": null,
        "city_district": null,
        "city": "Tapochao",
        "state": "Northern Mariana Islands",
        "postcode": "96950",
        "country": "United States",
        "country_code": "us"
      },
      "address": "500, Navy Hill Road, Saipan, 96950 Northern Mariana Islands, Northern Mariana Islands"
    },
    {
      "lat": 15.172937667136365,
      "lon": 145.7507776510553,
      "geoinfo": {
        "display_name": "Fresko Place, Laulau Bay, Saipan Municipality, Northern Mariana Islands, 96950, United States",
        "road": "Fresko Place",
        "house_number": null,
        "neighbourhood": null,
        "suburb": null,
        "city_district": null,
        "city": "Laulau Bay",
        "state": "Northern Mariana Islands",
        "postcode": "96950",
        "country": "United States",
        "country_code": "us"
      },
      "address": "728, Fresko Place, Saipan, 96950 Northern Mariana Islands, Northern Mariana Islands"
    },
    {
      "lat": 15.232826104478594,
      "lon": 145.76652943495378,
      "geoinfo": {
        "display_name": "Chalan Savana, Wireless Ridge, Saipan Municipality, Northern Mariana Islands, 96950, United States",
        "road": "Chalan Savana",
        "house_number": null,
        "neighbourhood": null,
        "suburb": null,
        "city_district": null,
        "city": "Wireless Ridge",
        "state": "Northern Mariana Islands",
        "postcode": "96950",
        "country": "United States",
        "country_code": "us"
      },
      "address": "779, Chalan Savana, Saipan, 96950 Northern Mariana Islands, Northern Mariana Islands"
    },
    {
      "lat": 15.184920301070656,
      "lon": 145.7645506990838,
      "geoinfo": {
        "display_name": "Chacha, Saipan Municipality, Northern Mariana Islands, 96950, United States",
        "road": null,
        "house_number": null,
        "neighbourhood": null,
        "suburb": null,
        "city_district": null,
        "city": "Chacha",
        "state": "Northern Mariana Islands",
        "postcode": "96950",
        "country": "United States",
        "country_code": "us"
      },
      "address": "010, Saipan, 96950 Northern Mariana Islands, Northern Mariana Islands"
    },
    {
      "lat": 15.218185139673494,
      "lon": 145.74023830584974,
      "geoinfo": {
        "display_name": "Marinu Place, Puerto Rico, Saipan Municipality, Northern Mariana Islands, 96950, United States",
        "road": "Marinu Place",
        "house_number": null,
        "neighbourhood": null,
        "suburb": null,
        "city_district": null,
        "city": "Puerto Rico",
        "state": "Northern Mariana Islands",
        "postcode": "96950",
        "country": "United States",
        "country_code": "us"
      },
      "address": "058, Marinu Place, Saipan, 96950 Northern Mariana Islands, Northern Mariana Islands"
    },
    {
      "lat": 15.224440392674923,
      "lon": 145.72611627346672,
      "geoinfo": {
        "display_name": "Basin Place, Puerto Rico, Saipan Municipality, Northern Mariana Islands, 96950, United States",
        "road": "Basin Place",
        "house_number": null,
        "neighbourhood": null,
        "suburb": null,
        "city_district": null,
        "city": "Puerto Rico",
        "state": "Northern Mariana Islands",
        "postcode": "96950",
        "country": "United States",
        "country_code": "us"
      },
      "address": "927, Basin Place, Saipan, 96950 Northern Mariana Islands, Northern Mariana Islands"
    },
    {
      "lat": 15.19802277745016,
      "lon": 145.7452235948196,
      "geoinfo": {
        "display_name": "Tapochau Road, Tapochao, Saipan Municipality, Northern Mariana Islands, 96950, United States",
        "road": "Tapochau Road",
        "house_number": null,
        "neighbourhood": null,
        "suburb": null,
        "city_district": null,
        "city": "Tapochao",
        "state": "Northern Mariana Islands",
        "postcode": "96950",
        "country": "United States",
        "country_code": "us"
      },
      "address": "166, Tapochau Road, Saipan, 96950 Northern Mariana Islands, Northern Mariana Islands"
    },
    {
      "lat": 15.205111780209839,
      "lon": 145.7733440904023,
      "geoinfo": {
        "display_name": "Egigi Drive, Capitol Hill, Saipan Municipality, Northern Mariana Islands, 96950, United States",
        "road": "Egigi Drive",
        "house_number": null,
        "neighbourhood": null,
        "suburb": null,
        "city_district": null,
        "city": "Capitol Hill",
        "state": "Northern Mariana Islands",
        "postcode": "96950",
        "country": "United States",
        "country_code": "us"
      },
      "address": "702, Egigi Drive, Saipan, 96950 Northern Mariana Islands, Northern Mariana Islands"
    },
    {
      "lat": 15.228241479564517,
      "lon": 145.76977694599768,
      "geoinfo": {
        "display_name": "Chalan Savana, Wireless Ridge, Saipan Municipality, Northern Mariana Islands, 96950, United States",
        "road": "Chalan Savana",
        "house_number": null,
        "neighbourhood": null,
        "suburb": null,
        "city_district": null,
        "city": "Wireless Ridge",
        "state": "Northern Mariana Islands",
        "postcode": "96950",
        "country": "United States",
        "country_code": "us"
      },
      "address": "304, Chalan Savana, Saipan, 96950 Northern Mariana Islands, Northern Mariana Islands"
    },
    {
      "lat": 15.22206328496257,
      "lon": 145.74804282098128,
      "geoinfo": {
        "display_name": "Isa Drive, Chacha, Saipan Municipality, Northern Mariana Islands, 96950, United States",
        "road": "Isa Drive",
        "house_number": null,
        "neighbourhood": null,
        "suburb": null,
        "city_district": null,
        "city": "Chacha",
        "state": "Northern Mariana Islands",
        "postcode": "96950",
        "country": "United States",
        "country_code": "us"
      },
      "address": "331, Isa Drive, Saipan, 96950 Northern Mariana Islands, Northern Mariana Islands"
    },
    {
      "lat": 15.190199669215,
      "lon": 145.76333123692027,
      "geoinfo": {
        "display_name": "Chacha, Saipan Municipality, Northern Mariana Islands, 96950, United States",
        "road": null,
        "house_number": null,
        "neighbourhood": null,
        "suburb": null,
        "city_district": null,
        "city": "Chacha",
        "state": "Northern Mariana Islands",
        "postcode": "96950",
        "country": "United States",
        "country_code": "us"
      },
      "address": "872, Saipan, 96950 Northern Mariana Islands, Northern Mariana Islands"
    },
    {
      "lat": 15.179447701216517,
      "lon": 145.7497694067678,
      "geoinfo": {
        "display_name": "Sosugi Drive, Papago, Saipan Municipality, Northern Mariana Islands, 96950, United States",
        "road": "Sosugi Drive",
        "house_number": null,
        "neighbourhood": null,
        "suburb": null,
        "city_district": null,
        "city": "Papago",
        "state": "Northern Mariana Islands",
        "postcode": "96950",
        "country": "United States",
        "country_code": "us"
      },
      "address": "624, Sosugi Drive, Saipan, 96950 Northern Mariana Islands, Northern Mariana Islands"
    },
    {
      "lat": 15.209243358070033,
      "lon": 145.7195312986743,
      "geoinfo": {
        "display_name": "Filooris Avenue, Garapan, Saipan Municipality, Northern Mariana Islands, 96950, United States",
        "road": "Filooris Avenue",
        "house_number": null,
        "neighbourhood": null,
        "suburb": null,
        "city_district": null,
        "city": "Garapan",
        "state": "Northern Mariana Islands",
        "postcode": "96950",
        "country": "United States",
        "country_code": "us"
      },
      "address": "329, Filooris Avenue, Saipan, 96950 Northern Mariana Islands, Northern Mariana Islands"
    },
    {
      "lat": 15.184297400670816,
      "lon": 145.72866848402373,
      "geoinfo": {
        "display_name": "Earhart Drive, As Falipe, Gualo Rai, Saipan Municipality, Northern Mariana Islands, 96950, United States",
        "road": "Earhart Drive",
        "house_number": null,
        "neighbourhood": null,
        "suburb": null,
        "city_district": null,
        "city": "Gualo Rai",
        "state": "Northern Mariana Islands",
        "postcode": "96950",
        "country": "United States",
        "country_code": "us"
      },
      "address": "216, Earhart Drive, Saipan, 96950 Northern Mariana Islands, Northern Mariana Islands"
    },
    {
      "lat": 15.230265070468914,
      "lon": 145.7382034611119,
      "geoinfo": {
        "display_name": "Lower Base Drive, Puerto Rico, Saipan Municipality, Northern Mariana Islands, 96950, United States",
        "road": "Lower Base Drive",
        "house_number": null,
        "neighbourhood": null,
        "suburb": null,
        "city_district": null,
        "city": "Puerto Rico",
        "state": "Northern Mariana Islands",
        "postcode": "96950",
        "country": "United States",
        "country_code": "us"
      },
      "address": "474, Lower Base Drive, Saipan, 96950 Northern Mariana Islands, Northern Mariana Islands"
    },
    {
      "lat": 15.210574271285969,
      "lon": 145.75206206364288,
      "geoinfo": {
        "display_name": "Capitol Hill, Saipan Municipality, Northern Mariana Islands, 96950, United States",
        "road": null,
        "house_number": null,
        "neighbourhood": null,
        "suburb": null,
        "city_district": null,
        "city": "Capitol Hill",
        "state": "Northern Mariana Islands",
        "postcode": "96950",
        "country": "United States",
        "country_code": "us"
      },
      "address": "765, Saipan, 96950 Northern Mariana Islands, Northern Mariana Islands"
    },
    {
      "lat": 15.221770856224413,
      "lon": 145.78715267211902,
      "geoinfo": {
        "display_name": "Kingfisher Golf Links, Talofofo Road, San Roque, Saipan Municipality, Northern Mariana Islands, 96950, United States",
        "road": "Talofofo Road",
        "house_number": null,
        "neighbourhood": null,
        "suburb": null,
        "city_district": null,
        "city": "San Roque",
        "state": "Northern Mariana Islands",
        "postcode": "96950",
        "country": "United States",
        "country_code": "us"
      },
      "address": "950, Talofofo Road, Saipan, 96950 Northern Mariana Islands, Northern Mariana Islands"
    },
    {
      "lat": 15.252934694580036,
      "lon": 145.77394458548105,
      "geoinfo": {
        "display_name": "Kensington Hotel Saipan, Chalan Pale Arnold, San Roque, Saipan Municipality, Northern Mariana Islands, 96950, United States",
        "road": "Chalan Pale Arnold",
        "house_number": null,
        "neighbourhood": null,
        "suburb": null,
        "city_district": null,
        "city": "San Roque",
        "state": "Northern Mariana Islands",
        "postcode": "96950",
        "country": "United States",
        "country_code": "us"
      },
      "address": "135, Chalan Pale Arnold, Saipan, 96950 Northern Mariana Islands, Northern Mariana Islands"
    },
    {
      "lat": 15.175976239193092,
      "lon": 145.76067213321855,
      "geoinfo": {
        "display_name": "Sumak Place, Kagman, Saipan Municipality, Northern Mariana Islands, 96950, United States",
        "road": "Sumak Place",
        "house_number": null,
        "neighbourhood": null,
        "suburb": null,
        "city_district": null,
        "city": "Kagman",
        "state": "Northern Mariana Islands",
        "postcode": "96950",
        "country": "United States",
        "country_code": "us"
      },
      "address": "389, Sumak Place, Saipan, 96950 Northern Mariana Islands, Northern Mariana Islands"
    },
    {
      "lat": 15.235803384587438,
      "lon": 145.72120547823488,
      "geoinfo": {
        "display_name": "Marina Lane, Navy Hill, Saipan Municipality, Northern Mariana Islands, 96950, United States",
        "road": "Marina Lane",
        "house_number": null,
        "neighbourhood": null,
        "suburb": null,
        "city_district": null,
        "city": "Navy Hill",
        "state": "Northern Mariana Islands",
        "postcode": "96950",
        "country": "United States",
        "country_code": "us"
      },
      "address": "282, Marina Lane, Saipan, 96950 Northern Mariana Islands, Northern Mariana Islands"
    },
    {
      "lat": 15.198511828004921,
      "lon": 145.72445803862874,
      "geoinfo": {
        "display_name": "Raghisch Street, Mutcho, Gualo Rai, Saipan Municipality, Northern Mariana Islands, 96950, United States",
        "road": "Raghisch Street",
        "house_number": null,
        "neighbourhood": null,
        "suburb": null,
        "city_district": null,
        "city": "Gualo Rai",
        "state": "Northern Mariana Islands",
        "postcode": "96950",
        "country": "United States",
        "country_code": "us"
      },
      "address": "300, Raghisch Street, Saipan, 96950 Northern Mariana Islands, Northern Mariana Islands"
    },
    {
      "lat": 15.187163591545858,
      "lon": 145.7599096321121,
      "geoinfo": {
        "display_name": "Fahang Drive, Chacha, Saipan Municipality, Northern Mariana Islands, 96950, United States",
        "road": "Fahang Drive",
        "house_number": null,
        "neighbourhood": null,
        "suburb": null,
        "city_district": null,
        "city": "Chacha",
        "state": "Northern Mariana Islands",
        "postcode": "96950",
        "country": "United States",
        "country_code": "us"
      },
      "address": "940, Fahang Drive, Saipan, 96950 Northern Mariana Islands, Northern Mariana Islands"
    },
    {
      "lat": 15.215717944113724,
      "lon": 145.7325245613611,
      "geoinfo": {
        "display_name": "Pantalan Circle, Anak's Condominium, Navy Hill, Saipan Municipality, Northern Mariana Islands, 96950, United States",
        "road": "Pantalan Circle",
        "house_number": null,
        "neighbourhood": null,
        "suburb": null,
        "city_district": null,
        "city": "Navy Hill",
        "state": "Northern Mariana Islands",
        "postcode": "96950",
        "country": "United States",
        "country_code": "us"
      },
      "address": "988, Pantalan Circle, Saipan, 96950 Northern Mariana Islands, Northern Mariana Islands"
    },
    {
      "lat": 15.201556552955623,
      "lon": 145.76324593624904,
      "geoinfo": {
        "display_name": "Egigi Drive, Capitol Hill, Saipan Municipality, Northern Mariana Islands, 96950, United States",
        "road": "Egigi Drive",
        "house_number": null,
        "neighbourhood": null,
        "suburb": null,
        "city_district": null,
        "city": "Capitol Hill",
        "state": "Northern Mariana Islands",
        "postcode": "96950",
        "country": "United States",
        "country_code": "us"
      },
      "address": "400, Egigi Drive, Saipan, 96950 Northern Mariana Islands, Northern Mariana Islands"
    },
    {
      "lat": 15.206779462202077,
      "lon": 145.76861190447016,
      "geoinfo": {
        "display_name": "Talofofo Road, Capitol Hill, Saipan Municipality, Northern Mariana Islands, 96950, United States",
        "road": "Talofofo Road",
        "house_number": null,
        "neighbourhood": null,
        "suburb": null,
        "city_district": null,
        "city": "Capitol Hill",
        "state": "Northern Mariana Islands",
        "postcode": "96950",
        "country": "United States",
        "country_code": "us"
      },
      "address": "713, Talofofo Road, Saipan, 96950 Northern Mariana Islands, Northern Mariana Islands"
    },
    {
      "lat": 15.215848122228367,
      "lon": 145.78960459900338,
      "geoinfo": {
        "display_name": "Kingfisher Golf Links, Saipan Municipality, Northern Mariana Islands, 96950, United States",
        "road": "Kingfisher Golf Links",
        "house_number": null,
        "neighbourhood": null,
        "suburb": null,
        "city_district": null,
        "city": null,
        "state": "Northern Mariana Islands",
        "postcode": "96950",
        "country": "United States",
        "country_code": "us"
      },
      "address": "265, Kingfisher Golf Links, Saipan, 96950 Northern Mariana Islands, Northern Mariana Islands"
    },
    {
      "lat": 15.222815111403902,
      "lon": 145.78286960912232,
      "geoinfo": {
        "display_name": "Kingfisher Golf Links, Talofofo Road, San Roque, Saipan Municipality, Northern Mariana Islands, 96950, United States",
        "road": "Talofofo Road",
        "house_number": null,
        "neighbourhood": null,
        "suburb": null,
        "city_district": null,
        "city": "San Roque",
        "state": "Northern Mariana Islands",
        "postcode": "96950",
        "country": "United States",
        "country_code": "us"
      },
      "address": "631, Talofofo Road, Saipan, 96950 Northern Mariana Islands, Northern Mariana Islands"
    },
    {
      "lat": 15.2213581284463,
      "lon": 145.76225728550946,
      "geoinfo": {
        "display_name": "Managaha Place, Wireless Ridge, Saipan Municipality, Northern Mariana Islands, 96950, United States",
        "road": "Managaha Place",
        "house_number": null,
        "neighbourhood": null,
        "suburb": null,
        "city_district": null,
        "city": "Wireless Ridge",
        "state": "Northern Mariana Islands",
        "postcode": "96950",
        "country": "United States",
        "country_code": "us"
      },
      "address": "187, Managaha Place, Saipan, 96950 Northern Mariana Islands, Northern Mariana Islands"
    },
    {
      "lat": 15.226680370301006,
      "lon": 145.73877910193886,
      "geoinfo": {
        "display_name": "Lower Base Drive, Puerto Rico, Saipan Municipality, Northern Mariana Islands, 96950, United States",
        "road": "Lower Base Drive",
        "house_number": null,
        "neighbourhood": null,
        "suburb": null,
        "city_district": null,
        "city": "Puerto Rico",
        "state": "Northern Mariana Islands",
        "postcode": "96950",
        "country": "United States",
        "country_code": "us"
      },
      "address": "839, Lower Base Drive, Saipan, 96950 Northern Mariana Islands, Northern Mariana Islands"
    },
    {
      "lat": 15.254443621131525,
      "lon": 145.75556550078636,
      "geoinfo": {
        "display_name": "As Mahetog, Saipan Municipality, Northern Mariana Islands, 96950, United States",
        "road": null,
        "house_number": null,
        "neighbourhood": null,
        "suburb": null,
        "city_district": null,
        "city": "As Mahetog",
        "state": "Northern Mariana Islands",
        "postcode": "96950",
        "country": "United States",
        "country_code": "us"
      },
      "address": "398, Saipan, 96950 Northern Mariana Islands, Northern Mariana Islands"
    },
    {
      "lat": 15.214121150226132,
      "lon": 145.79826443460212,
      "geoinfo": {
        "display_name": "Nanasu, Saipan Municipality, Northern Mariana Islands, 96950, United States",
        "road": null,
        "house_number": null,
        "neighbourhood": null,
        "suburb": null,
        "city_district": null,
        "city": "Nanasu",
        "state": "Northern Mariana Islands",
        "postcode": "96950",
        "country": "United States",
        "country_code": "us"
      },
      "address": "166, Saipan, 96950 Northern Mariana Islands, Northern Mariana Islands"
    }
  ],
  "updated_at": "2025-10-19T05:45:10.322853+00:00",
  "_kind": "geo_samples"
}